{"AG": {"03": [{"lat": "17.15", "city": "Barnes Hill", "lon": "-61.8"}, {"lat": "17.15", "city": "Barnes Hill Village", "lon": "-61.8"}, {"lat": "17.1333333", "city": "Carlisle", "lon": "-61.8"}, {"lat": "17.1166667", "city": "Cassada Gardens", "lon": "-61.8"}, {"lat": "17.1333333", "city": "Cedar Valley Mill", "lon": "-61.8"}, {"lat": "17.1166667", "city": "Fitches Creek", "lon": "-61.7833333"}, {"lat": "17.1166667", "city": "Gunthorpes", "lon": "-61.8"}, {"lat": "17.15", "city": "New Winthorpes", "lon": "-61.8"}, {"lat": "17.1333333", "city": "Osbourn", "lon": "-61.8"}, {"lat": "17.1166667", "city": "Painter Village", "lon": "-61.8"}, {"lat": "17.1166667", "city": "Paynter", "lon": "-61.8"}, {"lat": "17.1166667", "city": "Paynters", "lon": "-61.8"}, {"lat": "17.1166667", "city": "Piggotts", "lon": "-61.8"}, {"lat": "17.1333333", "city": "Pigots Village", "lon": "-61.8"}, {"lat": "17.1333333", "city": "Pigotts", "lon": "-61.8"}, {"lat": "17.1166667", "city": "Saint Mark's", "lon": "-61.8"}, {"lat": "17.1166667", "city": "Saint Marks Village", "lon": "-61.8"}, {"lat": "17.1", "city": "The Grove", "lon": "-61.8"}, {"lat": "17.1166667", "city": "Tomlinson", "lon": "-61.8"}, {"lat": "17.15", "city": "Winthorpes Village", "lon": "-61.8"}], "01": [{"lat": "17.6333333", "city": "Codrington", "lon": "-61.8333333"}, {"lat": "17.6333333", "city": "Codrington Village", "lon": "-61.8333333"}, {"lat": "17.5833333", "city": "Dulcina", "lon": "-61.8166667"}, {"lat": "17.6833333", "city": "The Caves", "lon": "-61.7833333"}], "06": [{"lat": "17.05", "city": "All Saints", "lon": "-61.8"}, {"lat": "17.05", "city": "All Saints Village", "lon": "-61.8"}, {"lat": "17.0166667", "city": "Bats Cave", "lon": "-61.75"}, {"lat": "17.05", "city": "Bethesda", "lon": "-61.75"}, {"lat": "17.05", "city": "Bethesda Village", "lon": "-61.75"}, {"lat": "17.05", "city": "Blakes", "lon": "-61.7333333"}, {"lat": "17.05", "city": "Burkes", "lon": "-61.7666667"}, {"lat": "17.0333333", "city": "Christian Hill", "lon": "-61.75"}, {"lat": "17.0", "city": "Clarence House", "lon": "-61.7666667"}, {"lat": "17.0166667", "city": "Cobbs Cross", "lon": "-61.7666667"}, {"lat": "17.05", "city": "Delaps", "lon": "-61.7333333"}, {"lat": "17.0166667", "city": "Doigs", "lon": "-61.8"}, {"lat": "17.0166667", "city": "English Harbour Town", "lon": "-61.7666667"}, {"lat": "17.0166667", "city": "Falmouth", "lon": "-61.7833333"}, {"lat": "17.05", "city": "Ffryes", "lon": "-61.7333333"}, {"lat": "17.05", "city": "Frryes", "lon": "-61.7333333"}, {"lat": "17.05", "city": "Lavingtons", "lon": "-61.7333333"}, {"lat": "17.0333333", "city": "Liberta", "lon": "-61.7833333"}, {"lat": "17.0333333", "city": "Liberta Village", "lon": "-61.7833333"}, {"lat": "17.05", "city": "Lower Lyons", "lon": "-61.7333333"}, {"lat": "17.05", "city": "Lyon", "lon": "-61.7333333"}, {"lat": "17.05", "city": "Lyons", "lon": "-61.7333333"}, {"lat": "17.0666667", "city": "Mathew", "lon": "-61.8"}, {"lat": "17.0666667", "city": "Matthews", "lon": "-61.8"}, {"lat": "17.0333333", "city": "Morris Loobys", "lon": "-61.75"}, {"lat": "17.0333333", "city": "Mount William", "lon": "-61.8"}, {"lat": "17.0333333", "city": "Mount Williem", "lon": "-61.8"}, {"lat": "17.0333333", "city": "Pattersons Dwelling House", "lon": "-61.7833333"}, {"lat": "17.0166667", "city": "Pattersons", "lon": "-61.7833333"}, {"lat": "17.0166667", "city": "Rotten Town", "lon": "-61.7666667"}, {"lat": "17.05", "city": "Simpson", "lon": "-61.7333333"}, {"lat": "17.05", "city": "Sweets", "lon": "-61.8"}, {"lat": "17.05", "city": "Sweets Village", "lon": "-61.8"}, {"lat": "17.05", "city": "Swetes", "lon": "-61.8"}, {"lat": "17.05", "city": "Swetes Village", "lon": "-61.8"}, {"lat": "17.05", "city": "Willis Freemans", "lon": "-61.7666667"}], "07": [{"lat": "17.0666667", "city": "Betty's Hope", "lon": "-61.7333333"}, {"lat": "17.0666667", "city": "Big Duers", "lon": "-61.7666667"}, {"lat": "17.0666667", "city": "Cochranes", "lon": "-61.7666667"}, {"lat": "17.1", "city": "Cocoa Hall", "lon": "-61.7333333"}, {"lat": "17.1", "city": "Coconut Hall", "lon": "-61.7333333"}, {"lat": "17.05", "city": "Freeman", "lon": "-61.7833333"}, {"lat": "17.05", "city": "Freemans", "lon": "-61.7833333"}, {"lat": "17.05", "city": "Freemanville", "lon": "-61.7833333"}, {"lat": "17.05", "city": "Freemonville", "lon": "-61.7833333"}, {"lat": "17.0666667", "city": "Little Duer", "lon": "-61.75"}, {"lat": "17.0666667", "city": "Little Duers", "lon": "-61.75"}, {"lat": "17.0666667", "city": "Long Lane", "lon": "-61.7333333"}, {"lat": "17.0833333", "city": "Pares", "lon": "-61.75"}, {"lat": "17.0833333", "city": "Pares Village", "lon": "-61.75"}, {"lat": "17.0833333", "city": "Parham", "lon": "-61.7666667"}, {"lat": "17.0666667", "city": "Parrys", "lon": "-61.7666667"}, {"lat": "17.05", "city": "Table Hill Gordon", "lon": "-61.7833333"}, {"lat": "17.0666667", "city": "The Diamond", "lon": "-61.75"}, {"lat": "17.0666667", "city": "The Garden", "lon": "-61.7333333"}, {"lat": "17.1", "city": "Vernons", "lon": "-61.7666667"}], "04": [{"lat": "17.0666667", "city": "Aberdeen", "lon": "-61.8166667"}, {"lat": "17.0666667", "city": "Aberdeen Village", "lon": "-61.8166667"}, {"lat": "17.1", "city": "Belmont", "lon": "-61.8166667"}, {"lat": "17.0666667", "city": "Bendals", "lon": "-61.8333333"}, {"lat": "17.0666667", "city": "Bendals Village", "lon": "-61.8333333"}, {"lat": "17.1666667", "city": "Boon House", "lon": "-61.8333333"}, {"lat": "17.1166667", "city": "Branns Hamlet", "lon": "-61.8333333"}, {"lat": "17.0666667", "city": "Buckleys", "lon": "-61.8166667"}, {"lat": "17.1666667", "city": "Cedar Grove", "lon": "-61.8166667"}, {"lat": "17.1666667", "city": "Cedar Grove Village", "lon": "-61.8166667"}, {"lat": "17.1166667", "city": "Clare Hall", "lon": "-61.8166667"}, {"lat": "17.1", "city": "Creekside", "lon": "-61.8333333"}, {"lat": "17.1666667", "city": "Crosbies", "lon": "-61.8166667"}, {"lat": "17.0666667", "city": "Emanuel", "lon": "-61.8333333"}, {"lat": "17.1166667", "city": "Fitzroy Town", "lon": "-61.85"}, {"lat": "17.1166667", "city": "Five Islands Village", "lon": "-61.8833333"}, {"lat": "17.1166667", "city": "Gambles", "lon": "-61.8333333"}, {"lat": "17.1", "city": "Golden Grove", "lon": "-61.8333333"}, {"lat": "17.1", "city": "Gray House", "lon": "-61.85"}, {"lat": "17.1", "city": "Gray House Village", "lon": "-61.85"}, {"lat": "17.1", "city": "Grays", "lon": "-61.85"}, {"lat": "17.1", "city": "Grays Hill", "lon": "-61.85"}, {"lat": "17.1166667", "city": "Green Bay", "lon": "-61.85"}, {"lat": "17.05", "city": "Hamiltons", "lon": "-61.8333333"}, {"lat": "17.05", "city": "Hamiltons Village", "lon": "-61.8333333"}, {"lat": "17.0833333", "city": "Herberts", "lon": "-61.8"}, {"lat": "17.0833333", "city": "Potters", "lon": "-61.8166667"}, {"lat": "17.0833333", "city": "Potters Village", "lon": "-61.8166667"}, {"lat": "17.0833333", "city": "Renfrew", "lon": "-61.8"}, {"lat": "17.1166667", "city": "Saint John", "lon": "-61.85"}, {"lat": "17.1166667", "city": "Saint John's", "lon": "-61.85"}, {"lat": "17.1166667", "city": "Saint Johnstone Village", "lon": "-61.8333333"}, {"lat": "17.1166667", "city": "Saint Johnston", "lon": "-61.8333333"}, {"lat": "17.1166667", "city": "Saint Johnston Village", "lon": "-61.8333333"}, {"lat": "17.0666667", "city": "Saint Lukes", "lon": "-61.8333333"}, {"lat": "17.0666667", "city": "Saint Lukes Village", "lon": "-61.8333333"}, {"lat": "17.0833333", "city": "Sea View Farm", "lon": "-61.8"}, {"lat": "17.1166667", "city": "Sutherlands Development", "lon": "-61.8166667"}, {"lat": "17.1666667", "city": "Weatherills", "lon": "-61.8333333"}, {"lat": "17.1666667", "city": "Willock Village", "lon": "-61.8166667"}, {"lat": "17.1333333", "city": "Woods", "lon": "-61.8166667"}], "05": [{"lat": "17.0333333", "city": "Bishops", "lon": "-61.8166667"}, {"lat": "17.0666667", "city": "Blubber Valley", "lon": "-61.8666667"}, {"lat": "17.0333333", "city": "Bolands", "lon": "-61.8833333"}, {"lat": "17.0333333", "city": "Boland Village", "lon": "-61.8833333"}, {"lat": "17.0333333", "city": "Bolans", "lon": "-61.8833333"}, {"lat": "17.0166667", "city": "Cades Bay", "lon": "-61.85"}, {"lat": "17.0166667", "city": "Carlisle", "lon": "-61.8333333"}, {"lat": "17.0166667", "city": "Carlisle's Estate", "lon": "-61.8333333"}, {"lat": "17.0666667", "city": "Cedar Hall", "lon": "-61.8666667"}, {"lat": "17.0166667", "city": "Claremont", "lon": "-61.8166667"}, {"lat": "17.0333333", "city": "Crab Hill", "lon": "-61.8833333"}, {"lat": "17.0333333", "city": "Crab Hill Village", "lon": "-61.8833333"}, {"lat": "17.0833333", "city": "Ebenezer", "lon": "-61.8666667"}, {"lat": "17.0333333", "city": "Glebe", "lon": "-61.8666667"}, {"lat": "17.0333333", "city": "Harveys", "lon": "-61.8666667"}, {"lat": "17.0833333", "city": "Jennings", "lon": "-61.8666667"}, {"lat": "17.0833333", "city": "Jennings Village", "lon": "-61.8666667"}, {"lat": "17.05", "city": "John Hughes", "lon": "-61.8166667"}, {"lat": "17.0333333", "city": "Johnson Point", "lon": "-61.8833333"}, {"lat": "17.0333333", "city": "Johnson Point Village", "lon": "-61.8833333"}, {"lat": "17.0333333", "city": "Johnsons Point", "lon": "-61.8833333"}, {"lat": "17.0833333", "city": "New Division", "lon": "-61.8666667"}, {"lat": "17.0166667", "city": "Old Road", "lon": "-61.8333333"}, {"lat": "17.0166667", "city": "Old Road Town", "lon": "-61.8333333"}, {"lat": "17.0166667", "city": "Old Road Village", "lon": "-61.8333333"}, {"lat": "17.0333333", "city": "Orange Valley Mill", "lon": "-61.8666667"}, {"lat": "17.05", "city": "Sawcolts", "lon": "-61.8166667"}, {"lat": "17.1", "city": "Seaforth", "lon": "-61.8666667"}, {"lat": "17.1", "city": "Seaforths", "lon": "-61.8666667"}, {"lat": "17.0333333", "city": "Urlings", "lon": "-61.8666667"}, {"lat": "17.0333333", "city": "Urlins", "lon": "-61.8666667"}, {"lat": "17.0833333", "city": "Yorks", "lon": "-61.8666667"}], "08": [{"lat": "17.0833333", "city": "Collins", "lon": "-61.7333333"}, {"lat": "17.0833333", "city": "Comfort Hall", "lon": "-61.7"}, {"lat": "17.05", "city": "Far Hill Village", "lon": "-61.7"}, {"lat": "17.05", "city": "Freetown", "lon": "-61.7"}, {"lat": "17.05", "city": "Freetown Village", "lon": "-61.7"}, {"lat": "17.0666667", "city": "Gaynors", "lon": "-61.7"}, {"lat": "17.0833333", "city": "Gilberts", "lon": "-61.7333333"}, {"lat": "17.0833333", "city": "Glanvilles", "lon": "-61.7166667"}, {"lat": "17.0833333", "city": "Grants", "lon": "-61.7166667"}, {"lat": "17.0833333", "city": "Grays", "lon": "-61.7"}, {"lat": "17.0833333", "city": "Mayers", "lon": "-61.7"}, {"lat": "17.0833333", "city": "Mercers Creek", "lon": "-61.7333333"}, {"lat": "17.0333333", "city": "Mill Reef Club", "lon": "-61.6833333"}, {"lat": "17.05", "city": "Montpelier", "lon": "-61.7166667"}, {"lat": "17.0333333", "city": "Newfield", "lon": "-61.7333333"}, {"lat": "17.0333333", "city": "Newfield Village", "lon": "-61.7333333"}, {"lat": "17.05", "city": "Saint Philips", "lon": "-61.7166667"}, {"lat": "17.0833333", "city": "Seatons", "lon": "-61.7166667"}, {"lat": "17.0833333", "city": "Seatons Village", "lon": "-61.7166667"}, {"lat": "17.0833333", "city": "Seton Village", "lon": "-61.7166667"}, {"lat": "17.0833333", "city": "Sign", "lon": "-61.7"}, {"lat": "17.0833333", "city": "Spencers", "lon": "-61.7"}, {"lat": "17.0666667", "city": "The Brook", "lon": "-61.6833333"}, {"lat": "17.05", "city": "Watsons", "lon": "-61.6833333"}, {"lat": "17.05", "city": "Watson", "lon": "-61.6833333"}, {"lat": "17.0833333", "city": "Wickhams", "lon": "-61.7"}, {"lat": "17.0833333", "city": "Wickham", "lon": "-61.7"}, {"lat": "17.0833333", "city": "Willikie's", "lon": "-61.7"}, {"lat": "17.0833333", "city": "Willikies", "lon": "-61.7"}, {"lat": "17.0333333", "city": "Willoughby", "lon": "-61.7166667"}]}}