{"AL": {"48": [{"lat": "41.7836111", "city": "Alessio", "lon": "19.6436111"}, {"lat": "41.6727778", "city": "Alk", "lon": "19.5988889"}, {"lat": "41.6727778", "city": "Alku", "lon": "19.5988889"}, {"lat": "41.9136111", "city": "Ar\u00ebz\u00eb", "lon": "19.9091667"}, {"lat": "41.7502778", "city": "(( Arisht\u00eb ))", "lon": "19.7894444"}, {"lat": "41.9136111", "city": "Arr\u00ebz", "lon": "19.9091667"}, {"lat": "41.9136111", "city": "Arr\u00ebzi", "lon": "19.9091667"}, {"lat": "41.9136111", "city": "Arrza", "lon": "19.9091667"}, {"lat": "41.9136111", "city": "Ars", "lon": "19.9091667"}, {"lat": "41.9136111", "city": "Arsi", "lon": "19.9091667"}, {"lat": "41.9136111", "city": "Arza", "lon": "19.9091667"}, {"lat": "41.9358333", "city": "Baba", "lon": "19.5755556"}, {"lat": "41.9358333", "city": "Bab", "lon": "19.5755556"}, {"lat": "41.9358333", "city": "Bab\u00eb", "lon": "19.5755556"}, {"lat": "41.8958333", "city": "Bac", "lon": "19.6480556"}, {"lat": "41.8958333", "city": "Bac\u00eb", "lon": "19.6480556"}, {"lat": "41.8891667", "city": "Bajramaj", "lon": "19.4836111"}, {"lat": "41.8094444", "city": "Baldre", "lon": "19.6347222"}, {"lat": "41.8094444", "city": "Baldreen", "lon": "19.6347222"}, {"lat": "41.8094444", "city": "Baldren", "lon": "19.6347222"}, {"lat": "41.8094444", "city": "Baldrin", "lon": "19.6347222"}, {"lat": "41.8191667", "city": "Balldran", "lon": "19.6402778"}, {"lat": "41.8094444", "city": "Balldren", "lon": "19.6347222"}, {"lat": "41.8094444", "city": "Balldreni", "lon": "19.6347222"}, {"lat": "41.8191667", "city": "Balldreni i Ri", "lon": "19.6402778"}, {"lat": "41.8191667", "city": "Balldren i Ri", "lon": "19.6402778"}, {"lat": "41.8958333", "city": "Baq\u00ebl", "lon": "19.6480556"}, {"lat": "41.8958333", "city": "Baq\u00ebli", "lon": "19.6480556"}, {"lat": "41.8958333", "city": "Baqli", "lon": "19.6480556"}, {"lat": "41.7572222", "city": "Bardhaj", "lon": "20.0608333"}, {"lat": "41.7127778", "city": "Berzana", "lon": "19.7338889"}, {"lat": "41.7127778", "city": "B\u00ebrzan\u00eb", "lon": "19.7338889"}, {"lat": "41.7127778", "city": "Berzani", "lon": "19.7338889"}, {"lat": "41.7127778", "city": "B\u00ebrzena", "lon": "19.7338889"}, {"lat": "41.9055556", "city": "Bisaka", "lon": "20.1227778"}, {"lat": "41.9055556", "city": "Bisak", "lon": "20.1227778"}, {"lat": "41.9055556", "city": "Bisak\u00eb", "lon": "20.1227778"}, {"lat": "41.9055556", "city": "Bisaku", "lon": "20.1227778"}, {"lat": "41.8613889", "city": "Blinisht", "lon": "20.0"}, {"lat": "41.8613889", "city": "Blinishti", "lon": "20.0"}, {"lat": "41.8627778", "city": "Blinisht i posht\u00ebm", "lon": "19.6472222"}, {"lat": "41.8627778", "city": "Blinist i postrm", "lon": "19.6472222"}, {"lat": "41.7572222", "city": "Boshiqi", "lon": "20.0608333"}, {"lat": "41.7572222", "city": "Bozhig", "lon": "20.0608333"}, {"lat": "41.7572222", "city": "Bozhiq", "lon": "20.0608333"}, {"lat": "41.7572222", "city": "Bozhiqi", "lon": "20.0608333"}, {"lat": "41.7127778", "city": "Brzan", "lon": "19.7338889"}, {"lat": "41.8408333", "city": "Buk\u00ebmira", "lon": "19.8672222"}, {"lat": "41.8408333", "city": "Buk\u00ebmir\u00eb", "lon": "19.8672222"}, {"lat": "41.8408333", "city": "Bukmira", "lon": "19.8672222"}, {"lat": "41.8408333", "city": "Bukmir\u00eb", "lon": "19.8672222"}, {"lat": "41.8458333", "city": "Bulshara", "lon": "20.0658333"}, {"lat": "41.8458333", "city": "Bulshar", "lon": "20.0658333"}, {"lat": "41.8458333", "city": "Bulshar\u00eb", "lon": "20.0658333"}, {"lat": "41.8458333", "city": "Bulshari", "lon": "20.0658333"}, {"lat": "41.7669444", "city": "Bulshic\u00eb", "lon": "19.7833333"}, {"lat": "41.7669444", "city": "Bulshisa", "lon": "19.7833333"}, {"lat": "41.7669444", "city": "Bulshive", "lon": "19.7833333"}, {"lat": "41.7669444", "city": "Bulshiza", "lon": "19.7833333"}, {"lat": "41.7669444", "city": "(( Bulshiz\u00eb ))", "lon": "19.7833333"}, {"lat": "41.7669444", "city": "Bulsic", "lon": "19.7833333"}, {"lat": "41.7666667", "city": "(( Bungaj ))", "lon": "19.9166667"}, {"lat": "41.8569444", "city": "Cacaritc", "lon": "19.6113889"}, {"lat": "41.8488889", "city": "Calmeti", "lon": "19.6869444"}, {"lat": "41.8266667", "city": "\u00c7elaj", "lon": "19.5672222"}, {"lat": "41.8891667", "city": "Colaj", "lon": "19.4836111"}, {"lat": "41.88", "city": "Dadri", "lon": "19.5913889"}, {"lat": "41.9155556", "city": "Daj\u00e7", "lon": "19.6044444"}, {"lat": "41.9155556", "city": "Dajci", "lon": "19.6044444"}, {"lat": "41.9763889", "city": "Dardha", "lon": "20.2311111"}, {"lat": "41.9763889", "city": "Dardh\u00eb", "lon": "20.2311111"}, {"lat": "41.6072222", "city": "Daul", "lon": "19.7747222"}, {"lat": "41.6072222", "city": "Dauli", "lon": "19.7747222"}, {"lat": "41.6072222", "city": "Daul-Lakapaqej", "lon": "19.7747222"}, {"lat": "41.6072222", "city": "Daulla Kapoq", "lon": "19.7747222"}, {"lat": "41.6072222", "city": "Daull\u00eb", "lon": "19.7747222"}, {"lat": "41.6072222", "city": "Daull-Lakapacej", "lon": "19.7747222"}, {"lat": "41.6072222", "city": "Daull-Lugapa\u00e7", "lon": "19.7747222"}, {"lat": "41.6072222", "city": "Daull-Lugapa\u00e7i", "lon": "19.7747222"}, {"lat": "41.6072222", "city": "Daul-Lugapa\u00e7i", "lon": "19.7747222"}, {"lat": "41.6483333", "city": "Delbenisht", "lon": "19.7352778"}, {"lat": "41.6483333", "city": "Delbenishti", "lon": "19.7352778"}, {"lat": "41.6483333", "city": "Delbinishtaj", "lon": "19.7352778"}, {"lat": "41.6483333", "city": "Delbinisht", "lon": "19.7352778"}, {"lat": "41.6483333", "city": "Delbinishti", "lon": "19.7352778"}, {"lat": "41.6483333", "city": "Delbinist", "lon": "19.7352778"}, {"lat": "41.6483333", "city": "Delbnishtaj", "lon": "19.7352778"}, {"lat": "41.6483333", "city": "Delbnisht", "lon": "19.7352778"}, {"lat": "41.6483333", "city": "Delbnishti", "lon": "19.7352778"}, {"lat": "41.8297222", "city": "Demaj", "lon": "19.5819444"}, {"lat": "41.6483333", "city": "Dhelpnishte", "lon": "19.7352778"}, {"lat": "41.8038889", "city": "\u00d0jas", "lon": "19.6877778"}, {"lat": "41.6483333", "city": "Dkelpnishte", "lon": "19.7352778"}, {"lat": "41.9277778", "city": "\u00d0obarlaj", "lon": "19.7755556"}, {"lat": "41.8766667", "city": "Dodaj", "lon": "20.235"}, {"lat": "41.8833333", "city": "Domaj", "lon": "20.2666667"}, {"lat": "41.9627778", "city": "Domajoni", "lon": "20.1580556"}, {"lat": "41.9627778", "city": "Domgjon", "lon": "20.1580556"}, {"lat": "41.9627778", "city": "Domgjoni", "lon": "20.1580556"}, {"lat": "41.6133333", "city": "\u00d0orm", "lon": "19.7252778"}, {"lat": "41.9422222", "city": "Dragusha", "lon": "19.5941667"}, {"lat": "41.9422222", "city": "Dragush", "lon": "19.5941667"}, {"lat": "41.9422222", "city": "Dragush\u00eb", "lon": "19.5941667"}, {"lat": "41.8863889", "city": "Drobaj", "lon": "20.2213889"}, {"lat": "41.9", "city": "(( Eg\u00ebr ))", "lon": "19.9833333"}, {"lat": "41.7283333", "city": "Fang\u00eb", "lon": "19.7844444"}, {"lat": "41.7283333", "city": "Fang", "lon": "19.7844444"}, {"lat": "41.7283333", "city": "Fang-Limaj", "lon": "19.7844444"}, {"lat": "41.7283333", "city": "Fangu", "lon": "19.7844444"}, {"lat": "41.6930556", "city": "Fere Skuraj", "lon": "19.7613889"}, {"lat": "41.7011111", "city": "Ferr-Shkopet", "lon": "19.7947222"}, {"lat": "41.7011111", "city": "Ferr-Shkopeti", "lon": "19.7947222"}, {"lat": "41.6930556", "city": "Ferr -Skuraj", "lon": "19.7613889"}, {"lat": "41.7011111", "city": "Fer-Shkopet", "lon": "19.7947222"}, {"lat": "41.7011111", "city": "Fer-Shkopeti", "lon": "19.7947222"}, {"lat": "41.6930556", "city": "Ferskuraj i Eper", "lon": "19.7613889"}, {"lat": "41.7011111", "city": "Fier-Shkopet", "lon": "19.7947222"}, {"lat": "41.7011111", "city": "Fier-Shkopeti", "lon": "19.7947222"}, {"lat": "41.7433333", "city": "Fierza", "lon": "19.7780556"}, {"lat": "41.7433333", "city": "Fierz\u00eb", "lon": "19.7780556"}, {"lat": "41.7727778", "city": "Fildana", "lon": "19.6916667"}, {"lat": "41.7727778", "city": "Fildan\u00eb", "lon": "19.6916667"}, {"lat": "41.7727778", "city": "Fildan", "lon": "19.6916667"}, {"lat": "41.7727778", "city": "Fildani", "lon": "19.6916667"}, {"lat": "41.7433333", "city": "Firza", "lon": "19.7780556"}, {"lat": "41.7433333", "city": "Firz\u00eb", "lon": "19.7780556"}, {"lat": "41.7433333", "city": "Firz", "lon": "19.7780556"}, {"lat": "41.895", "city": "Fishta", "lon": "19.6711111"}, {"lat": "41.895", "city": "Fisht\u00eb", "lon": "19.6711111"}, {"lat": "41.895", "city": "Fist", "lon": "19.6711111"}, {"lat": "41.8616667", "city": "Frag\u00ebna", "lon": "19.7691667"}, {"lat": "41.8616667", "city": "Freg\u00ebna", "lon": "19.7691667"}, {"lat": "41.8616667", "city": "Freg\u00ebn\u00eb", "lon": "19.7691667"}, {"lat": "41.8616667", "city": "Freg\u00ebn", "lon": "19.7691667"}, {"lat": "41.8616667", "city": "Fregna", "lon": "19.7691667"}, {"lat": "41.8616667", "city": "Fregn\u00eb", "lon": "19.7691667"}, {"lat": "41.8616667", "city": "Freng\u00ebn", "lon": "19.7691667"}, {"lat": "41.8616667", "city": "Frenj", "lon": "19.7691667"}, {"lat": "41.6502778", "city": "Fusha e Kuge", "lon": "19.62"}, {"lat": "41.6502778", "city": "Fusha e Kuqe", "lon": "19.62"}, {"lat": "41.6502778", "city": "Fush\u00ebkuqe", "lon": "19.62"}, {"lat": "41.6502778", "city": "Fush\u00ebkuqeja", "lon": "19.62"}, {"lat": "41.6502778", "city": "Fush\u00eb-Kuqja", "lon": "19.62"}, {"lat": "41.5713889", "city": "Fush\u00eb-Mamurasi", "lon": "19.6794444"}, {"lat": "41.5713889", "city": "Fush\u00eb-Mamurras", "lon": "19.6794444"}, {"lat": "41.5713889", "city": "Fush\u00eb-Mamurrasi", "lon": "19.6794444"}, {"lat": "41.6744444", "city": "Fush\u00eb-Milot", "lon": "19.6819444"}, {"lat": "41.6747222", "city": "Fush\u00eb-Miloti", "lon": "19.6825"}, {"lat": "41.6502778", "city": "Fush-Kuqe", "lon": "19.62"}, {"lat": "41.5713889", "city": "Fush-Mamurras", "lon": "19.6794444"}, {"lat": "41.7188889", "city": "Gajush", "lon": "19.6891667"}, {"lat": "41.7188889", "city": "Gajushi", "lon": "19.6891667"}, {"lat": "41.6416667", "city": "Galat", "lon": "19.7816667"}, {"lat": "41.6416667", "city": "Gallata", "lon": "19.7816667"}, {"lat": "41.6416667", "city": "Gallat\u00eb", "lon": "19.7816667"}, {"lat": "41.5836111", "city": "Garnac", "lon": "19.82"}, {"lat": "41.5836111", "city": "Garnaci", "lon": "19.82"}, {"lat": "41.9069444", "city": "Gazu i Sip\u00ebrm", "lon": "19.8436111"}, {"lat": "41.9", "city": "Geg Palaj", "lon": "19.9166667"}, {"lat": "41.5836111", "city": "German", "lon": "19.82"}, {"lat": "41.5836111", "city": "Germec", "lon": "19.82"}, {"lat": "41.5836111", "city": "G\u00ebrnac", "lon": "19.82"}, {"lat": "41.5836111", "city": "Gernaci", "lon": "19.82"}, {"lat": "41.5836111", "city": "G\u00ebrnec", "lon": "19.82"}, {"lat": "41.8105556", "city": "G\u00ebziq", "lon": "19.9127778"}, {"lat": "41.8105556", "city": "G\u00ebziqi", "lon": "19.9127778"}, {"lat": "41.88", "city": "Gjad\u00ebr", "lon": "19.5913889"}, {"lat": "41.88", "city": "Gjad\u00ebri", "lon": "19.5913889"}, {"lat": "41.88", "city": "Gjadri", "lon": "19.5913889"}, {"lat": "41.9038889", "city": "Gjamsh", "lon": "19.5716667"}, {"lat": "41.8038889", "city": "Gjasha", "lon": "19.6877778"}, {"lat": "41.8038889", "city": "Gjashe", "lon": "19.6877778"}, {"lat": "41.8038889", "city": "Gjash", "lon": "19.6877778"}, {"lat": "41.8038889", "city": "Gjashi", "lon": "19.6877778"}, {"lat": "41.8038889", "city": "Gjashta", "lon": "19.6877778"}, {"lat": "41.9", "city": "Gjeg Palaj", "lon": "19.9166667"}, {"lat": "41.6180556", "city": "Gjenasesht", "lon": "19.6347222"}, {"lat": "41.6180556", "city": "Gjinazez", "lon": "19.6347222"}, {"lat": "41.9277778", "city": "Gjobardhaj", "lon": "19.7755556"}, {"lat": "41.9277778", "city": "Gjobarzaj", "lon": "19.7755556"}, {"lat": "41.845", "city": "Gjocaj Kakariq", "lon": "19.6372222"}, {"lat": "41.9277778", "city": "Gjon Bardhaj", "lon": "19.7755556"}, {"lat": "41.9277778", "city": "Gjon Bardhoj", "lon": "19.7755556"}, {"lat": "41.6133333", "city": "Gjon\u00ebm", "lon": "19.7252778"}, {"lat": "41.6133333", "city": "Gjon\u00ebmi", "lon": "19.7252778"}, {"lat": "41.6133333", "city": "Gjor\u00ebm", "lon": "19.7252778"}, {"lat": "41.6133333", "city": "Gjorm", "lon": "19.7252778"}, {"lat": "41.9622222", "city": "Gjugja", "lon": "20.2108333"}, {"lat": "41.9622222", "city": "Gjugj\u00eb", "lon": "20.2108333"}, {"lat": "41.845", "city": "Gocaj", "lon": "19.6372222"}, {"lat": "41.845", "city": "Goca-Kakariq", "lon": "19.6372222"}, {"lat": "41.845", "city": "Goc\u00eb-Kakariq", "lon": "19.6372222"}, {"lat": "41.6402778", "city": "Gore", "lon": "19.6458333"}, {"lat": "41.6402778", "city": "Gorre", "lon": "19.6458333"}, {"lat": "41.6402778", "city": "Gorreja", "lon": "19.6458333"}, {"lat": "41.6402778", "city": "Gorrej\u00eb", "lon": "19.6458333"}, {"lat": "41.6402778", "city": "Gorrej", "lon": "19.6458333"}, {"lat": "41.8105556", "city": "Goziqi", "lon": "19.9127778"}, {"lat": "41.9038889", "city": "Gramschi", "lon": "19.5716667"}, {"lat": "41.9038889", "city": "Gramsh", "lon": "19.5716667"}, {"lat": "41.9038889", "city": "Gramshi", "lon": "19.5716667"}, {"lat": "41.7786111", "city": "Grik", "lon": "19.675"}, {"lat": "41.6883333", "city": "Gryka e Lumit", "lon": "19.6136111"}, {"lat": "41.7786111", "city": "Gryka e Manatis\u00eb", "lon": "19.675"}, {"lat": "41.8575", "city": "Gryka", "lon": "20.0838889"}, {"lat": "41.6883333", "city": "Gryk\u00eb e Lumit", "lon": "19.6136111"}, {"lat": "41.7786111", "city": "Gryk\u00eb e Manatis\u00eb", "lon": "19.675"}, {"lat": "41.7786111", "city": "Gryk\u00eb", "lon": "19.675"}, {"lat": "41.7786111", "city": "Gryk' e Kolshit", "lon": "19.675"}, {"lat": "41.6883333", "city": "Gryk\u00eb Lum\u00eb", "lon": "19.6136111"}, {"lat": "41.6883333", "city": "Gryk\u00eb Lumi", "lon": "19.6136111"}, {"lat": "41.6883333", "city": "Gryk' e Lumit", "lon": "19.6136111"}, {"lat": "41.7786111", "city": "Gryk\u00eb-Manatia", "lon": "19.675"}, {"lat": "41.7786111", "city": "Gryk\u00eb-Manati", "lon": "19.675"}, {"lat": "41.8575", "city": "Gryk\u00eb-Orosh", "lon": "20.0838889"}, {"lat": "41.8575", "city": "Gryk\u00eb-Oroshi", "lon": "20.0838889"}, {"lat": "41.8575", "city": "Grykorosh", "lon": "20.0838889"}, {"lat": "41.8575", "city": "Grykoroshi", "lon": "20.0838889"}, {"lat": "41.7786111", "city": "Gryla e Manatise", "lon": "19.675"}, {"lat": "41.9622222", "city": "Gugja", "lon": "20.2108333"}, {"lat": "41.6402778", "city": "Gurej", "lon": "19.6458333"}, {"lat": "41.6672222", "city": "Gur\u00ebz", "lon": "19.6363889"}, {"lat": "41.6672222", "city": "Gur\u00ebzi", "lon": "19.6363889"}, {"lat": "41.6452778", "city": "Gurra", "lon": "19.7155556"}, {"lat": "41.6452778", "city": "Gurr\u00eb", "lon": "19.7155556"}, {"lat": "41.6402778", "city": "Gurrej\u00eb", "lon": "19.6458333"}, {"lat": "41.6672222", "city": "Gurr\u00ebs", "lon": "19.6363889"}, {"lat": "41.6672222", "city": "Gurr\u00ebsi", "lon": "19.6363889"}, {"lat": "41.6672222", "city": "Gurr\u00ebz", "lon": "19.6363889"}, {"lat": "41.6672222", "city": "Gurr\u00ebzi", "lon": "19.6363889"}, {"lat": "41.6402778", "city": "Gursi", "lon": "19.6458333"}, {"lat": "41.9183333", "city": "Gurthi i Spa\u00e7it", "lon": "20.0691667"}, {"lat": "41.9183333", "city": "Gurthi Spa\u00e7it", "lon": "20.0691667"}, {"lat": "41.9183333", "city": "Gurth-Spa\u00e7", "lon": "20.0691667"}, {"lat": "41.6672222", "city": "Gurz\u00eb", "lon": "19.6363889"}, {"lat": "41.6672222", "city": "Gurz", "lon": "19.6363889"}, {"lat": "41.8105556", "city": "Gziq", "lon": "19.9127778"}, {"lat": "41.8105556", "city": "Gziqi", "lon": "19.9127778"}, {"lat": "41.8105556", "city": "Gzy\u00e7", "lon": "19.9127778"}, {"lat": "41.8216667", "city": "Hajdar Dema", "lon": "19.5808333"}, {"lat": "41.9897222", "city": "Heba", "lon": "20.1805556"}, {"lat": "41.9897222", "city": "Heb\u00eb", "lon": "20.1805556"}, {"lat": "41.9897222", "city": "Hebja", "lon": "20.1805556"}, {"lat": "41.9897222", "city": "Hebje", "lon": "20.1805556"}, {"lat": "41.6402778", "city": "Hendek i Goges", "lon": "19.6458333"}, {"lat": "41.9897222", "city": "Hep\u00eb", "lon": "20.1805556"}, {"lat": "41.7691667", "city": "Ishulli i Lezh\u00ebs", "lon": "19.6436111"}, {"lat": "41.7686111", "city": "Ishulli i Shenjinit", "lon": "19.6294444"}, {"lat": "41.7833333", "city": "Ishulli", "lon": "19.6505556"}, {"lat": "41.7691667", "city": "Ishull i Leshet", "lon": "19.6436111"}, {"lat": "41.7691667", "city": "Ishull i Leshit", "lon": "19.6436111"}, {"lat": "41.7691667", "city": "Ishull i Lezh\u00ebs", "lon": "19.6436111"}, {"lat": "41.7686111", "city": "Ishull i Sh\u00ebngjinit", "lon": "19.6294444"}, {"lat": "41.7686111", "city": "Ishull i Sh\u00ebngjintt", "lon": "19.6294444"}, {"lat": "41.7833333", "city": "(( Ishull ))", "lon": "19.6505556"}, {"lat": "41.7691667", "city": "Ishull-Lesh\u00ebt", "lon": "19.6436111"}, {"lat": "41.7691667", "city": "Ishull-Lezha", "lon": "19.6436111"}, {"lat": "41.7691667", "city": "Ishull-Lezh\u00eb", "lon": "19.6436111"}, {"lat": "41.7686111", "city": "Ishull-Sh\u00ebngjini", "lon": "19.6294444"}, {"lat": "41.7686111", "city": "Ishull-Sh\u00ebngjin", "lon": "19.6294444"}, {"lat": "41.7691667", "city": "Isul i Leset", "lon": "19.6436111"}, {"lat": "41.7527778", "city": "Jezulli", "lon": "19.8875"}, {"lat": "41.7527778", "city": "Jezull", "lon": "19.8875"}, {"lat": "41.7972222", "city": "Ka\u00e7inari", "lon": "19.6963889"}, {"lat": "41.7972222", "city": "Ka\u00e7inar", "lon": "19.6963889"}, {"lat": "41.7972222", "city": "Ka\u00e7inr", "lon": "19.6963889"}, {"lat": "41.8569444", "city": "Kakaric", "lon": "19.6113889"}, {"lat": "41.8569444", "city": "Kakariqi", "lon": "19.6113889"}, {"lat": "41.8569444", "city": "Kakariq", "lon": "19.6113889"}, {"lat": "41.8569444", "city": "Kakarriqi", "lon": "19.6113889"}, {"lat": "41.8569444", "city": "Kakarriq", "lon": "19.6113889"}, {"lat": "41.9188889", "city": "Kaliva\u00e7i", "lon": "19.7608333"}, {"lat": "41.9188889", "city": "Kaliva\u00e7", "lon": "19.7608333"}, {"lat": "41.8488889", "city": "Kallheti i Math", "lon": "19.6869444"}, {"lat": "41.8488889", "city": "Kallmeti i Madh", "lon": "19.6869444"}, {"lat": "41.8488889", "city": "Kallmeti i Math", "lon": "19.6869444"}, {"lat": "41.8591667", "city": "Kallmeti i Vog\u00ebl", "lon": "19.6963889"}, {"lat": "41.8488889", "city": "Kallmeti", "lon": "19.6869444"}, {"lat": "41.8488889", "city": "Kallmet i Madh", "lon": "19.6869444"}, {"lat": "41.8488889", "city": "Kallmet i Math", "lon": "19.6869444"}, {"lat": "41.8591667", "city": "Kallmet i Vog\u00ebl", "lon": "19.6963889"}, {"lat": "41.8488889", "city": "Kallmet", "lon": "19.6869444"}, {"lat": "41.8488889", "city": "Kalmet", "lon": "19.6869444"}, {"lat": "41.8644444", "city": "Kalori", "lon": "19.8455556"}, {"lat": "41.8644444", "city": "Kalor", "lon": "19.8455556"}, {"lat": "41.8644444", "city": "Kaluar", "lon": "19.8455556"}, {"lat": "41.8644444", "city": "Kalueri", "lon": "19.8455556"}, {"lat": "41.8644444", "city": "Kaluer", "lon": "19.8455556"}, {"lat": "41.8644444", "city": "Kaluri", "lon": "19.8455556"}, {"lat": "41.8644444", "city": "Kalur", "lon": "19.8455556"}, {"lat": "41.9122222", "city": "Kashnjeti", "lon": "19.8138889"}, {"lat": "41.9122222", "city": "Kashnjet", "lon": "19.8138889"}, {"lat": "41.5994444", "city": "Katundi i Ri", "lon": "19.7141667"}, {"lat": "41.9263889", "city": "Katundi i Sip\u00ebrm", "lon": "20.0572222"}, {"lat": "41.6725", "city": "Katundi i Vjet\u00ebr", "lon": "19.8072222"}, {"lat": "41.5994444", "city": "Katund i Ri", "lon": "19.7141667"}, {"lat": "41.6725", "city": "Katund i Vjet\u00ebr", "lon": "19.8072222"}, {"lat": "41.5836111", "city": "Ke Livadhi", "lon": "19.7958333"}, {"lat": "41.8119444", "city": "Kethella e Eper", "lon": "20.0588889"}, {"lat": "41.8933333", "city": "Kisha e-Simonit", "lon": "19.8986111"}, {"lat": "41.9269444", "city": "Klos\u00eb", "lon": "20.1522222"}, {"lat": "41.9269444", "city": "Klosi", "lon": "20.1522222"}, {"lat": "41.9269444", "city": "Klos", "lon": "20.1522222"}, {"lat": "41.7761111", "city": "Kod\u00ebre Rreshenit", "lon": "19.8966667"}, {"lat": "41.7666667", "city": "(( Kod\u00ebrmarlekaj ))", "lon": "19.6161111"}, {"lat": "41.7333333", "city": "Kod\u00ebr Mulli", "lon": "19.6163889"}, {"lat": "41.7333333", "city": "Kod\u00ebrMulliri", "lon": "19.6163889"}, {"lat": "41.7761111", "city": "Kod\u00ebr R\u00ebsheni", "lon": "19.8966667"}, {"lat": "41.7761111", "city": "Kod\u00ebr-R\u00ebshen", "lon": "19.8966667"}, {"lat": "41.7761111", "city": "Kod\u00ebr-Rr\u00ebsheni", "lon": "19.8966667"}, {"lat": "41.7761111", "city": "Kod\u00ebr-Rr\u00ebshen", "lon": "19.8966667"}, {"lat": "41.6558333", "city": "Kod\u00ebr Shullazi", "lon": "19.7077778"}, {"lat": "41.8761111", "city": "Kod\u00ebr-Spa\u00e7i", "lon": "20.0477778"}, {"lat": "41.8761111", "city": "Kod\u00ebr-Spa\u00e7it", "lon": "20.0477778"}, {"lat": "41.8761111", "city": "Kod\u00ebr-Spa\u00e7", "lon": "20.0477778"}, {"lat": "41.8761111", "city": "Kod\u00ebr-Spasi", "lon": "20.0477778"}, {"lat": "41.9033333", "city": "Kodheli", "lon": "19.6311111"}, {"lat": "41.9033333", "city": "Kodhel", "lon": "19.6311111"}, {"lat": "41.8761111", "city": "Kodra Spa\u00e7it", "lon": "20.0477778"}, {"lat": "41.8891667", "city": "Kolaj", "lon": "19.4836111"}, {"lat": "41.7866667", "city": "Kol\u00e7i", "lon": "19.6761111"}, {"lat": "41.7866667", "city": "Kol\u00e7", "lon": "19.6761111"}, {"lat": "41.7866667", "city": "Kol\u00e7-Logoreci", "lon": "19.6761111"}, {"lat": "41.7866667", "city": "Kol\u00e7-Logorec", "lon": "19.6761111"}, {"lat": "41.7866667", "city": "Koljs", "lon": "19.6761111"}, {"lat": "41.7866667", "city": "Kolsh", "lon": "19.6761111"}, {"lat": "41.9133333", "city": "Konaj", "lon": "20.1555556"}, {"lat": "41.9133333", "city": "Konal", "lon": "20.1555556"}, {"lat": "41.9033333", "city": "Korel", "lon": "19.6311111"}, {"lat": "41.7833333", "city": "Korr\u00eb", "lon": "19.9"}, {"lat": "41.9358333", "city": "Kot\u00ebr", "lon": "19.6225"}, {"lat": "41.9358333", "city": "Koterri", "lon": "19.6225"}, {"lat": "41.9358333", "city": "Kot\u00ebrr", "lon": "19.6225"}, {"lat": "41.9358333", "city": "Kotri", "lon": "19.6225"}, {"lat": "41.9358333", "city": "Kotr", "lon": "19.6225"}, {"lat": "41.9358333", "city": "Kotrri", "lon": "19.6225"}, {"lat": "41.9358333", "city": "Kottri", "lon": "19.6225"}, {"lat": "41.9033333", "city": "Kozel", "lon": "19.6311111"}, {"lat": "41.9113889", "city": "Krajni", "lon": "19.6738889"}, {"lat": "41.9113889", "city": "Krajn", "lon": "19.6738889"}, {"lat": "41.9113889", "city": "Kranji", "lon": "19.6738889"}, {"lat": "41.8119444", "city": "Ktell\u00eb e eper", "lon": "20.0588889"}, {"lat": "41.8119444", "city": "Kthella e ep\u00ebr", "lon": "20.0588889"}, {"lat": "41.8119444", "city": "Kthella e Ep\u00ebrme", "lon": "20.0588889"}, {"lat": "41.8119444", "city": "Kthella Ep\u00ebr", "lon": "20.0588889"}, {"lat": "41.8119444", "city": "Kthell\u00eb e Ep\u00ebr", "lon": "20.0588889"}, {"lat": "41.8119444", "city": "Kthell\u00eb e Ep\u00ebrme", "lon": "20.0588889"}, {"lat": "41.8119444", "city": "Kthell\u00eb e Sip\u00ebrme", "lon": "20.0588889"}, {"lat": "41.8519444", "city": "Kuladji", "lon": "20.0116667"}, {"lat": "41.8519444", "city": "Kullagji", "lon": "20.0116667"}, {"lat": "41.8519444", "city": "Kullaxhi", "lon": "20.0116667"}, {"lat": "41.7713889", "city": "Kulme", "lon": "19.8155556"}, {"lat": "41.8069444", "city": "Kumbl\u00eb", "lon": "20.1463889"}, {"lat": "41.8069444", "city": "Kumblla", "lon": "20.1463889"}, {"lat": "41.8069444", "city": "Kumbll\u00eb", "lon": "20.1463889"}, {"lat": "41.8069444", "city": "Kumbulla", "lon": "20.1463889"}, {"lat": "41.8069444", "city": "Kumbull", "lon": "20.1463889"}, {"lat": "41.7797222", "city": "Kurbnesha", "lon": "20.0836111"}, {"lat": "41.7797222", "city": "Kurbneshi", "lon": "20.0836111"}, {"lat": "41.7797222", "city": "Kurbnesh", "lon": "20.0836111"}, {"lat": "41.9061111", "city": "Kushnena", "lon": "19.94"}, {"lat": "41.9061111", "city": "Kushneni", "lon": "19.94"}, {"lat": "41.9061111", "city": "Kushnen", "lon": "19.94"}, {"lat": "41.9061111", "city": "Kuzhneni", "lon": "19.94"}, {"lat": "41.9061111", "city": "Kuzhnen", "lon": "19.94"}, {"lat": "41.6355556", "city": "La\u00e7i", "lon": "19.7130556"}, {"lat": "41.6355556", "city": "La\u00e7", "lon": "19.7130556"}, {"lat": "41.7875", "city": "Lagja e Sip\u00ebrme", "lon": "19.6613889"}, {"lat": "41.8741667", "city": "Lajthiza", "lon": "20.2055556"}, {"lat": "41.8741667", "city": "Lajthiz\u00eb", "lon": "20.2055556"}, {"lat": "41.7947222", "city": "Lalma", "lon": "19.7088889"}, {"lat": "41.7947222", "city": "(( Lalm\u00eb ))", "lon": "19.7088889"}, {"lat": "41.7922222", "city": "Lalm\u00eb-Lukaj", "lon": "19.7088889"}, {"lat": "41.7922222", "city": "Lalm", "lon": "19.7088889"}, {"lat": "41.7922222", "city": "Lalm-Lukaj", "lon": "19.7088889"}, {"lat": "41.9727778", "city": "Lar", "lon": "20.2536111"}, {"lat": "41.9711111", "city": "Lasht\u00eb", "lon": "20.2166667"}, {"lat": "41.6355556", "city": "Latsch", "lon": "19.7130556"}, {"lat": "41.7166667", "city": "(( Lek Gegaj ))", "lon": "19.9833333"}, {"lat": "41.7166667", "city": "Lek Gegoj", "lon": "19.9833333"}, {"lat": "41.7727778", "city": "Lekuna", "lon": "20.0547222"}, {"lat": "41.7727778", "city": "L\u00ebkunda", "lon": "20.0547222"}, {"lat": "41.7727778", "city": "L\u00ebkund\u00eb", "lon": "20.0547222"}, {"lat": "41.7727778", "city": "L\u00ebkundi", "lon": "20.0547222"}, {"lat": "41.7727778", "city": "L\u00ebkun", "lon": "20.0547222"}, {"lat": "41.7836111", "city": "Leshe", "lon": "19.6436111"}, {"lat": "41.7691667", "city": "Leshet", "lon": "19.6436111"}, {"lat": "41.7836111", "city": "Leshi", "lon": "19.6436111"}, {"lat": "41.7836111", "city": "Lesh", "lon": "19.6436111"}, {"lat": "41.6225", "city": "Lester\u00eb", "lon": "19.7519444"}, {"lat": "41.85", "city": "(( Letaj ))", "lon": "20.0166667"}, {"lat": "41.85", "city": "Letit", "lon": "20.0166667"}, {"lat": "41.7836111", "city": "Lezha", "lon": "19.6436111"}, {"lat": "41.7836111", "city": "Lezh\u00eb", "lon": "19.6436111"}, {"lat": "41.7836111", "city": "Lezh", "lon": "19.6436111"}, {"lat": "41.7836111", "city": "Lisi", "lon": "19.6436111"}, {"lat": "41.8288889", "city": "Livadhasi", "lon": "19.8144444"}, {"lat": "41.8288889", "city": "Livadhas", "lon": "19.8144444"}, {"lat": "41.5836111", "city": "Livadhet", "lon": "19.7958333"}, {"lat": "41.8288889", "city": "Livadheza", "lon": "19.8144444"}, {"lat": "41.8288889", "city": "Livadhez\u00eb", "lon": "19.8144444"}, {"lat": "41.8288889", "city": "Livadh\u00ebzi", "lon": "19.8144444"}, {"lat": "41.8288889", "city": "Livadh\u00ebz", "lon": "19.8144444"}, {"lat": "41.8288889", "city": "Livadh i Oroshit", "lon": "19.8144444"}, {"lat": "41.8288889", "city": "Lival i Orosit", "lon": "19.8144444"}, {"lat": "41.7836111", "city": "Ljes", "lon": "19.6436111"}, {"lat": "41.7727778", "city": "Lkundi", "lon": "20.0547222"}, {"lat": "41.7727778", "city": "Lkund", "lon": "20.0547222"}, {"lat": "41.6072222", "city": "Loder-Paqe", "lon": "19.7747222"}, {"lat": "41.7866667", "city": "Logoreci", "lon": "19.6761111"}, {"lat": "41.7194444", "city": "Lufaj", "lon": "20.0463889"}, {"lat": "41.7194444", "city": "Lujajt i Posht\u00ebm", "lon": "20.0463889"}, {"lat": "41.8455556", "city": "(( Luk i Zi ))", "lon": "19.6125"}, {"lat": "41.7141667", "city": "Lurthi", "lon": "19.8511111"}, {"lat": "41.7141667", "city": "Lurth", "lon": "19.8511111"}, {"lat": "41.7836111", "city": "Lyesh", "lon": "19.6436111"}, {"lat": "41.9358333", "city": "Maba", "lon": "19.5755556"}, {"lat": "41.9358333", "city": "Mab\u00eb", "lon": "19.5755556"}, {"lat": "41.8", "city": "Malaj i Ep\u00ebrm", "lon": "20.0"}, {"lat": "41.7936111", "city": "Malaj", "lon": "19.9811111"}, {"lat": "41.7936111", "city": "Malay-Dils", "lon": "19.9811111"}, {"lat": "41.6561111", "city": "Mal-Bardhi", "lon": "19.7588889"}, {"lat": "41.6561111", "city": "Mal-Bardh", "lon": "19.7588889"}, {"lat": "41.8744444", "city": "Malecaj", "lon": "19.5336111"}, {"lat": "41.6561111", "city": "Mal' i Barda", "lon": "19.7588889"}, {"lat": "41.6561111", "city": "Mal i Bardh\u00eb", "lon": "19.7588889"}, {"lat": "41.6561111", "city": "Mal i Barl", "lon": "19.7588889"}, {"lat": "41.6561111", "city": "Mali i Bardh\u00eb", "lon": "19.7588889"}, {"lat": "41.7833333", "city": "Mali i Kakariqit", "lon": "19.6497222"}, {"lat": "41.8891667", "city": "Mali i Kolaj", "lon": "19.4836111"}, {"lat": "41.8516667", "city": "Mali i Rencit", "lon": "19.5547222"}, {"lat": "41.8516667", "city": "Mali i Renxit", "lon": "19.5547222"}, {"lat": "41.8216667", "city": "Mali i Sh\u00ebngjinit", "lon": "19.5808333"}, {"lat": "41.7833333", "city": "(( Mal i Kakariqit ))", "lon": "19.6497222"}, {"lat": "41.7833333", "city": "Mal i Kakarriqit", "lon": "19.6497222"}, {"lat": "41.8891667", "city": "Mal' i Kolajt", "lon": "19.4836111"}, {"lat": "41.8516667", "city": "Mali Rencit", "lon": "19.5547222"}, {"lat": "41.8516667", "city": "Mal i Renxit", "lon": "19.5547222"}, {"lat": "41.8516667", "city": "Mali Rrencit", "lon": "19.5547222"}, {"lat": "41.8216667", "city": "Mali Sen \u00c3\u0090init", "lon": "19.5808333"}, {"lat": "41.8216667", "city": "Mali Sh\u00ebngjinit", "lon": "19.5808333"}, {"lat": "41.7936111", "city": "Mallaj", "lon": "19.9811111"}, {"lat": "41.6802778", "city": "Mal-Miloti", "lon": "19.7244444"}, {"lat": "41.6802778", "city": "Mal-Milot", "lon": "19.7244444"}, {"lat": "41.5775", "city": "Mamurasi", "lon": "19.6922222"}, {"lat": "41.5775", "city": "Mamuras", "lon": "19.6922222"}, {"lat": "41.5775", "city": "Mamuraz", "lon": "19.6922222"}, {"lat": "41.5775", "city": "Mamurrasi", "lon": "19.6922222"}, {"lat": "41.5775", "city": "Mamurras", "lon": "19.6922222"}, {"lat": "41.7602778", "city": "Manatia", "lon": "19.6733333"}, {"lat": "41.7602778", "city": "Manatija", "lon": "19.6733333"}, {"lat": "41.7602778", "city": "Manati", "lon": "19.6733333"}, {"lat": "41.7602778", "city": "Manatja", "lon": "19.6733333"}, {"lat": "41.8177778", "city": "Margjonaj", "lon": "19.5772222"}, {"lat": "41.8216667", "city": "Marvukaj", "lon": "19.5713889"}, {"lat": "41.8741667", "city": "Mashterkora", "lon": "20.0727778"}, {"lat": "41.8741667", "city": "Masht\u00ebrkori", "lon": "20.0727778"}, {"lat": "41.8741667", "city": "Masht\u00ebrkor", "lon": "20.0727778"}, {"lat": "41.8741667", "city": "Mashtrokora", "lon": "20.0727778"}, {"lat": "41.8741667", "city": "Mashtrokor\u00eb", "lon": "20.0727778"}, {"lat": "41.8741667", "city": "Mast\u00ebrkora", "lon": "20.0727778"}, {"lat": "41.9358333", "city": "Mbaba", "lon": "19.5755556"}, {"lat": "41.8180556", "city": "M\u00ebkurth\u00eb", "lon": "20.1380556"}, {"lat": "41.8180556", "city": "M\u00ebkurth", "lon": "20.1380556"}, {"lat": "41.7408333", "city": "Melthi", "lon": "20.12"}, {"lat": "41.7408333", "city": "Melth", "lon": "20.12"}, {"lat": "41.8091667", "city": "Mercin", "lon": "19.6572222"}, {"lat": "41.8180556", "city": "M\u00ebrkurth", "lon": "20.1380556"}, {"lat": "41.8180556", "city": "Merkuthi", "lon": "20.1380556"}, {"lat": "41.8091667", "city": "M\u00ebrqia", "lon": "19.6572222"}, {"lat": "41.8091667", "city": "Merqija", "lon": "19.6572222"}, {"lat": "41.8091667", "city": "Merqi", "lon": "19.6572222"}, {"lat": "41.8091667", "city": "Merqini", "lon": "19.6572222"}, {"lat": "41.8091667", "city": "Merqin", "lon": "19.6572222"}, {"lat": "41.6838889", "city": "Miljoti", "lon": "19.7155556"}, {"lat": "41.6838889", "city": "Miloti", "lon": "19.7155556"}, {"lat": "41.6802778", "city": "Milot", "lon": "19.7244444"}, {"lat": "41.7880556", "city": "Mumaza", "lon": "19.7888889"}, {"lat": "41.7880556", "city": "Mumazi", "lon": "19.7888889"}, {"lat": "41.7880556", "city": "Munaza", "lon": "19.7888889"}, {"lat": "41.7880556", "city": "Munazej", "lon": "19.7888889"}, {"lat": "41.7880556", "city": "Munaz\u00eb", "lon": "19.7888889"}, {"lat": "41.7880556", "city": "Munazi", "lon": "19.7888889"}, {"lat": "41.7880556", "city": "Munaz", "lon": "19.7888889"}, {"lat": "41.8333333", "city": "Munega", "lon": "19.8833333"}, {"lat": "41.8333333", "city": "(( Muneg\u00eb ))", "lon": "19.8833333"}, {"lat": "41.5775", "city": "Murrizaj", "lon": "19.6922222"}, {"lat": "41.9811111", "city": "Mzhan", "lon": "20.1958333"}, {"lat": "41.7666667", "city": "Nd\u00ebr Bunga", "lon": "19.9166667"}, {"lat": "41.7666667", "city": "Nd\u00ebrbung\u00eb", "lon": "19.9166667"}, {"lat": "41.8108333", "city": "Nderfana", "lon": "19.8919444"}, {"lat": "41.8108333", "city": "Nd\u00ebrfan\u00eb", "lon": "19.8919444"}, {"lat": "41.7858333", "city": "Nd\u00ebrfusha", "lon": "19.88"}, {"lat": "41.7858333", "city": "Nd\u00ebrfushasi", "lon": "19.88"}, {"lat": "41.7858333", "city": "Nderfushas", "lon": "19.88"}, {"lat": "41.7858333", "city": "Nd\u00ebrfushaz", "lon": "19.88"}, {"lat": "41.7858333", "city": "Nd\u00ebrfush\u00eb", "lon": "19.88"}, {"lat": "41.7858333", "city": "Nd\u00ebrfush", "lon": "19.88"}, {"lat": "41.6686111", "city": "(( Nd\u00ebrshegas ))", "lon": "19.7144444"}, {"lat": "41.7358333", "city": "Ndreaj", "lon": "20.0008333"}, {"lat": "41.8686111", "city": "N\u00ebnshejt", "lon": "20.1138889"}, {"lat": "41.8686111", "city": "N\u00ebnshenjti", "lon": "20.1138889"}, {"lat": "41.8686111", "city": "N\u00ebnshenjt", "lon": "20.1138889"}, {"lat": "41.7380556", "city": "Nogaj", "lon": "19.8719444"}, {"lat": "41.8833333", "city": "(( Nom\u00eb ))", "lon": "20.2666667"}, {"lat": "41.8333333", "city": "Oroshi", "lon": "20.0833333"}, {"lat": "41.8333333", "city": "Orosh", "lon": "20.0833333"}, {"lat": "41.7925", "city": "Palalej", "lon": "19.6741667"}, {"lat": "41.8205556", "city": "Palokaj", "lon": "19.5786111"}, {"lat": "41.7925", "city": "Partallaj", "lon": "19.6741667"}, {"lat": "41.7925", "city": "Patalaj", "lon": "19.6741667"}, {"lat": "41.7925", "city": "Patalej", "lon": "19.6741667"}, {"lat": "41.7925", "city": "Patale", "lon": "19.6741667"}, {"lat": "41.6302778", "city": "Patog", "lon": "19.6136111"}, {"lat": "41.6302778", "city": "Patok", "lon": "19.6136111"}, {"lat": "41.6972222", "city": "P\u00ebdhana", "lon": "19.6980556"}, {"lat": "41.6972222", "city": "Pedhan\u00eb", "lon": "19.6980556"}, {"lat": "41.8933333", "city": "Pep-Prenat", "lon": "20.2455556"}, {"lat": "41.7563889", "city": "Perlat Ep\u00ebr", "lon": "19.9822222"}, {"lat": "41.7563889", "city": "Perlat i Ep\u00ebrm", "lon": "19.9822222"}, {"lat": "41.7563889", "city": "P\u00ebrlati i Ep\u00ebrm", "lon": "19.9822222"}, {"lat": "41.7294444", "city": "P\u00ebrlati", "lon": "19.9691667"}, {"lat": "41.7294444", "city": "P\u00ebrlati-Qender", "lon": "19.9691667"}, {"lat": "41.7294444", "city": "P\u00ebrlat", "lon": "19.9691667"}, {"lat": "41.7294444", "city": "Perlat-Qend\u00ebr", "lon": "19.9691667"}, {"lat": "41.7383333", "city": "Perlikaj", "lon": "20.0305556"}, {"lat": "41.8541667", "city": "Peshqeshi", "lon": "19.9825"}, {"lat": "41.8541667", "city": "Peshqesh", "lon": "19.9825"}, {"lat": "41.8541667", "city": "Peshtjeshi", "lon": "19.9825"}, {"lat": "41.8541667", "city": "Peshtjesh", "lon": "19.9825"}, {"lat": "41.9372222", "city": "Peto\u00e7i", "lon": "20.1813889"}, {"lat": "41.9372222", "city": "Petoc", "lon": "20.1813889"}, {"lat": "41.9372222", "city": "Petoq", "lon": "20.1813889"}, {"lat": "41.8627778", "city": "Piraj", "lon": "19.6472222"}, {"lat": "41.9166667", "city": "(( Plak\u00ebz ))", "lon": "20.05"}, {"lat": "41.9166667", "city": "Plaksa", "lon": "20.05"}, {"lat": "41.9166667", "city": "Plaks\u00eb", "lon": "20.05"}, {"lat": "41.8377778", "city": "Planet\u00eb", "lon": "20.0577778"}, {"lat": "41.8377778", "city": "Planet", "lon": "20.0577778"}, {"lat": "41.6972222", "city": "Plan", "lon": "19.6980556"}, {"lat": "41.6972222", "city": "Pllana", "lon": "19.6980556"}, {"lat": "41.6972222", "city": "Pllan\u00eb", "lon": "19.6980556"}, {"lat": "41.7255556", "city": "Prasfik", "lon": "19.7622222"}, {"lat": "41.8933333", "city": "Prep-Prenat", "lon": "20.2455556"}, {"lat": "41.7897222", "city": "Prethi i Ep\u00ebrm\u00eb", "lon": "19.8066667"}, {"lat": "41.7455556", "city": "Proseca", "lon": "19.9486111"}, {"lat": "41.7455556", "city": "Prosek", "lon": "19.9486111"}, {"lat": "41.7455556", "city": "Proseku", "lon": "19.9486111"}, {"lat": "41.7311111", "city": "Prulli", "lon": "19.7155556"}, {"lat": "41.7311111", "city": "Prull", "lon": "19.7155556"}, {"lat": "41.835", "city": "Raboshta", "lon": "19.6616667"}, {"lat": "41.835", "city": "Rabosht\u00eb", "lon": "19.6616667"}, {"lat": "41.7255556", "city": "Rasfik", "lon": "19.7622222"}, {"lat": "41.7255556", "city": "Rasfiku", "lon": "19.7622222"}, {"lat": "41.8952778", "city": "Ras i But\u00eb", "lon": "19.7608333"}, {"lat": "41.7897222", "city": "Ref i Eper", "lon": "19.8066667"}, {"lat": "41.8177778", "city": "Reja e Veles", "lon": "19.77"}, {"lat": "41.8177778", "city": "Reja e Velj\u00ebs", "lon": "19.77"}, {"lat": "41.8091667", "city": "Reja e Zez\u00eb", "lon": "19.7847222"}, {"lat": "41.8091667", "city": "R\u00eaja", "lon": "19.7847222"}, {"lat": "41.8177778", "city": "Reja Vel\u00ebs", "lon": "19.77"}, {"lat": "41.8091667", "city": "Rej\u00eb-e Kry\u00ebzi", "lon": "19.7847222"}, {"lat": "41.8177778", "city": "Rej\u00eb e Vel\u00ebs", "lon": "19.77"}, {"lat": "41.8177778", "city": "Rej\u00eb-e Velj\u00ebs", "lon": "19.77"}, {"lat": "41.8091667", "city": "Rej\u00eb e Zez\u00eb", "lon": "19.7847222"}, {"lat": "41.8091667", "city": "Rej e Kriezi", "lon": "19.7847222"}, {"lat": "41.8177778", "city": "Rej e Veljs", "lon": "19.77"}, {"lat": "41.8516667", "city": "Renci", "lon": "19.5547222"}, {"lat": "41.8661111", "city": "Repse", "lon": "20.0258333"}, {"lat": "41.8661111", "city": "Repsi", "lon": "20.0258333"}, {"lat": "41.8661111", "city": "Reps", "lon": "20.0258333"}, {"lat": "41.7675", "city": "R\u00ebsh\u00ebni", "lon": "19.8755556"}, {"lat": "41.7675", "city": "R\u00ebshen", "lon": "19.8755556"}, {"lat": "41.7155556", "city": "Ril\u00eb", "lon": "19.6422222"}, {"lat": "41.835", "city": "Robost", "lon": "19.6616667"}, {"lat": "41.835", "city": "Rraboshta", "lon": "19.6616667"}, {"lat": "41.835", "city": "Rrabosht\u00eb", "lon": "19.6616667"}, {"lat": "41.8952778", "city": "Rras- but\u00eb", "lon": "19.7608333"}, {"lat": "41.7255556", "city": "Rrasfik", "lon": "19.7622222"}, {"lat": "41.7255556", "city": "Rrasfiku", "lon": "19.7622222"}, {"lat": "41.8952778", "city": "Rras i But\u00eb", "lon": "19.7608333"}, {"lat": "41.8952778", "city": "Rrasi i But\u00eb", "lon": "19.7608333"}, {"lat": "41.8177778", "city": "Rreja e Vel\u00ebs", "lon": "19.77"}, {"lat": "41.8177778", "city": "Rreja e Velj\u00ebs", "lon": "19.77"}, {"lat": "41.8091667", "city": "Rreja e Zez\u00eb", "lon": "19.7847222"}, {"lat": "41.8091667", "city": "Rreja", "lon": "19.7847222"}, {"lat": "41.8177778", "city": "Rrej\u00eb e Velj\u00ebs", "lon": "19.77"}, {"lat": "41.8091667", "city": "Rrej\u00eb e Zez\u00eb", "lon": "19.7847222"}, {"lat": "41.8516667", "city": "Rr\u00eanc", "lon": "19.5547222"}, {"lat": "41.7675", "city": "Rresheni", "lon": "19.8755556"}, {"lat": "41.7675", "city": "Rr\u00ebshen", "lon": "19.8755556"}, {"lat": "41.7897222", "city": "Rreth i Ep\u00ebrm", "lon": "19.8066667"}, {"lat": "41.7897222", "city": "Rreth i Ep\u00ebr", "lon": "19.8066667"}, {"lat": "41.7897222", "city": "Rrethi i Ep\u00ebrm", "lon": "19.8066667"}, {"lat": "41.7897222", "city": "Rrethi i Eper", "lon": "19.8066667"}, {"lat": "41.7897222", "city": "Rrethi i Sip\u00ebrm", "lon": "19.8066667"}, {"lat": "41.8238889", "city": "Rr\u00ebza e Malit", "lon": "19.61"}, {"lat": "41.7155556", "city": "Rrila", "lon": "19.6422222"}, {"lat": "41.7155556", "city": "Rril\u00eb", "lon": "19.6422222"}, {"lat": "41.7155556", "city": "Rrilla", "lon": "19.6422222"}, {"lat": "41.7155556", "city": "Rrill\u00eb", "lon": "19.6422222"}, {"lat": "41.835", "city": "Rroboshta", "lon": "19.6616667"}, {"lat": "41.835", "city": "Rrobosht", "lon": "19.6616667"}, {"lat": "41.7675", "city": "Rrsheni", "lon": "19.8755556"}, {"lat": "41.7675", "city": "Rrshen", "lon": "19.8755556"}, {"lat": "41.7744444", "city": "Rrubig", "lon": "19.7861111"}, {"lat": "41.7744444", "city": "Rrubigu", "lon": "19.7861111"}, {"lat": "41.7744444", "city": "Rrumbiku", "lon": "19.7861111"}, {"lat": "41.7286111", "city": "Rrushkulli", "lon": "19.9086111"}, {"lat": "41.7286111", "city": "Rrushkull", "lon": "19.9086111"}, {"lat": "41.7675", "city": "Rsheni", "lon": "19.8755556"}, {"lat": "41.7675", "city": "Rshen", "lon": "19.8755556"}, {"lat": "41.7744444", "city": "Rubig", "lon": "19.7861111"}, {"lat": "41.7744444", "city": "Rubik", "lon": "19.7861111"}, {"lat": "41.7744444", "city": "Rubiku", "lon": "19.7861111"}, {"lat": "41.8136111", "city": "Saint Giovanni di Medua", "lon": "19.5938889"}, {"lat": "41.7994444", "city": "Sak\u00ebsi", "lon": "19.6172222"}, {"lat": "41.7994444", "city": "Sak\u00ebs", "lon": "19.6172222"}, {"lat": "41.8136111", "city": "San Giovanni di Medua", "lon": "19.5938889"}, {"lat": "41.9811111", "city": "Sang", "lon": "20.1958333"}, {"lat": "41.9811111", "city": "Sangu i Xhuxh\u00ebs", "lon": "20.1958333"}, {"lat": "41.9741667", "city": "Sangu", "lon": "20.1958333"}, {"lat": "41.8136111", "city": "San Njin", "lon": "19.5938889"}, {"lat": "41.6213889", "city": "Sanxhak", "lon": "19.7161111"}, {"lat": "41.6213889", "city": "Sanxhaku", "lon": "19.7161111"}, {"lat": "41.6558333", "city": "Scholaz", "lon": "19.7077778"}, {"lat": "41.6886111", "city": "Scuraji", "lon": "19.7963889"}, {"lat": "41.6886111", "city": "Scuraj", "lon": "19.7963889"}, {"lat": "41.6686111", "city": "Segas", "lon": "19.7144444"}, {"lat": "41.6483333", "city": "Selidelbinishti", "lon": "19.7352778"}, {"lat": "41.6352778", "city": "Selita", "lon": "19.755"}, {"lat": "41.6352778", "city": "Selite-Delbinishtaj", "lon": "19.755"}, {"lat": "41.6352778", "city": "Selit\u00eb e Keqe", "lon": "19.755"}, {"lat": "41.6352778", "city": "Selit e Kece", "lon": "19.755"}, {"lat": "41.6352778", "city": "Selit\u00eb", "lon": "19.755"}, {"lat": "41.8136111", "city": "Sen \u00c3\u0090ovani di Medua", "lon": "19.5938889"}, {"lat": "41.5672222", "city": "Sen Mri", "lon": "19.755"}, {"lat": "42.0102778", "city": "Ser\u00eb", "lon": "20.2327778"}, {"lat": "41.8166667", "city": "Seresht", "lon": "19.9833333"}, {"lat": "41.8166667", "city": "Serisht", "lon": "19.9833333"}, {"lat": "41.8166667", "city": "Serrisht", "lon": "19.9833333"}, {"lat": "41.7686111", "city": "Shebaj", "lon": "20.0155556"}, {"lat": "41.7686111", "city": "Sheb\u00eb", "lon": "20.0155556"}, {"lat": "41.7686111", "city": "Shebja", "lon": "20.0155556"}, {"lat": "41.7686111", "city": "Shebje", "lon": "20.0155556"}, {"lat": "41.6686111", "city": "Shegas", "lon": "19.7144444"}, {"lat": "41.59", "city": "Sh\u00ebllinza", "lon": "19.6086111"}, {"lat": "41.59", "city": "Sh\u00ebllinz\u00eb", "lon": "19.6086111"}, {"lat": "41.5672222", "city": "Shem\u00ebri", "lon": "19.755"}, {"lat": "41.5672222", "city": "Sh\u00ebmria", "lon": "19.755"}, {"lat": "41.5672222", "city": "Shemrija", "lon": "19.755"}, {"lat": "41.5672222", "city": "Sh\u00ebmri", "lon": "19.755"}, {"lat": "41.6805556", "city": "(( Sh\u00ebn Ded Gjoni ))", "lon": "19.5944444"}, {"lat": "41.8136111", "city": "Shen Ghen", "lon": "19.5938889"}, {"lat": "41.8897222", "city": "Sh\u00ebngiergij", "lon": "19.8558333"}, {"lat": "41.8897222", "city": "Sh\u00ebngjergj", "lon": "19.8558333"}, {"lat": "41.8136111", "city": "Sh\u00ebngjini", "lon": "19.5938889"}, {"lat": "41.9261111", "city": "Shen Gjini", "lon": "20.1883333"}, {"lat": "41.8136111", "city": "Sh\u00ebngjin", "lon": "19.5938889"}, {"lat": "41.6908333", "city": "Sh\u00ebnkoll\u00eb", "lon": "19.6533333"}, {"lat": "41.6908333", "city": "Sh\u00ebnkolli", "lon": "19.6533333"}, {"lat": "41.6908333", "city": "Sh\u00ebnkoll", "lon": "19.6533333"}, {"lat": "41.8833333", "city": "(( Sh\u00ebn Lli ))", "lon": "19.85"}, {"lat": "41.5672222", "city": "Sh\u00ebnm\u00ebri", "lon": "19.755"}, {"lat": "41.8552778", "city": "Sherilaj", "lon": "19.81"}, {"lat": "41.7430556", "city": "Sheshaj", "lon": "19.8794444"}, {"lat": "41.8552778", "city": "Shevillaj", "lon": "19.81"}, {"lat": "41.5930556", "city": "Shieza", "lon": "19.7666667"}, {"lat": "41.5930556", "city": "Shijez\u00eb", "lon": "19.7666667"}, {"lat": "41.59", "city": "Shillinz\u00eb", "lon": "19.6086111"}, {"lat": "41.9261111", "city": "Shingjini", "lon": "20.1883333"}, {"lat": "41.9261111", "city": "Shingjin", "lon": "20.1883333"}, {"lat": "41.6908333", "city": "Shinkolli", "lon": "19.6533333"}, {"lat": "41.7061111", "city": "Shkopet", "lon": "19.825"}, {"lat": "41.7061111", "city": "Shkopezi", "lon": "19.825"}, {"lat": "41.6558333", "city": "Shlasu", "lon": "19.7077778"}, {"lat": "41.59", "city": "Shlinza", "lon": "19.6086111"}, {"lat": "41.59", "city": "Shllinza", "lon": "19.6086111"}, {"lat": "41.59", "city": "Shllinz\u00eb", "lon": "19.6086111"}, {"lat": "41.8136111", "city": "Sh'njini", "lon": "19.5938889"}, {"lat": "41.7430556", "city": "Shoshaj", "lon": "19.8794444"}, {"lat": "41.8491667", "city": "Shp\u00ebrdhaza", "lon": "19.8925"}, {"lat": "41.8491667", "city": "Shp\u00ebrdhaz\u00eb", "lon": "19.8925"}, {"lat": "41.5583333", "city": "Shp\u00ebrdheti", "lon": "19.6975"}, {"lat": "41.5583333", "city": "Shp\u00ebrdhet", "lon": "19.6975"}, {"lat": "41.8491667", "city": "Shp\u00ebrdhez\u00eb", "lon": "19.8925"}, {"lat": "41.5666667", "city": "(( Shpijat Piroll ))", "lon": "19.7333333"}, {"lat": "41.8094444", "city": "Sh' Prende", "lon": "19.6347222"}, {"lat": "41.9380556", "city": "Shtalthi", "lon": "20.1561111"}, {"lat": "41.9380556", "city": "Shtalth", "lon": "20.1561111"}, {"lat": "41.7063889", "city": "Shtrez\u00eb", "lon": "19.9180556"}, {"lat": "41.7063889", "city": "Shtrez", "lon": "19.9180556"}, {"lat": "41.8872222", "city": "Shtrungaj", "lon": "20.1"}, {"lat": "41.8872222", "city": "Shtrunga", "lon": "20.1"}, {"lat": "41.8872222", "city": "Shtrung", "lon": "20.1"}, {"lat": "41.9222222", "city": "Shtuf", "lon": "19.8894444"}, {"lat": "41.6558333", "city": "Shulla", "lon": "19.7077778"}, {"lat": "41.6558333", "city": "Shullas", "lon": "19.7077778"}, {"lat": "41.6558333", "city": "Shullazi", "lon": "19.7077778"}, {"lat": "41.6558333", "city": "Shullaz", "lon": "19.7077778"}, {"lat": "41.5672222", "city": "Shum\u00ebrija", "lon": "19.755"}, {"lat": "41.5672222", "city": "Shumria", "lon": "19.755"}, {"lat": "41.5672222", "city": "Shumri", "lon": "19.755"}, {"lat": "41.8680556", "city": "Simon\u00eb", "lon": "19.9247222"}, {"lat": "41.8680556", "city": "Simoni", "lon": "19.9247222"}, {"lat": "41.8680556", "city": "Simon", "lon": "19.9247222"}, {"lat": "41.8897222", "city": "Singjerc", "lon": "19.8558333"}, {"lat": "41.8083333", "city": "Skataj", "lon": "19.6008333"}, {"lat": "41.6886111", "city": "Skorovot", "lon": "19.7963889"}, {"lat": "41.8872222", "city": "Sktrungaj", "lon": "20.1"}, {"lat": "41.6886111", "city": "Skuraj", "lon": "19.7963889"}, {"lat": "41.6886111", "city": "Skurajvit", "lon": "19.7963889"}, {"lat": "41.6886111", "city": "Skurraj", "lon": "19.7963889"}, {"lat": "41.59", "city": "Slinz", "lon": "19.6086111"}, {"lat": "41.6908333", "city": "Snkoli", "lon": "19.6533333"}, {"lat": "41.9427778", "city": "Sollomani", "lon": "20.1094444"}, {"lat": "41.9427778", "city": "Solloman", "lon": "20.1094444"}, {"lat": "41.8761111", "city": "Spaci", "lon": "20.0477778"}, {"lat": "41.8761111", "city": "Spa\u00e7it", "lon": "20.0477778"}, {"lat": "41.8761111", "city": "Spac", "lon": "20.0477778"}, {"lat": "41.5583333", "city": "Sp\u00ebrdhet", "lon": "19.6975"}, {"lat": "41.7391667", "city": "Spitan\u00eb", "lon": "19.6905556"}, {"lat": "41.7391667", "city": "Spitan", "lon": "19.6905556"}, {"lat": "41.7391667", "city": "Spiteni", "lon": "19.6905556"}, {"lat": "41.7391667", "city": "Spiten", "lon": "19.6905556"}, {"lat": "41.7391667", "city": "Spitjani", "lon": "19.6905556"}, {"lat": "41.8872222", "city": "Strungaj", "lon": "20.1"}, {"lat": "41.885", "city": "Sukadz Katund", "lon": "19.835"}, {"lat": "41.885", "city": "Sukaxhija", "lon": "19.835"}, {"lat": "41.885", "city": "Sukaxhi Katund", "lon": "19.835"}, {"lat": "41.885", "city": "Sukaxhi", "lon": "19.835"}, {"lat": "41.885", "city": "Sukaxhiu", "lon": "19.835"}, {"lat": "41.885", "city": "Sukaxh Katund", "lon": "19.835"}, {"lat": "41.6558333", "city": "Sulaz", "lon": "19.7077778"}, {"lat": "41.8686111", "city": "Sumaj", "lon": "20.2336111"}, {"lat": "41.9347222", "city": "(( Sum\u00eb-Mab\u00eb ))", "lon": "19.5788889"}, {"lat": "41.9741667", "city": "Sung", "lon": "20.1958333"}, {"lat": "41.8136111", "city": "Sveti Jovan Medovski", "lon": "19.5938889"}, {"lat": "41.6822222", "city": "Tale 1", "lon": "19.6136111"}, {"lat": "41.6822222", "city": "Taleja", "lon": "19.6136111"}, {"lat": "41.6822222", "city": "Talej\u00eb", "lon": "19.6136111"}, {"lat": "41.6822222", "city": "Talej", "lon": "19.6136111"}, {"lat": "41.6822222", "city": "Tale No 1", "lon": "19.6136111"}, {"lat": "41.6822222", "city": "Tales", "lon": "19.6136111"}, {"lat": "41.6822222", "city": "Tale", "lon": "19.6136111"}, {"lat": "41.6822222", "city": "Talja", "lon": "19.6136111"}, {"lat": "41.6822222", "city": "Talj\u00eb", "lon": "19.6136111"}, {"lat": "41.7597222", "city": "Tarazhi", "lon": "19.8916667"}, {"lat": "41.7597222", "city": "Tarazh", "lon": "19.8916667"}, {"lat": "41.7891667", "city": "Ten\u00eb", "lon": "19.9622222"}, {"lat": "41.7383333", "city": "Tharri", "lon": "19.9747222"}, {"lat": "41.7383333", "city": "Tharr", "lon": "19.9747222"}, {"lat": "42.0102778", "city": "Thira", "lon": "20.2327778"}, {"lat": "42.0102778", "city": "Thir\u00eb", "lon": "20.2327778"}, {"lat": "42.0102778", "city": "Thirra", "lon": "20.2327778"}, {"lat": "42.0102778", "city": "Thirr\u00eb", "lon": "20.2327778"}, {"lat": "41.8872222", "city": "Torovic\u00eb", "lon": "19.5416667"}, {"lat": "41.8777778", "city": "Trashani", "lon": "19.6752778"}, {"lat": "41.8777778", "city": "Trashan", "lon": "19.6752778"}, {"lat": "41.7466667", "city": "Treshi", "lon": "19.6791667"}, {"lat": "41.7466667", "city": "Tresh", "lon": "19.6791667"}, {"lat": "41.7686111", "city": "Troj\u00ebs", "lon": "19.9566667"}, {"lat": "41.7686111", "city": "Troj\u00eb", "lon": "19.9566667"}, {"lat": "41.7466667", "city": "Troshani", "lon": "19.6791667"}, {"lat": "41.8777778", "city": "Troshan", "lon": "19.6752778"}, {"lat": "41.9372222", "city": "Turec", "lon": "19.7955556"}, {"lat": "41.9372222", "city": "(( Turrec ))", "lon": "19.7955556"}, {"lat": "41.71", "city": "Uja", "lon": "19.8822222"}, {"lat": "41.7063889", "city": "Uj\u00eb-Shtreza", "lon": "19.9180556"}, {"lat": "41.71", "city": "Uj\u00eb", "lon": "19.8822222"}, {"lat": "41.7063889", "city": "Uji-Shtrez\u00eb", "lon": "19.9180556"}, {"lat": "41.7833333", "city": "Uj-Shtreza", "lon": "19.9"}, {"lat": "41.7833333", "city": "Ujshtrez\u00eb", "lon": "19.9"}, {"lat": "41.8752778", "city": "Ungrei", "lon": "19.7947222"}, {"lat": "41.8752778", "city": "Ungreji", "lon": "19.7947222"}, {"lat": "41.8752778", "city": "Ungrej", "lon": "19.7947222"}, {"lat": "41.71", "city": "Unj\u00eb", "lon": "19.8822222"}, {"lat": "41.7872222", "city": "Va i Shkjes\u00ebs", "lon": "19.8186111"}, {"lat": "41.7872222", "city": "Va i Shkjez\u00ebs", "lon": "19.8186111"}, {"lat": "41.8166667", "city": "(( Vale ))", "lon": "20.0"}, {"lat": "41.7875", "city": "Varoshi", "lon": "19.6613889"}, {"lat": "41.7875", "city": "(( Varosh ))", "lon": "19.6613889"}, {"lat": "41.7872222", "city": "Va-Shkjeze", "lon": "19.8186111"}, {"lat": "41.8627778", "city": "Vau i Madh", "lon": "19.9597222"}, {"lat": "41.7872222", "city": "Vau i Shkjez\u00ebs", "lon": "19.8186111"}, {"lat": "41.7872222", "city": "Vau i Skjezs", "lon": "19.8186111"}, {"lat": "41.7872222", "city": "Vau-Shkjez\u00ebs", "lon": "19.8186111"}, {"lat": "41.8147222", "city": "Vela e Vendit", "lon": "19.7133333"}, {"lat": "41.8147222", "city": "Vela", "lon": "19.7133333"}, {"lat": "41.8147222", "city": "Vela Vendit", "lon": "19.7133333"}, {"lat": "41.8147222", "city": "Vel\u00eb e Vendit", "lon": "19.7133333"}, {"lat": "41.8147222", "city": "Vel\u00eb", "lon": "19.7133333"}, {"lat": "41.8147222", "city": "Vel\u00eb-Vendi", "lon": "19.7133333"}, {"lat": "41.8147222", "city": "Vel\u00eb-Vend", "lon": "19.7133333"}, {"lat": "41.8147222", "city": "Velja", "lon": "19.7133333"}, {"lat": "41.8147222", "city": "Velj\u00ebs", "lon": "19.7133333"}, {"lat": "41.8147222", "city": "Velj\u00eb", "lon": "19.7133333"}, {"lat": "41.8147222", "city": "Velsi", "lon": "19.7133333"}, {"lat": "41.6041667", "city": "Vignali", "lon": "19.8"}, {"lat": "41.875", "city": "Vila", "lon": "20.1008333"}, {"lat": "41.8166667", "city": "Vil\u00eb", "lon": "20.0"}, {"lat": "41.8166667", "city": "Vil\u00ebz", "lon": "20.0166667"}, {"lat": "41.8166667", "city": "Vilz\u00eb", "lon": "20.0"}, {"lat": "41.6041667", "city": "Vinjalli", "lon": "19.8"}, {"lat": "41.6041667", "city": "Vinjall", "lon": "19.8"}, {"lat": "41.6041667", "city": "Vinjal", "lon": "19.8"}, {"lat": "41.6041667", "city": "Vinjolla", "lon": "19.8"}, {"lat": "41.6041667", "city": "Vinjoll\u00eb", "lon": "19.8"}, {"lat": "41.6041667", "city": "Vinjolli", "lon": "19.8"}, {"lat": "41.6041667", "city": "Vinjoll", "lon": "19.8"}, {"lat": "41.8166667", "city": "Violz\u00eb", "lon": "20.0166667"}, {"lat": "41.8166667", "city": "Vjolz\u00eb", "lon": "20.0166667"}, {"lat": "41.9622222", "city": "Xhuxha", "lon": "20.2108333"}, {"lat": "41.9622222", "city": "Xhuxh\u00eb", "lon": "20.2108333"}, {"lat": "41.9622222", "city": "Xhuzha", "lon": "20.2108333"}, {"lat": "41.7527778", "city": "Yexulli", "lon": "19.8875"}, {"lat": "41.7527778", "city": "Yexull", "lon": "19.8875"}, {"lat": "41.7658333", "city": "Zajsi", "lon": "20.0863889"}, {"lat": "41.7658333", "city": "Zajs", "lon": "20.0863889"}, {"lat": "41.7658333", "city": "Zajzi", "lon": "20.0863889"}, {"lat": "41.7658333", "city": "Zajz", "lon": "20.0863889"}, {"lat": "41.7416667", "city": " Zall-Gjo\u00e7aj", "lon": "20.1533333"}, {"lat": "41.7533333", "city": "Zallhotaj", "lon": "20.0869444"}, {"lat": "41.8388889", "city": "Zalli", "lon": "19.9197222"}, {"lat": "41.9475", "city": "Zall-Xhuxha", "lon": "20.1636111"}, {"lat": "41.9475", "city": "Zall-Xhuxh\u00eb", "lon": "20.1636111"}, {"lat": "41.8388889", "city": "Zall", "lon": "19.9197222"}, {"lat": "41.7658333", "city": "Zeis\u00eb", "lon": "20.0863889"}, {"lat": "41.7077778", "city": "Zejmani", "lon": "19.6891667"}, {"lat": "41.7077778", "city": "Zejmeni", "lon": "19.6891667"}, {"lat": "41.7077778", "city": "Zejmen", "lon": "19.6891667"}, {"lat": "41.9166667", "city": "Zimaj", "lon": "19.7666667"}, {"lat": "41.8888889", "city": "Zoje", "lon": "19.5769444"}, {"lat": "41.7077778", "city": "Zojmendi", "lon": "19.6891667"}, {"lat": "41.7077778", "city": "Zojmen", "lon": "19.6891667"}, {"lat": "41.8888889", "city": "Zojsi", "lon": "19.5769444"}, {"lat": "41.8888889", "city": "Zojs", "lon": "19.5769444"}, {"lat": "41.8888889", "city": "Zojzi", "lon": "19.5769444"}, {"lat": "41.8888889", "city": "Zojz", "lon": "19.5769444"}], "49": [{"lat": "42.3125", "city": "Abat", "lon": "19.8077778"}, {"lat": "42.3125", "city": "Abat\u00eb", "lon": "19.8077778"}, {"lat": "42.3125", "city": "Abati", "lon": "19.8077778"}, {"lat": "41.9530556", "city": "Ajmeli", "lon": "19.6377778"}, {"lat": "42.2427778", "city": "Alavan", "lon": "19.6461111"}, {"lat": "42.2427778", "city": "Alavane", "lon": "19.6461111"}, {"lat": "42.2566667", "city": "Aliaj", "lon": "19.4275"}, {"lat": "42.0083333", "city": "Ali Hebe", "lon": "19.4986111"}, {"lat": "42.2455556", "city": "Aljaj", "lon": "19.705"}, {"lat": "42.1461111", "city": "Amaraj", "lon": "19.4877778"}, {"lat": "42.1333333", "city": "Amarej", "lon": "19.6302778"}, {"lat": "42.2611111", "city": "Apripa", "lon": "19.9444444"}, {"lat": "42.2611111", "city": "Apripa e-Gurit", "lon": "19.9444444"}, {"lat": "42.2611111", "city": "Apripa e Gurrit", "lon": "19.9444444"}, {"lat": "42.2272222", "city": "Apripa e Keke", "lon": "20.0969444"}, {"lat": "42.2272222", "city": "Apripa e Keqe", "lon": "20.0969444"}, {"lat": "42.2611111", "city": "Apripa e Parava", "lon": "19.9444444"}, {"lat": "42.2611111", "city": "Apripa-Gurit", "lon": "19.9444444"}, {"lat": "42.2611111", "city": "Aprip", "lon": "19.9444444"}, {"lat": "42.2611111", "city": "Aprip\u00eb", "lon": "19.9444444"}, {"lat": "42.2611111", "city": "Aprip\u00eb e Gurit", "lon": "19.9444444"}, {"lat": "42.2272222", "city": "Aprip\u00eb e Keqe", "lon": "20.0969444"}, {"lat": "42.2611111", "city": "Aprip-Guri", "lon": "19.9444444"}, {"lat": "42.2611111", "city": "Aprripe", "lon": "19.9444444"}, {"lat": "42.2013889", "city": "Arap", "lon": "19.9822222"}, {"lat": "42.2013889", "city": "Arapi", "lon": "19.9822222"}, {"lat": "42.2125", "city": "Arez", "lon": "20.1061111"}, {"lat": "42.0622222", "city": "Arr\u00ebs", "lon": "20.0166667"}, {"lat": "42.2125", "city": "Arr\u00ebsi", "lon": "20.1061111"}, {"lat": "42.15", "city": "Arr\u00eb Telume", "lon": "19.8333333"}, {"lat": "42.1", "city": "Arr\u00ebza", "lon": "19.75"}, {"lat": "42.1", "city": "Arr\u00ebz", "lon": "19.75"}, {"lat": "42.1536111", "city": "Arr\u00ebz\u00eb", "lon": "19.8694444"}, {"lat": "42.0622222", "city": "Arsi", "lon": "20.0166667"}, {"lat": "42.0622222", "city": "Arst", "lon": "20.0166667"}, {"lat": "42.2125", "city": "Arsti", "lon": "20.1061111"}, {"lat": "42.2125", "city": "Arstu", "lon": "20.1061111"}, {"lat": "42.0108333", "city": "Ashta", "lon": "19.5355556"}, {"lat": "42.0108333", "city": "Asht\u00eb", "lon": "19.5355556"}, {"lat": "42.1922222", "city": "Asht' e Likajt", "lon": "19.6891667"}, {"lat": "42.0569444", "city": "Babat", "lon": "19.4011111"}, {"lat": "42.0569444", "city": "Babot", "lon": "19.4011111"}, {"lat": "42.0569444", "city": "Baboti", "lon": "19.4011111"}, {"lat": "42.0394444", "city": "Bacalek", "lon": "19.4955556"}, {"lat": "42.0394444", "city": "Bah\u00e7all\u00ebk", "lon": "19.4955556"}, {"lat": "42.0394444", "city": "Bah\u00e7alleku", "lon": "19.4955556"}, {"lat": "42.3141667", "city": "Bajraku Gimajt", "lon": "19.7713889"}, {"lat": "42.3958333", "city": "Bajraku i Thethit", "lon": "19.7744444"}, {"lat": "42.2852778", "city": "Bajza", "lon": "19.4377778"}, {"lat": "42.2763889", "city": "Bajz\u00eb", "lon": "19.4322222"}, {"lat": "41.9188889", "city": "Baksi i Ri", "lon": "19.4186111"}, {"lat": "41.9188889", "city": "Baks i Ri", "lon": "19.4186111"}, {"lat": "41.8605556", "city": "Baks-rjoll", "lon": "19.4780556"}, {"lat": "41.8605556", "city": "Baks-Rrjoll", "lon": "19.4780556"}, {"lat": "41.8605556", "city": "Baks-Rrjolle", "lon": "19.4780556"}, {"lat": "41.8605556", "city": "Baks-Rrjolli", "lon": "19.4780556"}, {"lat": "41.9263889", "city": "Barbulloj\u00eb", "lon": "19.55"}, {"lat": "41.9263889", "city": "Barbullush", "lon": "19.55"}, {"lat": "41.9263889", "city": "Barbullushi", "lon": "19.55"}, {"lat": "41.9177778", "city": "Barbullushi i Posht\u00ebm", "lon": "19.5505556"}, {"lat": "41.9263889", "city": "Barbullushi i Sip\u00ebrm", "lon": "19.55"}, {"lat": "41.9263889", "city": "Barbullushi i Sip\u00ebrm\u00eb", "lon": "19.55"}, {"lat": "41.9177778", "city": "(( Barbullush i Posht\u00ebm ))", "lon": "19.5505556"}, {"lat": "41.9197222", "city": "(( Barbullush i Sip\u00ebrm ))", "lon": "19.5483333"}, {"lat": "42.1038889", "city": "Barcolla", "lon": "19.6955556"}, {"lat": "42.1038889", "city": "Barcoll\u00eb", "lon": "19.6955556"}, {"lat": "42.0880556", "city": "Bardhaj", "lon": "19.5541667"}, {"lat": "41.9763889", "city": "Bardhoku", "lon": "19.4005556"}, {"lat": "42.335", "city": "Bata", "lon": "19.7722222"}, {"lat": "42.335", "city": "Bat\u00eb", "lon": "19.7722222"}, {"lat": "42.3372222", "city": "Batrosh", "lon": "19.4933333"}, {"lat": "42.0669444", "city": "Bedaj", "lon": "19.8769444"}, {"lat": "42.0577778", "city": "B\u00ebhot", "lon": "19.9391667"}, {"lat": "41.9763889", "city": "Belaj", "lon": "19.4005556"}, {"lat": "42.0138889", "city": "Beltoja", "lon": "19.5136111"}, {"lat": "42.0138889", "city": "Beltoj\u00eb", "lon": "19.5136111"}, {"lat": "42.1086111", "city": "Bena", "lon": "19.7838889"}, {"lat": "41.9283333", "city": "Bend", "lon": "19.4702778"}, {"lat": "41.9283333", "city": "Bendi", "lon": "19.4702778"}, {"lat": "42.1086111", "city": "Ben\u00eb", "lon": "19.7838889"}, {"lat": "42.0152778", "city": "B\u00ebrdica e Madhe", "lon": "19.4816667"}, {"lat": "42.0238889", "city": "B\u00ebrdica e Mesme", "lon": "19.4897222"}, {"lat": "42.0194444", "city": "Berdica e Posht\u00ebme", "lon": "19.4844444"}, {"lat": "42.03", "city": "B\u00ebrdica e Sip\u00ebrme", "lon": "19.5055556"}, {"lat": "42.0238889", "city": "Berdica Mesme", "lon": "19.4897222"}, {"lat": "42.0238889", "city": "Berdica Mjesme", "lon": "19.4897222"}, {"lat": "42.0194444", "city": "B\u00ebrdica posht\u00ebrme", "lon": "19.4844444"}, {"lat": "42.0194444", "city": "Berdica Poshtme", "lon": "19.4844444"}, {"lat": "42.0152778", "city": "B\u00ebrdic\u00eb", "lon": "19.4816667"}, {"lat": "42.0152778", "city": "B\u00ebrdic\u00eb e Madhe", "lon": "19.4816667"}, {"lat": "42.0238889", "city": "B\u00ebrdic\u00eb e Mesme", "lon": "19.4897222"}, {"lat": "42.0238889", "city": "B\u00ebrdic\u00eb e Mjesme", "lon": "19.4897222"}, {"lat": "42.0194444", "city": "B\u00ebrdic\u00eb e Posht\u00ebme", "lon": "19.4844444"}, {"lat": "42.0194444", "city": "Berdic\u00eb e-poshterme", "lon": "19.4844444"}, {"lat": "42.0194444", "city": "(( B\u00ebrdic\u00eb e Poshtme ))", "lon": "19.4844444"}, {"lat": "42.03", "city": "B\u00ebrdic\u00eb e Sip\u00ebrme", "lon": "19.5055556"}, {"lat": "42.03", "city": "B\u00ebrdic e Sip\u00ebrme", "lon": "19.5055556"}, {"lat": "42.1469444", "city": "Beriscia", "lon": "19.9272222"}, {"lat": "42.1469444", "city": "Berisha", "lon": "19.9272222"}, {"lat": "42.2213889", "city": "Berisha e Ep\u00ebrme", "lon": "19.9466667"}, {"lat": "42.1469444", "city": "Berisha e Madhe", "lon": "19.9272222"}, {"lat": "42.1469444", "city": "Berisha e Vendit", "lon": "19.9272222"}, {"lat": "42.1716667", "city": "Berisha e Vog\u00ebl", "lon": "19.9147222"}, {"lat": "42.1469444", "city": "Berish\u00eb", "lon": "19.9272222"}, {"lat": "42.2213889", "city": "Berish\u00eb e Ep\u00ebrme", "lon": "19.9466667"}, {"lat": "42.1716667", "city": "Berish\u00eb e Vog\u00ebl", "lon": "19.9147222"}, {"lat": "42.1469444", "city": "Berish\u00eb-Vend", "lon": "19.9272222"}, {"lat": "42.1469444", "city": "Berish\u00eb Vendi", "lon": "19.9272222"}, {"lat": "42.3125", "city": "Berzeta", "lon": "19.5522222"}, {"lat": "42.3125", "city": "B\u00ebrzheta", "lon": "19.5522222"}, {"lat": "42.3125", "city": "Berzhet", "lon": "19.5522222"}, {"lat": "42.0638889", "city": "Bicaj", "lon": "19.9886111"}, {"lat": "41.9763889", "city": "Biela", "lon": "19.4005556"}, {"lat": "42.0727778", "city": "Binishti", "lon": "19.9577778"}, {"lat": "42.1380556", "city": "Bjeshk' e Bregut", "lon": "19.6688889"}, {"lat": "42.0841667", "city": "Bleran", "lon": "19.5447222"}, {"lat": "42.0841667", "city": "Blerani", "lon": "19.5447222"}, {"lat": "42.1605556", "city": "Blerim", "lon": "20.1919444"}, {"lat": "42.0727778", "city": "Blinisht", "lon": "19.9577778"}, {"lat": "42.0727778", "city": "Blinishti", "lon": "19.9577778"}, {"lat": "42.0569444", "city": "Bobot", "lon": "19.4011111"}, {"lat": "42.0569444", "city": "Boboti", "lon": "19.4011111"}, {"lat": "42.3980556", "city": "Boga", "lon": "19.6455556"}, {"lat": "42.3980556", "city": "Bog\u00eb", "lon": "19.6455556"}, {"lat": "42.2033333", "city": "Bogi\u00e7-Palvar", "lon": "19.4530556"}, {"lat": "42.2033333", "city": "Bogi\u00e7-Palvari", "lon": "19.4530556"}, {"lat": "42.2033333", "city": "Bogiq", "lon": "19.4530556"}, {"lat": "42.2033333", "city": "Bogiq-Palvar", "lon": "19.4530556"}, {"lat": "42.2033333", "city": "Bogiq-Polvar", "lon": "19.4530556"}, {"lat": "42.2033333", "city": "Bogiq-Polvari", "lon": "19.4530556"}, {"lat": "42.0577778", "city": "Bohot", "lon": "19.9391667"}, {"lat": "42.0577778", "city": "Bohoti", "lon": "19.9391667"}, {"lat": "42.2233333", "city": "Bojaj", "lon": "19.6605556"}, {"lat": "42.2808333", "city": "Bok", "lon": "19.6616667"}, {"lat": "42.1205556", "city": "Boks", "lon": "19.5727778"}, {"lat": "42.1205556", "city": "Boksi", "lon": "19.5727778"}, {"lat": "41.9188889", "city": "Boksi i Ri", "lon": "19.4186111"}, {"lat": "41.9188889", "city": "Boks i Ri", "lon": "19.4186111"}, {"lat": "41.8605556", "city": "Boks-Rjoll", "lon": "19.4780556"}, {"lat": "41.8605556", "city": "Boks-Rrjodhi", "lon": "19.4780556"}, {"lat": "41.8605556", "city": "Boks-Rrjolle", "lon": "19.4780556"}, {"lat": "41.8605556", "city": "Boks-Rrjolli", "lon": "19.4780556"}, {"lat": "42.1311111", "city": "Bori\u00e7i", "lon": "19.5"}, {"lat": "42.1347222", "city": "Bori\u00e7i i Madh", "lon": "19.4963889"}, {"lat": "42.1347222", "city": "Bori\u00e7i i Math", "lon": "19.4963889"}, {"lat": "42.1311111", "city": "Bori\u00e7i i Vog\u00ebl", "lon": "19.5"}, {"lat": "42.1347222", "city": "Bori\u00e7 i Madh", "lon": "19.4963889"}, {"lat": "42.1347222", "city": "Bori\u00e7 i Math", "lon": "19.4963889"}, {"lat": "42.1311111", "city": "Bori\u00e7 i Vog\u00ebl", "lon": "19.5"}, {"lat": "42.1311111", "city": "Borit\u00e7", "lon": "19.5"}, {"lat": "42.1311111", "city": "Boritsch", "lon": "19.5"}, {"lat": "41.9536111", "city": "Branxat", "lon": "19.5163889"}, {"lat": "42.2377778", "city": "Brashta", "lon": "19.8172222"}, {"lat": "42.2377778", "city": "Brasht\u00eb", "lon": "19.8172222"}, {"lat": "42.2377778", "city": "Brashto", "lon": "19.8172222"}, {"lat": "42.3372222", "city": "Bratesh", "lon": "19.4933333"}, {"lat": "42.3372222", "city": "Bratosa", "lon": "19.4933333"}, {"lat": "42.3372222", "city": "Bratosh", "lon": "19.4933333"}, {"lat": "42.3372222", "city": "Bratoshi", "lon": "19.4933333"}, {"lat": "42.0238889", "city": "Brdica Mjesme", "lon": "19.4897222"}, {"lat": "42.0194444", "city": "Brdica poster", "lon": "19.4844444"}, {"lat": "42.0383333", "city": "Breg", "lon": "19.9991667"}, {"lat": "42.0383333", "city": "Bregu", "lon": "19.9991667"}, {"lat": "42.0383333", "city": "Brengu", "lon": "19.9991667"}, {"lat": "42.3738889", "city": "Bri\u00c4\u0091a", "lon": "19.4483333"}, {"lat": "42.3738889", "city": "Bridzh\u00eb", "lon": "19.4483333"}, {"lat": "42.3738889", "city": "Brigja", "lon": "19.4483333"}, {"lat": "42.3738889", "city": "Brigj\u00eb", "lon": "19.4483333"}, {"lat": "42.3738889", "city": "Brigjja", "lon": "19.4483333"}, {"lat": "42.4388889", "city": "Broja", "lon": "19.5552778"}, {"lat": "42.4388889", "city": "Broj\u00eb", "lon": "19.5552778"}, {"lat": "42.2177778", "city": "Bru\u00e7aj", "lon": "19.6494444"}, {"lat": "42.0319444", "city": "Brungaj", "lon": "19.6727778"}, {"lat": "42.1647222", "city": "Brushtull", "lon": "19.7986111"}, {"lat": "42.3594444", "city": "Brut", "lon": "19.4816667"}, {"lat": "42.5566667", "city": "Buda\u00e7", "lon": "19.7305556"}, {"lat": "42.5566667", "city": "Buda\u00e7i", "lon": "19.7305556"}, {"lat": "42.325", "city": "Budisha", "lon": "19.4755556"}, {"lat": "42.325", "city": "Budish", "lon": "19.4755556"}, {"lat": "42.325", "city": "Budish\u00eb", "lon": "19.4755556"}, {"lat": "42.3116667", "city": "Budishta-Goraj", "lon": "19.4819444"}, {"lat": "42.3116667", "city": "Budisht\u00eb-Goraj", "lon": "19.4819444"}, {"lat": "42.235", "city": "Bugjon", "lon": "19.9927778"}, {"lat": "42.235", "city": "Bugjoni", "lon": "19.9927778"}, {"lat": "42.0577778", "city": "Buhot", "lon": "19.9391667"}, {"lat": "42.0577778", "city": "Buhoti", "lon": "19.9391667"}, {"lat": "42.2166667", "city": "Bujzaujt", "lon": "19.4"}, {"lat": "42.2166667", "city": "Bujzauyt", "lon": "19.4"}, {"lat": "42.2025", "city": "Bukmira", "lon": "19.6361111"}, {"lat": "42.2025", "city": "Bukmir\u00eb", "lon": "19.6361111"}, {"lat": "42.2030556", "city": "Burg", "lon": "19.5627778"}, {"lat": "41.9597222", "city": "Buschatti", "lon": "19.5341667"}, {"lat": "42.1194444", "city": "Busciala", "lon": "19.8997222"}, {"lat": "41.9597222", "city": "Busciati", "lon": "19.5341667"}, {"lat": "42.1019444", "city": "Bushala", "lon": "19.885"}, {"lat": "42.1019444", "city": "Bushal\u00eb", "lon": "19.885"}, {"lat": "42.1019444", "city": "Bushalla", "lon": "19.885"}, {"lat": "41.9597222", "city": "Bushat", "lon": "19.5341667"}, {"lat": "41.9597222", "city": "Bushati", "lon": "19.5341667"}, {"lat": "42.2166667", "city": "Buza e Ujit", "lon": "19.4"}, {"lat": "42.2166667", "city": "(( Buz\u00eb e Ujit ))", "lon": "19.4"}, {"lat": "42.2166667", "city": "Buz\u00eb-Uj", "lon": "19.4"}, {"lat": "42.2166667", "city": "Buz\u00eb-Uji", "lon": "19.4"}, {"lat": "42.1019444", "city": "Buzhala", "lon": "19.885"}, {"lat": "42.1019444", "city": "Buzhal\u00eb", "lon": "19.885"}, {"lat": "42.2166667", "city": "Buz-Uji", "lon": "19.4"}, {"lat": "42.2", "city": "Bzheta-Makaj", "lon": "19.4333333"}, {"lat": "42.3125", "city": "Bzhet\u00eb", "lon": "19.5522222"}, {"lat": "42.2", "city": "Bzhet\u00eb-Makaj", "lon": "19.4333333"}, {"lat": "42.35", "city": "(( Bzhet-Makaj ))", "lon": "19.5833333"}, {"lat": "42.0380556", "city": "Canaj", "lon": "19.4791667"}, {"lat": "41.9238889", "city": "\u00c7as", "lon": "19.4033333"}, {"lat": "41.9238889", "city": "\u00c7asi", "lon": "19.4033333"}, {"lat": "42.2455556", "city": "Celaj", "lon": "19.7822222"}, {"lat": "42.0530556", "city": "Cereti-eper", "lon": "19.8372222"}, {"lat": "42.1813889", "city": "(( \u00c7esme e Koplikut ))", "lon": "19.46"}, {"lat": "42.1813889", "city": "\u00c7ezmja e Koplikut", "lon": "19.46"}, {"lat": "42.0933333", "city": "Chafamalit", "lon": "20.0905556"}, {"lat": "42.2072222", "city": "Cinlit", "lon": "19.6752778"}, {"lat": "42.2127778", "city": "\u00c7okaj", "lon": "19.5652778"}, {"lat": "42.0902778", "city": "Comani", "lon": "19.8122222"}, {"lat": "42.2036111", "city": "Culaj", "lon": "19.4269444"}, {"lat": "42.2936111", "city": "Curaj", "lon": "19.4919444"}, {"lat": "41.9622222", "city": "Curdpula", "lon": "19.8102778"}, {"lat": "42.1725", "city": "Dacaj", "lon": "19.7105556"}, {"lat": "42.1952778", "city": "Daj\u00e7a", "lon": "19.6536111"}, {"lat": "41.9916667", "city": "Daj\u00e7", "lon": "19.4105556"}, {"lat": "42.1952778", "city": "Daj\u00e7\u00eb", "lon": "19.6536111"}, {"lat": "41.9916667", "city": "Daj\u00e7i", "lon": "19.4105556"}, {"lat": "42.2941667", "city": "Dakaj", "lon": "19.7761111"}, {"lat": "42.0", "city": "Daragjat", "lon": "19.45"}, {"lat": "42.0", "city": "Daragjati", "lon": "19.45"}, {"lat": "42.195", "city": "Dardha", "lon": "20.1577778"}, {"lat": "42.195", "city": "Dardh\u00eb", "lon": "20.1577778"}, {"lat": "42.0", "city": "Darragjat", "lon": "19.45"}, {"lat": "42.0", "city": "Darragjati", "lon": "19.45"}, {"lat": "42.3483333", "city": "De\u00e7kaj", "lon": "19.4472222"}, {"lat": "42.0669444", "city": "Dedaj", "lon": "19.8769444"}, {"lat": "42.2947222", "city": "Dedoj", "lon": "19.5411111"}, {"lat": "42.01", "city": "Dejas", "lon": "19.6247222"}, {"lat": "42.2236111", "city": "Delaj", "lon": "19.6497222"}, {"lat": "42.1838889", "city": "Demaj", "lon": "19.4925"}, {"lat": "42.1802778", "city": "Demiraj", "lon": "19.475"}, {"lat": "42.0941667", "city": "Dergjinaj", "lon": "19.5155556"}, {"lat": "42.0", "city": "Deridat", "lon": "19.45"}, {"lat": "42.1625", "city": "Derraj", "lon": "19.6091667"}, {"lat": "41.9555556", "city": "Dhe i Let", "lon": "19.6080556"}, {"lat": "41.9555556", "city": "Dheu i Leht\u00eb", "lon": "19.6080556"}, {"lat": "41.9555556", "city": "Dheu i Let", "lon": "19.6080556"}, {"lat": "41.9555556", "city": "Dheulet", "lon": "19.6080556"}, {"lat": "41.9558333", "city": "\u00d0inaj", "lon": "19.7102778"}, {"lat": "42.1872222", "city": "Dob\u00ebr", "lon": "19.4483333"}, {"lat": "42.0822222", "city": "Dobra\u00e7", "lon": "19.5297222"}, {"lat": "42.0822222", "city": "Dobra\u00e7i", "lon": "19.5297222"}, {"lat": "42.1872222", "city": "Dobra", "lon": "19.4483333"}, {"lat": "42.1872222", "city": "Dobre", "lon": "19.4483333"}, {"lat": "42.0216667", "city": "Dodaj", "lon": "19.3861111"}, {"lat": "42.2261111", "city": "Dol\u00e7", "lon": "19.5652778"}, {"lat": "42.2261111", "city": "Dol\u00e7i", "lon": "19.5652778"}, {"lat": "41.9980556", "city": "Dolni Samrih", "lon": "19.3869444"}, {"lat": "41.9333333", "city": "Dom", "lon": "20.0166667"}, {"lat": "42.1383333", "city": "Dom\u00ebn", "lon": "19.6027778"}, {"lat": "42.1383333", "city": "Domeni", "lon": "19.6027778"}, {"lat": "41.9333333", "city": "Domi", "lon": "20.0166667"}, {"lat": "41.9333333", "city": "Domni", "lon": "20.0166667"}, {"lat": "42.1808333", "city": "\u00d0orm", "lon": "19.5105556"}, {"lat": "42.0552778", "city": "Dracin", "lon": "19.5158333"}, {"lat": "42.1219444", "city": "Drago\u00e7", "lon": "19.5611111"}, {"lat": "42.1219444", "city": "Drago\u00e7i", "lon": "19.5611111"}, {"lat": "42.2294444", "city": "Dragovoi", "lon": "19.4913889"}, {"lat": "42.0466667", "city": "Dramash", "lon": "19.4236111"}, {"lat": "42.0466667", "city": "Dramosh", "lon": "19.4236111"}, {"lat": "42.0466667", "city": "Dramoshi", "lon": "19.4236111"}, {"lat": "42.0466667", "city": "Dramusha", "lon": "19.4236111"}, {"lat": "42.0466667", "city": "Dramush", "lon": "19.4236111"}, {"lat": "42.1230556", "city": "Drisht", "lon": "19.5913889"}, {"lat": "42.1230556", "city": "Drishti", "lon": "19.5913889"}, {"lat": "42.3419444", "city": "Ducaj", "lon": "19.6391667"}, {"lat": "42.3425", "city": "Ducej", "lon": "19.6372222"}, {"lat": "42.1761111", "city": "Dude", "lon": "19.5033333"}, {"lat": "42.2161111", "city": "Duka", "lon": "19.54"}, {"lat": "42.2161111", "city": "Dukaj", "lon": "19.54"}, {"lat": "42.2161111", "city": "Duk\u00eb", "lon": "19.54"}, {"lat": "42.0152778", "city": "Dush", "lon": "19.7308333"}, {"lat": "42.0152778", "city": "Dushi", "lon": "19.7308333"}, {"lat": "42.0425", "city": "Dush i Ep\u00ebr", "lon": "19.8033333"}, {"lat": "42.0425", "city": "Dush i Ep\u00ebrm", "lon": "19.8033333"}, {"lat": "42.0425", "city": "Dushi i Ep\u00ebrm\u00eb", "lon": "19.8033333"}, {"lat": "42.1583333", "city": "Dushman", "lon": "19.8683333"}, {"lat": "42.1583333", "city": "Dushmani", "lon": "19.8683333"}, {"lat": "42.11", "city": "Dushnest", "lon": "19.8994444"}, {"lat": "42.11", "city": "Dushneza", "lon": "19.8994444"}, {"lat": "42.11", "city": "Dushnez", "lon": "19.8994444"}, {"lat": "42.11", "city": "Dushnez\u00eb", "lon": "19.8994444"}, {"lat": "42.11", "city": "Dushnjez", "lon": "19.8994444"}, {"lat": "42.0425", "city": "Dusi-Eper", "lon": "19.8033333"}, {"lat": "42.11", "city": "Duzhnez\u00eb", "lon": "19.8994444"}, {"lat": "42.1891667", "city": "Eg\u00e7", "lon": "19.5394444"}, {"lat": "42.1891667", "city": "Eg\u00ebr\u00e7", "lon": "19.5394444"}, {"lat": "42.1975", "city": "Elvosh", "lon": "19.9644444"}, {"lat": "42.1975", "city": "Elvoshi", "lon": "19.9644444"}, {"lat": "42.2605556", "city": "Fiera", "lon": "20.0169444"}, {"lat": "42.2605556", "city": "Fierza", "lon": "20.0169444"}, {"lat": "42.2605556", "city": "Fierz\u00eb", "lon": "20.0169444"}, {"lat": "42.2605556", "city": "Fir\u00ebz", "lon": "20.0169444"}, {"lat": "42.2605556", "city": "Firza", "lon": "20.0169444"}, {"lat": "42.2441667", "city": "Flaka", "lon": "19.3752778"}, {"lat": "42.2441667", "city": "Flak\u00eb", "lon": "19.3752778"}, {"lat": "42.2441667", "city": "Flaki", "lon": "19.3752778"}, {"lat": "42.1205556", "city": "Flet\u00eb", "lon": "20.1275"}, {"lat": "42.1205556", "city": "Flet", "lon": "20.1275"}, {"lat": "42.1205556", "city": "Fleti", "lon": "20.1275"}, {"lat": "41.9341667", "city": "Fshati i Ri", "lon": "19.4791667"}, {"lat": "41.9341667", "city": "Fshat i Ri", "lon": "19.4791667"}, {"lat": "41.9341667", "city": "Fshat Ri", "lon": "19.4791667"}, {"lat": "42.0377778", "city": "Fundhaj", "lon": "19.6625"}, {"lat": "42.3738889", "city": "Fusha Brigje", "lon": "19.4483333"}, {"lat": "42.0622222", "city": "Fusha e Ar\u00ebzit", "lon": "20.0166667"}, {"lat": "42.0622222", "city": "Fusha-e-Arresit", "lon": "20.0166667"}, {"lat": "42.0622222", "city": "Fusha e Arr\u00ebzit", "lon": "20.0166667"}, {"lat": "42.0622222", "city": "Fusha e Arsit", "lon": "20.0166667"}, {"lat": "42.0622222", "city": "Fushe-Ares", "lon": "20.0166667"}, {"lat": "42.0622222", "city": "Fushe-Aresi", "lon": "20.0166667"}, {"lat": "42.0622222", "city": "Fush\u00eb-Ar\u00ebzi", "lon": "20.0166667"}, {"lat": "42.0622222", "city": "Fush\u00eb-Ar\u00ebzit", "lon": "20.0166667"}, {"lat": "42.18", "city": "Fush' e Arrasit", "lon": "19.6008333"}, {"lat": "42.0622222", "city": "Fush\u00eb-Arr\u00ebsi", "lon": "20.0166667"}, {"lat": "42.0622222", "city": "Fush\u00eb-Arr\u00ebz", "lon": "20.0166667"}, {"lat": "42.0622222", "city": "Fushe Arrezi", "lon": "20.0166667"}, {"lat": "42.3738889", "city": "Fush\u00eb-Brigje", "lon": "19.4483333"}, {"lat": "42.0622222", "city": "Fush\u00eb e Arr\u00ebzit", "lon": "20.0166667"}, {"lat": "42.1852778", "city": "Fush' e Marlanajt", "lon": "19.5944444"}, {"lat": "42.1830556", "city": "Fush' e That\u00eb", "lon": "19.6113889"}, {"lat": "41.9461111", "city": "Fush\u00eb Vigu", "lon": "19.7222222"}, {"lat": "42.3283333", "city": "Gag", "lon": "19.7708333"}, {"lat": "42.3283333", "city": "Gagu", "lon": "19.7708333"}, {"lat": "42.0563889", "city": "Gajtan", "lon": "19.5722222"}, {"lat": "42.0563889", "city": "Gajtani", "lon": "19.5722222"}, {"lat": "42.0563889", "city": "Gajtan i posht\u00ebm", "lon": "19.5722222"}, {"lat": "42.0125", "city": "Ganjolla", "lon": "19.5883333"}, {"lat": "42.0125", "city": "Ganjoll\u00eb", "lon": "19.5883333"}, {"lat": "42.1608333", "city": "Garu\u00e7", "lon": "19.5886111"}, {"lat": "42.1608333", "city": "Garu\u00e7i", "lon": "19.5886111"}, {"lat": "42.0272222", "city": "Gemshic", "lon": "19.6808333"}, {"lat": "42.0272222", "city": "Gemsice", "lon": "19.6808333"}, {"lat": "42.3141667", "city": "Gimaj", "lon": "19.7713889"}, {"lat": "42.3141667", "city": "Ginaj", "lon": "19.7713889"}, {"lat": "42.2808333", "city": "Giurai-Boks", "lon": "19.6616667"}, {"lat": "42.0288889", "city": "Gjaferaj", "lon": "19.4491667"}, {"lat": "42.3", "city": "Gjan", "lon": "19.8"}, {"lat": "42.3", "city": "Gjani", "lon": "19.8"}, {"lat": "41.9377778", "city": "Gjegjan", "lon": "20.0111111"}, {"lat": "41.9377778", "city": "Gjegjani", "lon": "20.0111111"}, {"lat": "42.2177778", "city": "Gjelaj", "lon": "19.5819444"}, {"lat": "42.2480556", "city": "Gjergoraj", "lon": "19.6986111"}, {"lat": "42.0758333", "city": "Gjoc", "lon": "19.6044444"}, {"lat": "42.1425", "city": "Gjols", "lon": "19.6944444"}, {"lat": "42.1808333", "city": "Gjor\u00ebm", "lon": "19.5105556"}, {"lat": "42.1808333", "city": "Gjorm", "lon": "19.5105556"}, {"lat": "42.1808333", "city": "Gjormi", "lon": "19.5105556"}, {"lat": "42.1652778", "city": "Gjormi i Posht\u00ebm", "lon": "19.4841667"}, {"lat": "42.2808333", "city": "Gjuraj-Boks", "lon": "19.6616667"}, {"lat": "42.2808333", "city": "Gjuraj", "lon": "19.6616667"}, {"lat": "42.2477778", "city": "Glac", "lon": "19.6994444"}, {"lat": "41.9791667", "city": "Gojan", "lon": "20.0030556"}, {"lat": "41.9791667", "city": "Gojan i Ep\u00ebr", "lon": "20.0030556"}, {"lat": "41.9791667", "city": "Gojan i Ep\u00ebrme", "lon": "20.0030556"}, {"lat": "41.9791667", "city": "Gojan i Ep\u00ebrm", "lon": "20.0030556"}, {"lat": "41.9791667", "city": "Gojani", "lon": "20.0030556"}, {"lat": "41.9791667", "city": "Gojani i Eper", "lon": "20.0030556"}, {"lat": "41.9791667", "city": "Gojani i Ep\u00ebrm", "lon": "20.0030556"}, {"lat": "41.9791667", "city": "Gojani i Madh", "lon": "20.0030556"}, {"lat": "41.9586111", "city": "Gojani i Poshter", "lon": "20.0072222"}, {"lat": "41.9586111", "city": "Gojani i Vog\u00ebl", "lon": "20.0072222"}, {"lat": "41.9791667", "city": "Gojan i Madh", "lon": "20.0030556"}, {"lat": "41.9586111", "city": "Gojan i Posht\u00ebm", "lon": "20.0072222"}, {"lat": "41.9586111", "city": "Gojan i Posht\u00ebr", "lon": "20.0072222"}, {"lat": "41.9586111", "city": "Gojan i Vog\u00ebl", "lon": "20.0072222"}, {"lat": "42.0972222", "city": "Golem", "lon": "19.5258333"}, {"lat": "42.0972222", "city": "Golemi", "lon": "19.5258333"}, {"lat": "42.0927778", "city": "Golemi i Posht\u00ebm", "lon": "19.5241667"}, {"lat": "42.0972222", "city": "Golem i Sip\u00ebrm", "lon": "19.5258333"}, {"lat": "42.0272222", "city": "Gomsiqa e Re", "lon": "19.6808333"}, {"lat": "41.9822222", "city": "Gomsiqa", "lon": "19.7977778"}, {"lat": "42.0272222", "city": "Gomsiq\u00eb e Re", "lon": "19.6808333"}, {"lat": "41.9102778", "city": "Gomsiqe", "lon": "19.4094444"}, {"lat": "42.0272222", "city": "Gomsiqeja", "lon": "19.6808333"}, {"lat": "41.9822222", "city": "Gomsiqia e Ep\u00ebrme", "lon": "19.7977778"}, {"lat": "42.0272222", "city": "Gomsiqia", "lon": "19.6808333"}, {"lat": "41.9822222", "city": "Gomsiqja e Ep\u00ebrme", "lon": "19.7977778"}, {"lat": "41.9102778", "city": "Gomsiqja e Re", "lon": "19.4094444"}, {"lat": "41.9102778", "city": "Gomsiqja", "lon": "19.4094444"}, {"lat": "41.9822222", "city": "Gomsiqje", "lon": "19.7977778"}, {"lat": "42.3116667", "city": "Goraj-Budisha", "lon": "19.4819444"}, {"lat": "42.3116667", "city": "Goraj-Budish\u00eb", "lon": "19.4819444"}, {"lat": "42.3116667", "city": "Goraj-Budisht\u00eb", "lon": "19.4819444"}, {"lat": "42.3175", "city": "(( Goraj ))", "lon": "19.4780556"}, {"lat": "42.0055556", "city": "Gorica", "lon": "19.3830556"}, {"lat": "42.2783333", "city": "Goshaj", "lon": "19.3963889"}, {"lat": "42.4219444", "city": "Grabom", "lon": "19.51"}, {"lat": "42.4219444", "city": "Grabomi", "lon": "19.51"}, {"lat": "42.25", "city": "Gradec", "lon": "19.4772222"}, {"lat": "42.25", "city": "Gradeci", "lon": "19.4772222"}, {"lat": "42.2452778", "city": "Gradiskie", "lon": "19.5108333"}, {"lat": "42.2452778", "city": "Gradiskije", "lon": "19.5108333"}, {"lat": "42.2475", "city": "Gralisht\u00eb", "lon": "19.9955556"}, {"lat": "42.1311111", "city": "Grila", "lon": "19.4855556"}, {"lat": "42.1311111", "city": "Gril\u00eb", "lon": "19.4855556"}, {"lat": "42.1311111", "city": "Gril", "lon": "19.4855556"}, {"lat": "42.1311111", "city": "Grili", "lon": "19.4855556"}, {"lat": "42.1311111", "city": "Grilj", "lon": "19.4855556"}, {"lat": "42.1311111", "city": "Grill", "lon": "19.4855556"}, {"lat": "42.1311111", "city": "Grilli", "lon": "19.4855556"}, {"lat": "42.2666667", "city": "Grishaj", "lon": "19.4666667"}, {"lat": "42.2666667", "city": "Grizaj", "lon": "19.4666667"}, {"lat": "42.2666667", "city": "Grizha", "lon": "19.4666667"}, {"lat": "42.2666667", "city": "Grizha Num\u00ebr Dy", "lon": "19.4666667"}, {"lat": "42.2666667", "city": "Grizha Num\u00ebr Nj\u00eb", "lon": "19.4666667"}, {"lat": "42.2666667", "city": "(( Grizh\u00eb ))", "lon": "19.4666667"}, {"lat": "42.2666667", "city": "(( Grizh\u00eb Num\u00ebr Dy ))", "lon": "19.4666667"}, {"lat": "42.2666667", "city": "((Grizh\u00eb Num\u00ebr Nj\u00eb ))", "lon": "19.4666667"}, {"lat": "42.25", "city": "Grodec", "lon": "19.4772222"}, {"lat": "42.5377778", "city": "Gropat e Selc\u00ebs", "lon": "19.6905556"}, {"lat": "42.2486111", "city": "Grop\u00eb", "lon": "20.0405556"}, {"lat": "42.3433333", "city": "Grop e Kamshollit", "lon": "19.7016667"}, {"lat": "42.1311111", "city": "Grrila", "lon": "19.4855556"}, {"lat": "42.1119444", "city": "Gruda e Re", "lon": "19.5352778"}, {"lat": "42.1119444", "city": "Grud\u00eb e Re", "lon": "19.5352778"}, {"lat": "42.1619444", "city": "Grud\u00eb-Fusha", "lon": "19.5005556"}, {"lat": "42.1619444", "city": "Grud\u00eb-Fush\u00eb", "lon": "19.5005556"}, {"lat": "42.1119444", "city": "Grud\u00eb", "lon": "19.5352778"}, {"lat": "42.1619444", "city": "Grud-Fush\u00eb", "lon": "19.5005556"}, {"lat": "42.1591667", "city": "Gruemira", "lon": "19.5188889"}, {"lat": "42.2008333", "city": "Gruemir-\u00c7esm\u00ebs", "lon": "19.4791667"}, {"lat": "42.2008333", "city": "(( Gruemir\u00eb-\u00c7esme ))", "lon": "19.4791667"}, {"lat": "42.1591667", "city": "Gruemir\u00eb", "lon": "19.5188889"}, {"lat": "42.3780556", "city": "Grumas", "lon": "19.7894444"}, {"lat": "42.1238889", "city": "Gucia e Re", "lon": "19.5136111"}, {"lat": "42.1238889", "city": "Guci\u00eb e Re", "lon": "19.5136111"}, {"lat": "42.1238889", "city": "Guci e R\u00e9", "lon": "19.5136111"}, {"lat": "42.1238889", "city": "Gucija e Re", "lon": "19.5136111"}, {"lat": "41.9769444", "city": "Gulzi", "lon": "19.5591667"}, {"lat": "41.9530556", "city": "Guragi", "lon": "19.6377778"}, {"lat": "42.2808333", "city": "Guraj-Boks", "lon": "19.6616667"}, {"lat": "42.1927778", "city": "Guri i Lek\u00ebs", "lon": "19.7916667"}, {"lat": "42.045", "city": "Guri i Zi", "lon": "19.5747222"}, {"lat": "42.1927778", "city": "Gur i Lek\u00ebs", "lon": "19.7916667"}, {"lat": "42.2611111", "city": "Gurit", "lon": "19.9444444"}, {"lat": "42.045", "city": "Gur i Zi", "lon": "19.5747222"}, {"lat": "42.1947222", "city": "Gurra", "lon": "20.1219444"}, {"lat": "42.1947222", "city": "Gurr\u00eb", "lon": "20.1219444"}, {"lat": "42.1", "city": "Gushta", "lon": "19.8166667"}, {"lat": "42.1", "city": "Gusht\u00eb", "lon": "19.8166667"}, {"lat": "42.1", "city": "Gusht", "lon": "19.8166667"}, {"lat": "42.0833333", "city": "Gusht-Palaj", "lon": "19.8166667"}, {"lat": "42.1", "city": "Gusta", "lon": "19.8166667"}, {"lat": "42.2533333", "city": "Gyoani", "lon": "19.6536111"}, {"lat": "41.9530556", "city": "Hajmel", "lon": "19.6377778"}, {"lat": "41.9530556", "city": "Hajmeli", "lon": "19.6377778"}, {"lat": "41.9530556", "city": "Hajmelj", "lon": "19.6377778"}, {"lat": "42.3366667", "city": "Han i Hotit", "lon": "19.4341667"}, {"lat": "42.3366667", "city": "Hani Hotit", "lon": "19.4341667"}, {"lat": "42.3366667", "city": "Hani i Hotit", "lon": "19.4341667"}, {"lat": "42.2013889", "city": "Harap", "lon": "19.9822222"}, {"lat": "42.2013889", "city": "Harapi", "lon": "19.9822222"}, {"lat": "42.4027778", "city": "Hardedaj", "lon": "19.7758333"}, {"lat": "42.0333333", "city": "Hill Dodej", "lon": "19.6127778"}, {"lat": "42.3619444", "city": "Hot", "lon": "19.4441667"}, {"lat": "42.3619444", "city": "Hoti", "lon": "19.4441667"}, {"lat": "42.1002778", "city": "Hot i Ri", "lon": "19.5494444"}, {"lat": "42.1466667", "city": "Hysaj", "lon": "19.5430556"}, {"lat": "42.1905556", "city": "Hysebaj", "lon": "19.5055556"}, {"lat": "42.1875", "city": "Ibalja", "lon": "20.0025"}, {"lat": "42.1875", "city": "Iball\u00eb", "lon": "20.0025"}, {"lat": "42.1875", "city": "Iballja", "lon": "20.0025"}, {"lat": "42.1875", "city": "Iballj\u00eb", "lon": "20.0025"}, {"lat": "42.2852778", "city": "Ivanaj", "lon": "19.4377778"}, {"lat": "42.0138889", "city": "Jakaj", "lon": "19.7016667"}, {"lat": "42.2680556", "city": "Jarani", "lon": "19.4488889"}, {"lat": "42.2680556", "city": "Jaran", "lon": "19.4488889"}, {"lat": "42.5333333", "city": "Javor", "lon": "19.6383333"}, {"lat": "42.1875", "city": "Jballje", "lon": "20.0025"}, {"lat": "42.2680556", "city": "Jeran", "lon": "19.4488889"}, {"lat": "42.0241667", "city": "Jubani", "lon": "19.5761111"}, {"lat": "42.0241667", "city": "Juban", "lon": "19.5761111"}, {"lat": "42.2186111", "city": "Jubica", "lon": "19.3894444"}, {"lat": "42.2186111", "city": "Jubic\u00eb", "lon": "19.3894444"}, {"lat": "41.9330556", "city": "Juga", "lon": "19.4741667"}, {"lat": "41.9330556", "city": "Jug\u00eb", "lon": "19.4741667"}, {"lat": "42.3752778", "city": "Jugomir\u00eb", "lon": "19.5066667"}, {"lat": "41.9330556", "city": "Jush", "lon": "19.4741667"}, {"lat": "42.2852778", "city": "Jvanaj", "lon": "19.4377778"}, {"lat": "42.0697222", "city": "Kabashi", "lon": "19.9180556"}, {"lat": "42.0697222", "city": "Kabash", "lon": "19.9180556"}, {"lat": "41.9794444", "city": "Ka\u00e7a", "lon": "19.6175"}, {"lat": "41.9794444", "city": "Ka\u00e7\u00eb", "lon": "19.6175"}, {"lat": "41.9794444", "city": "Kacit", "lon": "19.6175"}, {"lat": "41.9794444", "city": "Kac", "lon": "19.6175"}, {"lat": "41.9541667", "city": "Kaftali", "lon": "19.7719444"}, {"lat": "41.9541667", "city": "Kaftalla", "lon": "19.7719444"}, {"lat": "41.9541667", "city": "Kaftall\u00eb", "lon": "19.7719444"}, {"lat": "41.9541667", "city": "Kaftalli", "lon": "19.7719444"}, {"lat": "41.9541667", "city": "Kaftall", "lon": "19.7719444"}, {"lat": "42.1822222", "city": "Kajballi", "lon": "19.8313889"}, {"lat": "42.1822222", "city": "Kajvali", "lon": "19.8313889"}, {"lat": "42.1822222", "city": "Kajvall", "lon": "19.8313889"}, {"lat": "42.2311111", "city": "Kak\u00eb-Papa", "lon": "19.5844444"}, {"lat": "42.205", "city": "Kaldruni", "lon": "19.4111111"}, {"lat": "42.205", "city": "Kaldrun", "lon": "19.4111111"}, {"lat": "41.9688889", "city": "Kalivare", "lon": "20.0163889"}, {"lat": "41.9688889", "city": "Kalivaren", "lon": "20.0163889"}, {"lat": "41.9688889", "city": "Kalivari", "lon": "20.0163889"}, {"lat": "41.9688889", "city": "Kalivar", "lon": "20.0163889"}, {"lat": "42.205", "city": "Kalldruni", "lon": "19.4111111"}, {"lat": "42.205", "city": "Kalldrun", "lon": "19.4111111"}, {"lat": "42.2302778", "city": "Kamic\u00eb-Flaka", "lon": "19.38"}, {"lat": "42.2302778", "city": "Kamic\u00eb-Flak\u00eb", "lon": "19.38"}, {"lat": "42.2302778", "city": "Kamice", "lon": "19.38"}, {"lat": "42.2302778", "city": "Kamici-Flak\u00eb", "lon": "19.38"}, {"lat": "42.3611111", "city": "Kaprej\u00eb", "lon": "19.7366667"}, {"lat": "42.3611111", "city": "Kaprre", "lon": "19.7366667"}, {"lat": "42.0666667", "city": "Karma e Ep\u00ebrme", "lon": "19.7133333"}, {"lat": "42.0666667", "city": "Karma Ep\u00ebr", "lon": "19.7133333"}, {"lat": "42.0666667", "city": "Karma Ep\u00ebrme", "lon": "19.7133333"}, {"lat": "42.0666667", "city": "Karma", "lon": "19.7133333"}, {"lat": "42.0666667", "city": "Karme' e Ep\u00ebr", "lon": "19.7133333"}, {"lat": "42.0666667", "city": "Karm\u00eb e Ep\u00ebrme", "lon": "19.7133333"}, {"lat": "42.0666667", "city": "Karm\u00eb", "lon": "19.7133333"}, {"lat": "42.2572222", "city": "Kasani", "lon": "19.3927778"}, {"lat": "42.2572222", "city": "Kasan", "lon": "19.3927778"}, {"lat": "42.2316667", "city": "Kashec", "lon": "19.6891667"}, {"lat": "42.2316667", "city": "Kasnec", "lon": "19.6891667"}, {"lat": "41.9275", "city": "Kastra e Posht\u00ebme", "lon": "19.7483333"}, {"lat": "42.3525", "city": "Kastrati", "lon": "19.4891667"}, {"lat": "42.3525", "city": "Kastrat", "lon": "19.4891667"}, {"lat": "42.4458333", "city": "Katsa", "lon": "19.5858333"}, {"lat": "42.4458333", "city": "Kats\u00eb", "lon": "19.5858333"}, {"lat": "41.9541667", "city": "Kattal", "lon": "19.7719444"}, {"lat": "42.0958333", "city": "Katund", "lon": "19.9097222"}, {"lat": "42.1919444", "city": "Kcar", "lon": "19.5216667"}, {"lat": "42.0158333", "city": "K\u00e7ira e Ep\u00ebrme", "lon": "19.8058333"}, {"lat": "42.0180556", "city": "K\u00e7ira", "lon": "19.8297222"}, {"lat": "42.0180556", "city": "K\u00e7ir\u00eb", "lon": "19.8297222"}, {"lat": "42.0180556", "city": "K\u00e7irr\u00eb", "lon": "19.8297222"}, {"lat": "42.0180556", "city": "K\u00eb\u00e7ira", "lon": "19.8297222"}, {"lat": "42.0180556", "city": "K\u00eb\u00e7ir\u00eb", "lon": "19.8297222"}, {"lat": "41.9622222", "city": "K\u00ebrpudha", "lon": "19.8102778"}, {"lat": "41.9622222", "city": "K\u00ebrthpula", "lon": "19.8102778"}, {"lat": "41.9622222", "city": "K\u00ebrthpul\u00eb", "lon": "19.8102778"}, {"lat": "41.9805556", "city": "Kimes\u00eb", "lon": "20.0569444"}, {"lat": "41.9805556", "city": "Kimeza", "lon": "20.0569444"}, {"lat": "41.9805556", "city": "Kim\u00ebz\u00eb", "lon": "20.0569444"}, {"lat": "41.9805556", "city": "Kim\u00ebz", "lon": "20.0569444"}, {"lat": "41.9805556", "city": "Kimza", "lon": "20.0569444"}, {"lat": "41.9805556", "city": "Kimz\u00eb", "lon": "20.0569444"}, {"lat": "41.9805556", "city": "Kimz", "lon": "20.0569444"}, {"lat": "42.2411111", "city": "Kiri", "lon": "19.7211111"}, {"lat": "42.2411111", "city": "Kir", "lon": "19.7211111"}, {"lat": "42.4866667", "city": "Kisa Vuklit", "lon": "19.6472222"}, {"lat": "42.3980556", "city": "Kisha e Bog\u00ebs", "lon": "19.6455556"}, {"lat": "42.3125", "city": "Kisha Shkrelit", "lon": "19.5522222"}, {"lat": "42.1166667", "city": "Kish\u00eb Ara", "lon": "19.7"}, {"lat": "42.1166667", "city": "Kish\u00eb Arra", "lon": "19.7"}, {"lat": "42.1166667", "city": "Kish\u00eb-Arr\u00eb", "lon": "19.7"}, {"lat": "42.1733333", "city": "Kishe-Kllogjen", "lon": "19.8491667"}, {"lat": "42.3125", "city": "Kish' e Shkrelit", "lon": "19.5522222"}, {"lat": "42.1733333", "city": "Kllogjani", "lon": "19.8491667"}, {"lat": "42.1733333", "city": "Kllogjena", "lon": "19.8491667"}, {"lat": "42.1733333", "city": "Kllogjen\u00eb", "lon": "19.8491667"}, {"lat": "42.1733333", "city": "Kllogjen", "lon": "19.8491667"}, {"lat": "42.17", "city": "Klosh", "lon": "19.4822222"}, {"lat": "42.1833333", "city": "(( Knardhe ))", "lon": "20.0"}, {"lat": "41.9794444", "city": "Koca", "lon": "19.6175"}, {"lat": "42.2141667", "city": "Kocit", "lon": "19.6991667"}, {"lat": "42.0086111", "city": "Kodra e Kuqe", "lon": "20.095"}, {"lat": "42.3922222", "city": "Kodra e Lajthis", "lon": "19.5013889"}, {"lat": "42.2744444", "city": "Kokaj", "lon": "19.5308333"}, {"lat": "42.2744444", "city": "Kokay", "lon": "19.5308333"}, {"lat": "42.2472222", "city": "Kokdoda", "lon": "19.9791667"}, {"lat": "42.2472222", "city": "Kokdod\u00eb", "lon": "19.9791667"}, {"lat": "42.2472222", "city": "Kok\u00ebdoda", "lon": "19.9791667"}, {"lat": "42.2472222", "city": "Kok\u00ebdod\u00eb", "lon": "19.9791667"}, {"lat": "42.2472222", "city": "Kok\u00ebdoga", "lon": "19.9791667"}, {"lat": "42.2311111", "city": "Kok-Papaj", "lon": "19.5844444"}, {"lat": "42.3580556", "city": "Kolcegaj", "lon": "19.4505556"}, {"lat": "42.3580556", "city": "(( Kol\u00e7ekaj ))", "lon": "19.4505556"}, {"lat": "42.1452778", "city": "Kolumrija", "lon": "20.1730556"}, {"lat": "42.0902778", "city": "Koman\u00eb", "lon": "19.8122222"}, {"lat": "42.0902778", "city": "Komani", "lon": "19.8122222"}, {"lat": "42.0902778", "city": "Koman", "lon": "19.8122222"}, {"lat": "42.2283333", "city": "Kopliki i Sip\u00ebrm", "lon": "19.4666667"}, {"lat": "42.2", "city": "Koplik i Mes\u00ebm", "lon": "19.4333333"}, {"lat": "42.2136111", "city": "Koplik i Posht\u00ebm", "lon": "19.4363889"}, {"lat": "42.2283333", "city": "Koplik i Sip\u00ebrin", "lon": "19.4666667"}, {"lat": "42.2283333", "city": "Koplik i Sip\u00ebrm", "lon": "19.4666667"}, {"lat": "42.2136111", "city": "Koplik", "lon": "19.4363889"}, {"lat": "42.2136111", "city": "Koplik Poster", "lon": "19.4363889"}, {"lat": "42.2283333", "city": "Koplik Sirme", "lon": "19.4666667"}, {"lat": "42.2136111", "city": "Kopliku-e Posht\u00ebm", "lon": "19.4363889"}, {"lat": "42.2", "city": "Kopliku i Mes\u00ebm", "lon": "19.4333333"}, {"lat": "42.2136111", "city": "Kopliku i Posht\u00ebm", "lon": "19.4363889"}, {"lat": "42.2283333", "city": "Kopliku i Sip\u00ebrm\u00eb", "lon": "19.4666667"}, {"lat": "42.2283333", "city": "Kopliku i Siperm", "lon": "19.4666667"}, {"lat": "42.2136111", "city": "Kopliku", "lon": "19.4363889"}, {"lat": "41.9622222", "city": "Korfpul", "lon": "19.8102778"}, {"lat": "41.9541667", "city": "Korthpula Kafta", "lon": "19.7719444"}, {"lat": "41.9622222", "city": "Korthpula", "lon": "19.8102778"}, {"lat": "41.9541667", "city": "Korthpul\u00eb-Kaftal", "lon": "19.7719444"}, {"lat": "41.9541667", "city": "Korthpule-Kaftall", "lon": "19.7719444"}, {"lat": "41.9622222", "city": "Korthpul\u00eb", "lon": "19.8102778"}, {"lat": "41.9938889", "city": "Kosma\u00e7i", "lon": "19.5558333"}, {"lat": "41.9938889", "city": "Kosma\u00e7", "lon": "19.5558333"}, {"lat": "42.4588889", "city": "Kosnie", "lon": "19.6069444"}, {"lat": "42.0466667", "city": "Kotaj", "lon": "19.5616667"}, {"lat": "41.9591667", "city": "Kova\u00e7i", "lon": "19.6366667"}, {"lat": "41.9591667", "city": "(( Kova\u00e7 ))", "lon": "19.6366667"}, {"lat": "42.4588889", "city": "Kozhe", "lon": "19.6069444"}, {"lat": "42.4433333", "city": "Kozhnja e Sip\u00ebrme", "lon": "19.6302778"}, {"lat": "42.4588889", "city": "Kozhnja", "lon": "19.6069444"}, {"lat": "42.4433333", "city": "Kozhnje e Sip\u00ebrme", "lon": "19.6302778"}, {"lat": "42.4588889", "city": "Kozhnje", "lon": "19.6069444"}, {"lat": "42.2166667", "city": "Kraj\u00eb", "lon": "19.6841667"}, {"lat": "42.3611111", "city": "(( Kreneshdol ))", "lon": "19.555"}, {"lat": "42.1022222", "city": "Kroi i Madh", "lon": "19.735"}, {"lat": "42.3463889", "city": "Kroi i Ri", "lon": "19.5130556"}, {"lat": "42.1022222", "city": "Krua i Madh", "lon": "19.735"}, {"lat": "42.1022222", "city": "Kru i Madh\u00eb", "lon": "19.735"}, {"lat": "42.1466667", "city": "Kru i Vrak\u00ebs", "lon": "19.5430556"}, {"lat": "42.0938889", "city": "Kryezi", "lon": "20.05"}, {"lat": "42.0938889", "city": "Kryeziu", "lon": "20.05"}, {"lat": "42.0438889", "city": "Ksollat e Fangut", "lon": "19.5480556"}, {"lat": "42.17", "city": "Ktoshi", "lon": "19.4822222"}, {"lat": "42.17", "city": "Ktosh", "lon": "19.4822222"}, {"lat": "42.0397222", "city": "Ku\u00e7i", "lon": "19.5252778"}, {"lat": "42.0397222", "city": "Ku\u00e7", "lon": "19.5252778"}, {"lat": "42.1808333", "city": "Kujmjet", "lon": "19.6197222"}, {"lat": "41.9016667", "city": "Kuk\u00ebl", "lon": "19.5611111"}, {"lat": "41.9463889", "city": "Kuk", "lon": "19.9952778"}, {"lat": "41.9016667", "city": "Kukli", "lon": "19.5611111"}, {"lat": "41.9016667", "city": "Kukl", "lon": "19.5611111"}, {"lat": "42.1452778", "city": "Kulemrija", "lon": "20.1730556"}, {"lat": "42.1380556", "city": "Kullaj", "lon": "19.5263889"}, {"lat": "42.1", "city": "Kullaj Muselimi", "lon": "19.5636111"}, {"lat": "42.1", "city": "Kullaj Muselim", "lon": "19.5636111"}, {"lat": "42.1297222", "city": "Kullat e Boksit", "lon": "19.5541667"}, {"lat": "42.1511111", "city": "Kulla t\u00eb Boksit", "lon": "19.5291667"}, {"lat": "42.1511111", "city": "Kulla t\u00eb Rrashit", "lon": "19.5291667"}, {"lat": "41.9769444", "city": "Kullesh", "lon": "19.5591667"}, {"lat": "41.9769444", "city": "(( Kull\u00ebz\u00eb ))", "lon": "19.5591667"}, {"lat": "41.9769444", "city": "Kull\u00ebzi", "lon": "19.5591667"}, {"lat": "42.1452778", "city": "Kullumbria", "lon": "20.1730556"}, {"lat": "42.1452778", "city": "Kullumbri", "lon": "20.1730556"}, {"lat": "41.9769444", "city": "Kullzh", "lon": "19.5591667"}, {"lat": "41.9769444", "city": "Kullzi", "lon": "19.5591667"}, {"lat": "42.1744444", "city": "Kulmerij\u00eb", "lon": "19.6086111"}, {"lat": "41.9769444", "city": "Kulsi", "lon": "19.5591667"}, {"lat": "42.1452778", "city": "Kulumbrija", "lon": "20.1730556"}, {"lat": "42.1452778", "city": "Kulumria", "lon": "20.1730556"}, {"lat": "42.1452778", "city": "Kulumri", "lon": "20.1730556"}, {"lat": "42.1452778", "city": "Kulumvri\u00eb", "lon": "20.1730556"}, {"lat": "42.1452778", "city": "Kuluri", "lon": "20.1730556"}, {"lat": "41.9769444", "city": "Kulz", "lon": "19.5591667"}, {"lat": "42.1227778", "city": "Kunora", "lon": "19.7066667"}, {"lat": "42.1227778", "city": "Kunor\u00eb", "lon": "19.7066667"}, {"lat": "42.2386111", "city": "Kuq", "lon": "19.5263889"}, {"lat": "42.1897222", "city": "Kurtaj", "lon": "19.5594444"}, {"lat": "42.3166667", "city": "(( Kurtaj ))", "lon": "19.5"}, {"lat": "42.205", "city": "Kurt-Kurtaj", "lon": "19.5680556"}, {"lat": "41.9333333", "city": "Kuzhen i Vog\u00ebl", "lon": "20.0"}, {"lat": "41.9333333", "city": "Kuzhen", "lon": "20.0"}, {"lat": "41.9333333", "city": "Kuzhneni i Vog\u00ebl", "lon": "20.0"}, {"lat": "41.9019444", "city": "Kuzhneni", "lon": "19.9755556"}, {"lat": "41.9019444", "city": "Kuzhnen", "lon": "19.9755556"}, {"lat": "42.0105556", "city": "La\u00e7", "lon": "19.6402778"}, {"lat": "42.0105556", "city": "La\u00e7-Qyrsa\u00e7i", "lon": "19.6402778"}, {"lat": "42.0105556", "city": "La\u00e7-Qyrsa\u00e7", "lon": "19.6402778"}, {"lat": "42.0105556", "city": "La\u00e7-Qysa\u00e7", "lon": "19.6402778"}, {"lat": "42.2605556", "city": "(( Lagej ))", "lon": "19.42"}, {"lat": "41.9183333", "city": "Lagje e Re", "lon": "19.4438889"}, {"lat": "41.9183333", "city": "Lagjja e Re", "lon": "19.4438889"}, {"lat": "42.0616667", "city": "Lajthiza", "lon": "19.8952778"}, {"lat": "42.0616667", "city": "Lajthiz\u00eb", "lon": "19.8952778"}, {"lat": "42.2430556", "city": "Lasaj", "lon": "19.4233333"}, {"lat": "42.2430556", "city": "Lashaj", "lon": "19.4233333"}, {"lat": "42.2430556", "city": "Lashay", "lon": "19.4233333"}, {"lat": "42.3219444", "city": "Lecaj", "lon": "19.7947222"}, {"lat": "42.0936111", "city": "Lehize", "lon": "20.1466667"},