{"AT": {"02": [{"lat": "46.55", "city": "Abriach", "lon": "14.5"}, {"lat": "46.551944", "city": "Abtei", "lon": "14.473333"}, {"lat": "46.65", "city": "Achalm", "lon": "14.933333"}, {"lat": "46.568889", "city": "Achomitz", "lon": "13.608611"}, {"lat": "46.904722", "city": "Ading", "lon": "14.215"}, {"lat": "46.726944", "city": "Afritz", "lon": "13.8075"}, {"lat": "46.55", "city": "Agoritschach", "lon": "13.7"}, {"lat": "46.733333", "city": "Agsdorf", "lon": "14.15"}, {"lat": "46.6975", "city": "Aichach", "lon": "13.606389"}, {"lat": "46.566667", "city": "Aich", "lon": "14.266667"}, {"lat": "46.816667", "city": "Aichberg", "lon": "14.733333"}, {"lat": "46.716667", "city": "Aifersdorf", "lon": "13.633333"}, {"lat": "46.676944", "city": "Aigen", "lon": "12.920556"}, {"lat": "46.816667", "city": "Albeck", "lon": "14.1"}, {"lat": "46.816667", "city": "Albeck Obere Schattseite", "lon": "14.1"}, {"lat": "46.816667", "city": "Albeck Untere Schattseite", "lon": "14.116667"}, {"lat": "46.677778", "city": "Albern", "lon": "14.155833"}, {"lat": "46.6", "city": "Albersdorf", "lon": "14.116667"}, {"lat": "46.716667", "city": "Allersdorf", "lon": "14.866667"}, {"lat": "47.014444", "city": "Alpl", "lon": "14.438611"}, {"lat": "46.55", "city": "Altendorf", "lon": "14.633333"}, {"lat": "46.7", "city": "Altenmarkt", "lon": "14.716667"}, {"lat": "46.866667", "city": "Alter Markt", "lon": "14.483333"}, {"lat": "46.860278", "city": "Altersberg", "lon": "13.491667"}, {"lat": "46.545833", "city": "Altfinkenstein", "lon": "13.905833"}, {"lat": "46.753889", "city": "Altglandorf", "lon": "14.381667"}, {"lat": "46.75", "city": "Althaus Alpe", "lon": "13.383333"}, {"lat": "46.75", "city": "Althaus", "lon": "13.383333"}, {"lat": "46.616667", "city": "Althofen", "lon": "14.5"}, {"lat": "46.866667", "city": "Althofen Unterer Markt", "lon": "14.483333"}, {"lat": "46.683333", "city": "Altossiach", "lon": "14"}, {"lat": "46.481389", "city": "Alt-Sankt Michael", "lon": "14.153889"}, {"lat": "46.7", "city": "Amberg", "lon": "13.75"}, {"lat": "46.662778", "city": "Ameisbichl", "lon": "14.216667"}, {"lat": "46.733889", "city": "Amlach", "lon": "13.155556"}, {"lat": "46.716667", "city": "Andersdorf", "lon": "14.916667"}, {"lat": "46.566667", "city": "Angern", "lon": "14.316667"}, {"lat": "46.65", "city": "Annabichl", "lon": "14.316667"}, {"lat": "46.65", "city": "Annenheim", "lon": "13.9"}, {"lat": "47.016667", "city": "Apriach", "lon": "12.883333"}, {"lat": "46.666667", "city": "Arlsdorf", "lon": "14.616667"}, {"lat": "46.65", "city": "Arndorf", "lon": "14.083333"}, {"lat": "46.546111", "city": "Arnoldstein", "lon": "13.71"}, {"lat": "46.731944", "city": "Arriach", "lon": "13.851944"}, {"lat": "46.7075", "city": "Assing", "lon": "12.830278"}, {"lat": "46.683333", "city": "Attendorf", "lon": "14.633333"}, {"lat": "47", "city": "Atzensberg", "lon": "13.633333"}, {"lat": "46.616667", "city": "Auen", "lon": "14.083333"}, {"lat": "46.6", "city": "Augsdorf", "lon": "14.066667"}, {"lat": "46.484722", "city": "Aunig", "lon": "14.188056"}, {"lat": "46.6925", "city": "Aussere Einode", "lon": "13.824167"}, {"lat": "46.833333", "city": "Aussere Wimitz", "lon": "14.316667"}, {"lat": "46.938056", "city": "Ausserfragant", "lon": "13.109722"}, {"lat": "46.75", "city": "Ausserteuchen", "lon": "13.966667"}, {"lat": "46.833333", "city": "Ausserwimitz", "lon": "14.316667"}, {"lat": "46.9", "city": "Bach Zweinitz", "lon": "14.216667"}, {"lat": "46.486389", "city": "Bad Eisenkappel", "lon": "14.596111"}, {"lat": "46.923889", "city": "Baderbauer", "lon": "14.619167"}, {"lat": "46.822778", "city": "Bad Kleinkirchheim", "lon": "13.792222"}, {"lat": "46.962778", "city": "Bad Sankt Leonhard", "lon": "14.791667"}, {"lat": "46.962778", "city": "Bad Sankt Leonhard im Lavanttal", "lon": "14.791667"}, {"lat": "46.962778", "city": "Bad Sankt Leonhard im Lavanttale", "lon": "14.791667"}, {"lat": "46.433333", "city": "Bad Vellach", "lon": "14.566667"}, {"lat": "46.866667", "city": "Bad Weissenbach", "lon": "14.766667"}, {"lat": "46.95", "city": "Bairberg", "lon": "14.5"}, {"lat": "46.783333", "city": "Baldersdorf", "lon": "13.55"}, {"lat": "46.801111", "city": "Baldramsdorf", "lon": "13.453333"}, {"lat": "46.665", "city": "Barendorf", "lon": "14.134444"}, {"lat": "46.466667", "city": "Barental", "lon": "14.15"}, {"lat": "46.466667", "city": "Barenthal", "lon": "14.15"}, {"lat": "46.783333", "city": "Barnbad", "lon": "13.35"}, {"lat": "46.665", "city": "Barndorf", "lon": "14.134444"}, {"lat": "46.926111", "city": "Bauer", "lon": "13.932778"}, {"lat": "46.756111", "city": "Beissendorf", "lon": "14.316944"}, {"lat": "46.433333", "city": "Bela", "lon": "14.566667"}, {"lat": "46.8", "city": "Benesirnitz", "lon": "14.033333"}, {"lat": "46.572222", "city": "Berg", "lon": "14.006389"}, {"lat": "46.850556", "city": "Bergwerksgraben", "lon": "14.375278"}, {"lat": "46.797222", "city": "Bernaich", "lon": "14.422222"}, {"lat": "46.753889", "city": "Biedermann", "lon": "13.910278"}, {"lat": "46.731944", "city": "Bierbaumer", "lon": "14.756111"}, {"lat": "46.684722", "city": "Birnbaum bei Kottschach", "lon": "12.888611"}, {"lat": "46.684722", "city": "Birnbaum", "lon": "12.888611"}, {"lat": "47.266667", "city": "Bischoffeld", "lon": "14.7"}, {"lat": "46.866667", "city": "Bischofsberg", "lon": "14.083333"}, {"lat": "46.740278", "city": "Bistumer", "lon": "13.7"}, {"lat": "46.641667", "city": "Blasendorf", "lon": "14.361667"}, {"lat": "46.6275", "city": "Bleiberg", "lon": "13.688889"}, {"lat": "46.488889", "city": "Bleiberger Graben", "lon": "14.214722"}, {"lat": "46.631944", "city": "Bleiberg-Kreuth", "lon": "13.635833"}, {"lat": "46.624444", "city": "Bleiberg-Notsch", "lon": "13.646944"}, {"lat": "46.6275", "city": "Bleiberg ober Villach", "lon": "13.688889"}, {"lat": "46.6275", "city": "Bleiberg ob Villach", "lon": "13.688889"}, {"lat": "46.59", "city": "Bleiburg", "lon": "14.798889"}, {"lat": "46.59", "city": "Blelburg", "lon": "14.798889"}, {"lat": "46.680278", "city": "Boden", "lon": "13.497778"}, {"lat": "46.691111", "city": "Bodensdorf", "lon": "13.971111"}, {"lat": "46.478611", "city": "Bodental", "lon": "14.228611"}, {"lat": "46.583333", "city": "Bogenfeld", "lon": "13.933333"}, {"lat": "46.719444", "city": "Bosenort", "lon": "14.587778"}, {"lat": "46.983333", "city": "Brandstatt", "lon": "13.466667"}, {"lat": "46.833333", "city": "Braunsberg", "lon": "14.133333"}, {"lat": "46.8", "city": "Breitenstein", "lon": "14.383333"}, {"lat": "46.861944", "city": "Brenitz", "lon": "14.145556"}, {"lat": "46.632222", "city": "Brenndorf", "lon": "14.625"}, {"lat": "46.866667", "city": "Brennitz", "lon": "14.133333"}, {"lat": "46.7", "city": "Briefelsdorf", "lon": "14.15"}, {"lat": "46.466667", "city": "Brodi", "lon": "14.25"}, {"lat": "46.751667", "city": "Bruckl", "lon": "14.536667"}, {"lat": "46.866667", "city": "Brugga", "lon": "14.433333"}, {"lat": "46.616667", "city": "Brugg", "lon": "13.416667"}, {"lat": "46.738056", "city": "Bruggen", "lon": "13.196111"}, {"lat": "46.696944", "city": "Brugger", "lon": "13.7325"}, {"lat": "46.606389", "city": "Buchalm", "lon": "14.640556"}, {"lat": "46.6", "city": "Buchbrunn", "lon": "14.616667"}, {"lat": "46.606389", "city": "Buchhalm", "lon": "14.640556"}, {"lat": "46.569167", "city": "Buchheim", "lon": "13.993611"}, {"lat": "46.703889", "city": "Buchholz", "lon": "13.855"}, {"lat": "46.7", "city": "Buchscheiden", "lon": "14.083333"}, {"lat": "46.75", "city": "Burgstall", "lon": "14.8"}, {"lat": "46.624722", "city": "Celovec", "lon": "14.305278"}, {"lat": "46.7", "city": "Christofberg", "lon": "14.483333"}, {"lat": "46.816667", "city": "Corzwinkl", "lon": "13.933333"}, {"lat": "46.8025", "city": "Dalling", "lon": "14.176944"}, {"lat": "46.633333", "city": "Damtschach", "lon": "13.966667"}, {"lat": "46.598611", "city": "Deber", "lon": "14.075833"}, {"lat": "46.883333", "city": "Deinsberg", "lon": "14.516667"}, {"lat": "46.666667", "city": "Deinsdorf", "lon": "14.416667"}, {"lat": "46.664722", "city": "Deliach", "lon": "13.081389"}, {"lat": "46.607778", "city": "Dellach", "lon": "13.445833"}, {"lat": "46.7375", "city": "Dellach im Drautal", "lon": "13.078333"}, {"lat": "46.7375", "city": "Dellach im Drautale", "lon": "13.078333"}, {"lat": "46.666667", "city": "Dellach im Gailtale", "lon": "13.083333"}, {"lat": "46.95", "city": "Densdorf", "lon": "13.6"}, {"lat": "46.666667", "city": "Deutschberg", "lon": "13.933333"}, {"lat": "46.85", "city": "Deutschgriffen", "lon": "14.066667"}, {"lat": "46.7", "city": "Deutsch-Grutschen", "lon": "14.816667"}, {"lat": "46.816667", "city": "Dielach", "lon": "14.4"}, {"lat": "46.566667", "city": "Dieschitz", "lon": "14.033333"}, {"lat": "46.716667", "city": "Dietrichstein", "lon": "14.133333"}, {"lat": "46.75", "city": "Diex", "lon": "14.6"}, {"lat": "46.572222", "city": "Dobein", "lon": "14.154167"}, {"lat": "46.583333", "city": "Dobeinitz", "lon": "14.183333"}, {"lat": "46.923056", "city": "Dobersberg", "lon": "14.398056"}, {"lat": "46.7", "city": "Dobra", "lon": "13"}, {"lat": "46.833333", "city": "Dobranberg", "lon": "14.516667"}, {"lat": "46.783333", "city": "Dobriach", "lon": "13.660278"}, {"lat": "46.933333", "city": "Dobritsch", "lon": "14.483333"}, {"lat": "46.638611", "city": "Dolina", "lon": "14.4475"}, {"lat": "46.966667", "city": "Dollach", "lon": "12.9"}, {"lat": "46.972778", "city": "Dollach im Molltale", "lon": "12.894444"}, {"lat": "46.65", "city": "Dolling", "lon": "13.016667"}, {"lat": "46.783333", "city": "Dolnitz", "lon": "14.116667"}, {"lat": "46.95", "city": "Dorfl", "lon": "14.383333"}, {"lat": "46.516667", "city": "Dornach", "lon": "14.25"}, {"lat": "46.934722", "city": "Dornbach", "lon": "13.510278"}, {"lat": "46.766667", "city": "Dornhof", "lon": "14.333333"}, {"lat": "46.977778", "city": "Dosen", "lon": "13.192222"}, {"lat": "46.766667", "city": "Dragelsberg", "lon": "14.033333"}, {"lat": "46.533333", "city": "Dragotschitschach", "lon": "14.083333"}, {"lat": "46.562778", "city": "Draschitz", "lon": "13.638889"}, {"lat": "46.833333", "city": "Drasenberg", "lon": "14.383333"}, {"lat": "46.783333", "city": "Drasendorf", "lon": "14.433333"}, {"lat": "46.635833", "city": "Drasing", "lon": "14.203333"}, {"lat": "46.755556", "city": "Drassnitzdorf", "lon": "13.074444"}, {"lat": "46.765", "city": "Drassnitz", "lon": "13.088056"}, {"lat": "46.583333", "city": "Drau", "lon": "14"}, {"lat": "46.633333", "city": "Drauhofen", "lon": "14.55"}, {"lat": "46.482222", "city": "Drazja vas", "lon": "14.445556"}, {"lat": "46.8", "city": "Dreifaltigkeit", "lon": "14.283333"}, {"lat": "46.566667", "city": "Dreilach", "lon": "14.05"}, {"lat": "46.566667", "city": "Dreulach", "lon": "13.633333"}, {"lat": "46.583333", "city": "Drobollach am Faakersee", "lon": "13.916667"}, {"lat": "46.583333", "city": "Drollollach", "lon": "13.916667"}, {"lat": "46.633333", "city": "Droschitz", "lon": "14.033333"}, {"lat": "46.746111", "city": "Drussnitz", "lon": "13.518889"}, {"lat": "46.583333", "city": "Duel", "lon": "14.016667"}, {"lat": "46.85", "city": "Dulberg", "lon": "14.55"}, {"lat": "46.55", "city": "Dullach", "lon": "14.4"}, {"lat": "46.833333", "city": "Durnfeld", "lon": "14.445556"}, {"lat": "46.666667", "city": "Durrenmoos", "lon": "14.683333"}, {"lat": "46.733333", "city": "Ebenberg", "lon": "13.15"}, {"lat": "46.784722", "city": "Eben", "lon": "13.925"}, {"lat": "46.85", "city": "Ebene Reichenau", "lon": "13.916389"}, {"lat": "46.608056", "city": "Ebenthal", "lon": "14.364167"}, {"lat": "46.656667", "city": "Ebenwald", "lon": "13.677778"}, {"lat": "46.883333", "city": "Eberdorf", "lon": "14.45"}, {"lat": "46.591389", "city": "Eberndorf", "lon": "14.643611"}, {"lat": "46.583333", "city": "Ebersdorf", "lon": "14.783333"}, {"lat": "46.808056", "city": "Eberstein", "lon": "14.56"}, {"lat": "46.777778", "city": "Eder", "lon": "13.875"}, {"lat": "46.581667", "city": "Egg am Faaker See", "lon": "13.9"}, {"lat": "46.581667", "city": "Egg", "lon": "13.9"}, {"lat": "46.75", "city": "Eggen", "lon": "14.233333"}, {"lat": "46.666667", "city": "Ehrenbichl", "lon": "14.266667"}, {"lat": "46.558611", "city": "Ehrensdorf", "lon": "14.276667"}, {"lat": "47.016667", "city": "Eichhorn", "lon": "12.866667"}, {"lat": "46.65", "city": "Eiersdorf", "lon": "14.516667"}, {"lat": "46.974722", "city": "Einfahr", "lon": "13.7625"}, {"lat": "46.716667", "city": "Eisdorf", "lon": "14.883333"}, {"lat": "46.666111", "city": "Eis", "lon": "14.830278"}, {"lat": "46.486389", "city": "Eisenkappel", "lon": "14.596111"}, {"lat": "46.9225", "city": "Eisentratten", "lon": "13.5675"}, {"lat": "46.766667", "city": "Eitweg", "lon": "14.883333"}, {"lat": "46.841111", "city": "Eixendorf", "lon": "14.419444"}, {"lat": "46.716667", "city": "Elbling", "lon": "14.066667"}, {"lat": "46.975556", "city": "Elend", "lon": "14.929722"}, {"lat": "46.766667", "city": "Ellersdorf", "lon": "14.883333"}, {"lat": "46.820556", "city": "Elsenbrunn", "lon": "14.934167"}, {"lat": "46.756667", "city": "Emberg", "lon": "13.152778"}, {"lat": "46.583333", "city": "Emmersdorf", "lon": "14"}, {"lat": "46.883333", "city": "Engelsdorf", "lon": "14.2"}, {"lat": "46.552222", "city": "Enzelsdorf", "lon": "14.545278"}, {"lat": "46.712778", "city": "Eppersdorf", "lon": "14.511111"}, {"lat": "46.631389", "city": "Erlachbach", "lon": "13.616944"}, {"lat": "46.716667", "city": "Erlach", "lon": "14.716667"}, {"lat": "46.95", "city": "Erzberg", "lon": "14.833333"}, {"lat": "46.821389", "city": "Eselsdorf", "lon": "14.785833"}, {"lat": "46.666667", "city": "Ettendorf", "lon": "14.95"}, {"lat": "46.568056", "city": "Faak am See", "lon": "13.909722"}, {"lat": "46.568056", "city": "Faak", "lon": "13.909722"}, {"lat": "46.766667", "city": "Fachau", "lon": "14.3"}, {"lat": "46.616667", "city": "Fahrendorf", "lon": "14"}, {"lat": "46.686111", "city": "Faning", "lon": "14.222222"}, {"lat": "46.633333", "city": "Farchern", "lon": "14.383333"}, {"lat": "46.733333", "city": "Farrach", "lon": "14.9"}, {"lat": "46.6", "city": "Farrendorf", "lon": "14.083333"}, {"lat": "46.816667", "city": "Faschendorf", "lon": "13.416667"}, {"lat": "46.716667", "city": "Fasching", "lon": "14.15"}, {"lat": "46.686667", "city": "Feffernitz", "lon": "13.7025"}, {"lat": "46.533333", "city": "Feibach", "lon": "14.466667"}, {"lat": "46.833333", "city": "Feichtendorf", "lon": "13.45"}, {"lat": "46.6925", "city": "Feistritz an der Drau", "lon": "13.689722"}, {"lat": "46.5775", "city": "Feistritz an der Gail", "lon": "13.606667"}, {"lat": "46.516667", "city": "Feistritz", "lon": "14.166667"}, {"lat": "46.516667", "city": "Feistritz im Rosental", "lon": "14.166667"}, {"lat": "46.516667", "city": "Feistritz im Rosenthale", "lon": "14.166667"}, {"lat": "46.55", "city": "Feistritz ober Bleiburg", "lon": "14.766667"}, {"lat": "46.776389", "city": "Feld am See", "lon": "13.747778"}, {"lat": "46.776389", "city": "Feld", "lon": "13.747778"}, {"lat": "46.716667", "city": "Feldkirchen", "lon": "14.1"}, {"lat": "46.716667", "city": "Feldkirchen in Karnten", "lon": "14.1"}, {"lat": "46.755556", "city": "Fellbach", "lon": "13.331111"}, {"lat": "46.526944", "city": "Ferlach", "lon": "14.301944"}, {"lat": "46.755556", "city": "Ferlinka", "lon": "14.622222"}, {"lat": "46.739722", "city": "Ferndorf", "lon": "13.6375"}, {"lat": "46.633333", "city": "Feschnig", "lon": "14.3"}, {"lat": "46.833333", "city": "Filfing", "lon": "14.55"}, {"lat": "46.565556", "city": "Finkenstein", "lon": "13.865278"}, {"lat": "46.833333", "city": "Finsterdorf", "lon": "14.283333"}, {"lat": "46.933889", "city": "Fischbachl", "lon": "14.979444"}, {"lat": "46.783333", "city": "Fischering", "lon": "14.816667"}, {"lat": "46.750278", "city": "Flaschberg", "lon": "12.937222"}, {"lat": "46.7", "city": "Flatschach", "lon": "14.233333"}, {"lat": "46.938611", "city": "Flattach", "lon": "13.134444"}, {"lat": "46.943333", "city": "Flattnitz", "lon": "14.034167"}, {"lat": "47.033333", "city": "Fleiss", "lon": "12.866667"}, {"lat": "46.837222", "city": "Fobing", "lon": "14.303056"}, {"lat": "46.591389", "city": "Foderlach", "lon": "13.981389"}, {"lat": "46.585278", "city": "Fork", "lon": "13.643889"}, {"lat": "46.632778", "city": "Forolach", "lon": "13.471667"}, {"lat": "46.865833", "city": "Forst", "lon": "14.766667"}, {"lat": "46.743056", "city": "Framrach", "lon": "14.818889"}, {"lat": "46.7", "city": "Fransdorf", "lon": "14.933333"}, {"lat": "46.85", "city": "Frantschach", "lon": "14.866667"}, {"lat": "46.866667", "city": "Frass", "lon": "14.916667"}, {"lat": "46.866667", "city": "Frasswirt", "lon": "14.916667"}, {"lat": "46.814167", "city": "Frauenstein", "lon": "14.294167"}, {"lat": "46.466667", "city": "Freibach", "lon": "14.433333"}, {"lat": "46.715556", "city": "Fresach", "lon": "13.690833"}, {"lat": "46.7", "city": "Freudenberg", "lon": "14.45"}, {"lat": "46.766667", "city": "Freundsam", "lon": "14.233333"}, {"lat": "46.716667", "city": "Friedlach", "lon": "14.2"}, {"lat": "46.955278", "city": "Friesach", "lon": "14.405833"}, {"lat": "46.533333", "city": "Friessnitz", "lon": "14.05"}, {"lat": "46.633333", "city": "Fritzendorf", "lon": "13.4"}, {"lat": "46.694722", "city": "Frohn", "lon": "12.766111"}, {"lat": "46.616667", "city": "Froschendorf", "lon": "14.483333"}, {"lat": "46.556944", "city": "Furnitz", "lon": "13.821111"}, {"lat": "46.583333", "city": "Gablern", "lon": "14.65"}, {"lat": "46.730833", "city": "Gailberg", "lon": "12.966389"}, {"lat": "46.560833", "city": "Gailitz", "lon": "13.704444"}, {"lat": "46.966667", "city": "Gaisberg", "lon": "14.416667"}, {"lat": "46.754444", "city": "Gajach", "lon": "13.291944"}, {"lat": "46.55", "city": "Gallizien", "lon": "14.516667"}, {"lat": "46.816667", "city": "Gaming", "lon": "14.416667"}, {"lat": "46.6925", "city": "Gammersdorf", "lon": "14.413611"}, {"lat": "46.716667", "city": "Gansdorf", "lon": "14.55"}, {"lat": "46.866667", "city": "Gantschach", "lon": "14.066667"}, {"lat": "46.916667", "city": "Gappen", "lon": "13.25"}, {"lat": "46.601667", "city": "Garnitz", "lon": "14.393611"}, {"lat": "46.830556", "city": "Garzern", "lon": "14.465556"}, {"lat": "46.891111", "city": "Gassarest", "lon": "14.247222"}, {"lat": "46.724167", "city": "Gassen", "lon": "13.549167"}, {"lat": "46.716667", "city": "Gatschach", "lon": "13.3"}, {"lat": "46.7", "city": "Gattersdorf", "lon": "14.583333"}, {"lat": "46.683333", "city": "Geiersdorf", "lon": "14.433333"}, {"lat": "46.75", "city": "Gemmersdorf", "lon": "14.916667"}, {"lat": "46.806111", "city": "Gendorf", "lon": "13.440278"}, {"lat": "46.676944", "city": "Gentschach", "lon": "12.965556"}, {"lat": "46.770556", "city": "Gerlamoos", "lon": "13.260833"}, {"lat": "46.533333", "city": "Glainach", "lon": "14.333333"}, {"lat": "46.733333", "city": "Glandorf", "lon": "14.383333"}, {"lat": "46.713611", "city": "Glanegg", "lon": "14.206389"}, {"lat": "46.683333", "city": "Glan", "lon": "14.116667"}, {"lat": "46.683333", "city": "Glanhofen", "lon": "14.083333"}, {"lat": "46.55", "city": "Glantschach", "lon": "14.533333"}, {"lat": "46.766667", "city": "Glanz", "lon": "13.65"}, {"lat": "46.533333", "city": "Gleinach", "lon": "14.333333"}, {"lat": "46.816667", "city": "Glein", "lon": "14.916667"}, {"lat": "46.694444", "city": "Gletschach", "lon": "14.685"}, {"lat": "46.866667", "city": "Glodnitz", "lon": "14.116667"}, {"lat": "46.907222", "city": "Gmund", "lon": "13.529444"}, {"lat": "46.766667", "city": "Gnesau", "lon": "13.966667"}, {"lat": "46.777778", "city": "Gnesau Sonnleiten", "lon": "13.965556"}, {"lat": "46.766667", "city": "Gnoppnitz", "lon": "13.2"}, {"lat": "46.789722", "city": "Gnoppnitz Hintere Hauser", "lon": "13.176111"}, {"lat": "46.633333", "city": "Goderschach", "lon": "13.133333"}, {"lat": "46.571667", "city": "Godersdorf", "lon": "13.851667"}, {"lat": "46.783333", "city": "Goding", "lon": "14.916667"}, {"lat": "46.533333", "city": "Goerschach", "lon": "14.283333"}, {"lat": "46.533333", "city": "Goertschach", "lon": "14.283333"}, {"lat": "46.8", "city": "Goggau", "lon": "14.15"}, {"lat": "46.766667", "city": "Goggerwenig", "lon": "14.4"}, {"lat": "46.666667", "city": "Goldberg", "lon": "13.066667"}, {"lat": "46.55", "city": "Goltschach", "lon": "14.333333"}, {"lat": "46.716667", "city": "Gonitz", "lon": "14.8"}, {"lat": "46.75", "city": "Goppelsberg", "lon": "13.116667"}, {"lat": "46.55", "city": "Goriach", "lon": "14.266667"}, {"lat": "46.55", "city": "Gorintschach", "lon": "14.016667"}, {"lat": "46.546389", "city": "Goritschach", "lon": "13.861944"}, {"lat": "46.6", "city": "Goritschitzen", "lon": "14.25"}, {"lat": "46.966667", "city": "Goritz", "lon": "12.9"}, {"lat": "46.963333", "city": "Gorlitzen", "lon": "14.8075"}, {"lat": "46.533333", "city": "Gortschach", "lon": "14.283333"}, {"lat": "46.816667", "city": "Gorzwinkl", "lon": "13.933333"}, {"lat": "46.85", "city": "Goschelsberg", "lon": "14.116667"}, {"lat": "46.616667", "city": "Gosseling", "lon": "14.283333"}, {"lat": "46.573056", "city": "Gosselsdorf", "lon": "14.635278"}, {"lat": "46.933333", "city": "Gossen", "lon": "14.55"}, {"lat": "46.704722", "city": "Gossering", "lon": "13.218333"}, {"lat": "46.923056", "city": "Gossnitz", "lon": "13.069167"}, {"lat": "46.533333", "city": "Gotschuchen", "lon": "14.4"}, {"lat": "46.65", "city": "Gottesbichl", "lon": "14.366667"}, {"lat": "46.616667", "city": "Gottestal", "lon": "13.933333"}, {"lat": "46.616667", "city": "Gottesthal", "lon": "13.933333"}, {"lat": "46.616667", "city": "Gotzing", "lon": "13.416667"}, {"lat": "46.592778", "city": "Grabelsdorf", "lon": "14.591944"}, {"lat": "46.888611", "city": "Grabenig", "lon": "14.213333"}, {"lat": "46.9", "city": "Grabern", "lon": "14.816667"}, {"lat": "46.666667", "city": "Gradenegg", "lon": "14.166667"}, {"lat": "46.966667", "city": "Grades", "lon": "14.25"}, {"lat": "46.683333", "city": "Gradisch", "lon": "14.116667"}, {"lat": "46.616667", "city": "Graditschach", "lon": "14.916667"}, {"lat": "46.616667", "city": "Gradnitz", "lon": "14.35"}, {"lat": "46.6", "city": "Grafenau", "lon": "13.416667"}, {"lat": "46.75", "city": "Grafenbach", "lon": "14.65"}, {"lat": "46.940833", "city": "Grafenberg", "lon": "13.075556"}, {"lat": "46.65", "city": "Grafendorf", "lon": "13.133333"}, {"lat": "46.6", "city": "Grafenstein", "lon": "14.466667"}, {"lat": "46.7", "city": "Granitztal Weissenegg", "lon": "14.8"}, {"lat": "46.7", "city": "Granitzthal Sankt Paul", "lon": "14.816667"}, {"lat": "46.7", "city": "Granitzthal Weissenegg", "lon": "14.8"}, {"lat": "46.783333", "city": "Grassendorf", "lon": "14.25"}, {"lat": "46.661944", "city": "Gratendorf", "lon": "13.115278"}, {"lat": "46.633333", "city": "Gratschach", "lon": "13.9"}, {"lat": "46.822222", "city": "Gray", "lon": "14.294444"}, {"lat": "46.755833", "city": "Greifenburg", "lon": "13.177778"}, {"lat": "46.516667", "city": "Greuth", "lon": "14.1"}, {"lat": "46.863889", "city": "Grieng", "lon": "14.751389"}, {"lat": "46.75", "city": "Gries", "lon": "13.166667"}, {"lat": "46.704444", "city": "Griffen", "lon": "14.732778"}, {"lat": "46.816944", "city": "Grillenberg", "lon": "14.053889"}, {"lat": "46.730278", "city": "Grilzberg", "lon": "13.991389"}, {"lat": "46.730278", "city": "Grilzgraben", "lon": "13.991389"}, {"lat": "46.643333", "city": "Griminitzen", "lon": "13.115"}, {"lat": "46.916667", "city": "Grischnig", "lon": "13.066667"}, {"lat": "46.633333", "city": "Gritschach", "lon": "13.85"}, {"lat": "46.716667", "city": "Groblach", "lon": "14.416667"}, {"lat": "46.98", "city": "Grossbergner", "lon": "14.183056"}, {"lat": "46.965556", "city": "Grossbrunner", "lon": "14.951111"}, {"lat": "46.683333", "city": "Grossbuch", "lon": "14.233333"}, {"lat": "46.8", "city": "Grossedling", "lon": "14.85"}, {"lat": "46.783333", "city": "Grossegg", "lon": "13.583333"}, {"lat": "46.716667", "city": "Grossenegg", "lon": "14.683333"}, {"lat": "46.9", "city": "Grosshattenberg", "lon": "13.533333"}, {"lat": "46.6", "city": "Grosssattel", "lon": "13.916667"}, {"lat": "46.633333", "city": "Grossvassach", "lon": "13.85"}, {"lat": "46.85", "city": "Grunburg", "lon": "14.566667"}, {"lat": "46.831111", "city": "Gruska", "lon": "14.255"}, {"lat": "46.813056", "city": "Gschiess", "lon": "13.420556"}, {"lat": "46.755", "city": "Gschriet", "lon": "13.680556"}, {"lat": "46.633333", "city": "Guggenberg", "lon": "13.3"}, {"lat": "46.9325", "city": "Gulitzen", "lon": "14.441111"}, {"lat": "46.9575", "city": "Gully Felfernig", "lon": "14.111667"}, {"lat": "46.6", "city": "Gumisch", "lon": "14.5"}, {"lat": "46.656667", "city": "Gummern", "lon": "13.78"}, {"lat": "46.655556", "city": "Gundersdorf", "lon": "14.385833"}, {"lat": "46.65", "city": "Gundersheim", "lon": "13.116667"}, {"lat": "46.716667", "city": "Gundisch", "lon": "14.966667"}, {"lat": "46.55", "city": "Guntschach", "lon": "14.35"}, {"lat": "46.866667", "city": "Gunzenberg", "lon": "14.366667"}, {"lat": "46.516667", "city": "Gupf", "lon": "14.383333"}, {"lat": "46.766667", "city": "Gurk", "lon": "14"}, {"lat": "46.6", "city": "Gurnitz", "lon": "14.383333"}, {"lat": "46.633333", "city": "Gurtschitschach", "lon": "14.666667"}, {"lat": "46.888056", "city": "Gussnigberg", "lon": "13.007222"}, {"lat": "46.631389", "city": "Gutendorf", "lon": "14.381111"}, {"lat": "46.785833", "city": "Gutschen", "lon": "14.541667"}, {"lat": "46.916667", "city": "Guttaringberg", "lon": "14.483333"}, {"lat": "46.883333", "city": "Guttaring", "lon": "14.5"}, {"lat": "46.631389", "city": "Guttendorf", "lon": "14.381111"}, {"lat": "47.006944", "city": "Gwerz", "lon": "14.285"}, {"lat": "46.7", "city": "Haberberg", "lon": "14.766667"}, {"lat": "46.65", "city": "Hadanig", "lon": "14.066667"}, {"lat": "46.616667", "city": "Hadersdorf", "lon": "13.55"}, {"lat": "46.639722", "city": "Haidach", "lon": "14.428611"}, {"lat": "46.8", "city": "Haidenbach", "lon": "13.9"}, {"lat": "46.833333", "city": "Haidkirchen", "lon": "14.45"}, {"lat": "46.553333", "city": "Haimach", "lon": "14.324167"}, {"lat": "46.716667", "city": "Haimburgerberg", "lon": "14.65"}, {"lat": "46.695", "city": "Haimburg", "lon": "14.6725"}, {"lat": "46.75", "city": "Hainsdorf", "lon": "14.9"}, {"lat": "46.65", "city": "Hallegg", "lon": "14.233333"}, {"lat": "46.716389", "city": "Hardegg", "lon": "14.257222"}, {"lat": "46.8", "city": "Hartelsberg", "lon": "14.916667"}, {"lat": "46.566667", "city": "Hart", "lon": "13.8"}, {"lat": "46.966667", "city": "Hartmannsdorf", "lon": "14.4"}, {"lat": "46.783333", "city": "Hartneidstein", "lon": "14.9"}, {"lat": "46.9", "city": "Hattelberg", "lon": "13.316667"}, {"lat": "46.833333", "city": "Hattendorf", "lon": "14.8"}, {"lat": "46.713889", "city": "Hausdorf", "lon": "14.515"}, {"lat": "46.744167", "city": "Hauzendorf", "lon": "13.184722"}, {"lat": "46.946667", "city": "Heft", "lon": "14.654167"}, {"lat": "47.033333", "city": "Heiligenblut", "lon": "12.833333"}, {"lat": "46.6125", "city": "Heiligengeist", "lon": "13.747778"}, {"lat": "46.65", "city": "Heiligen Gestade", "lon": "13.95"}, {"lat": "46.6", "city": "Heiligengrab", "lon": "14.8"}, {"lat": "46.65", "city": "Heiligengstad", "lon": "13.95"}, {"lat": "46.65", "city": "Heiligenstad", "lon": "13.95"}, {"lat": "46.65", "city": "Heiliges Gestade", "lon": "13.95"}, {"lat": "46.933333", "city": "Heitzelsberg", "lon": "13.566667"}, {"lat": "46.627222", "city": "Hermagor", "lon": "13.367222"}, {"lat": "46.6", "city": "Hermsberg", "lon": "13.616667"}, {"lat": "46.933333", "city": "Hilpersdorferau", "lon": "13.516667"}, {"lat": "46.948333", "city": "Hilpersdorf", "lon": "13.52"}, {"lat": "46.756667", "city": "Himmelberg", "lon": "14.030556"}, {"lat": "46.9", "city": "Hinterberg", "lon": "14.566667"}, {"lat": "46.716389", "city": "Hinterbuchholz", "lon": "13.835"}, {"lat": "46.961389", "city": "Hintere Asten", "lon": "12.908611"}, {"lat": "46.85", "city": "Hintergumitsch", "lon": "14.866667"}, {"lat": "46.516667", "city": "Hintergupf", "lon": "14.383333"}, {"lat": "46.766667", "city": "Hinterkaidern", "lon": "14.066667"}, {"lat": "46.85", "city": "Hinterkoflach", "lon": "13.866667"}, {"lat": "46.75", "city": "Hinterradlach", "lon": "13.233333"}, {"lat": "46.714167", "city": "Hintersauerwald", "lon": "13.894444"}, {"lat": "46.916667", "city": "Hintertheissenegg", "lon": "14.933333"}, {"lat": "46.75", "city": "Hinter Winkel", "lon": "13.9"}, {"lat": "46.75", "city": "Hinterwinkl", "lon": "13.9"}, {"lat": "46.883333", "city": "Hinterwolch", "lon": "14.85"}, {"lat": "46.904167", "city": "Hirt", "lon": "14.436389"}, {"lat": "46.735", "city": "Hochegg", "lon": "13.56"}, {"lat": "46.781944", "city": "Hochfeistritz", "lon": "14.595556"}, {"lat": "46.75", "city": "Hochosterwitz", "lon": "14.45"}, {"lat": "46.860556", "city": "Hochrindl", "lon": "13.998333"}, {"lat": "46.783333", "city": "Hoch-Sankt Paul", "lon": "14.183333"}, {"lat": "46.651944", "city": "Hochwart", "lon": "13.225833"}, {"lat": "46.593056", "city": "Hodise", "lon": "14.188889"}, {"lat": "46.815278", "city": "Hofern", "lon": "14.013889"}, {"lat": "46.696111", "city": "Hofing", "lon": "14.113333"}, {"lat": "46.566667", "city": "Hoflein", "lon": "14.383333"}, {"lat": "46.666667", "city": "Hofling", "lon": "13.033333"}, {"lat": "46.597778", "city": "Hohe", "lon": "14.143056"}, {"lat": "46.633333", "city": "Hohenbergen", "lon": "14.55"}, {"lat": "46.871111", "city": "Hohenburg Alpe", "lon": "13.444167"}, {"lat": "46.871111", "city": "Hohenburg", "lon": "13.444167"}, {"lat": "46.641389", "city": "Hohenfeld", "lon": "14.202778"}, {"lat": "46.75", "city": "Hohenstein", "lon": "14.3"}, {"lat": "46.558333", "city": "Hohenthurn", "lon": "13.667778"}, {"lat": "46.55", "city": "Hollenburg", "lon": "14.25"}, {"lat": "46.5", "city": "Homolisch", "lon": "14.433333"}, {"lat": "46.5", "city": "Homolitsch", "lon": "14.433333"}, {"lat": "46.633333", "city": "Hortendorf", "lon": "14.4"}, {"lat": "46.566667", "city": "Horzach", "lon": "14.533333"}, {"lat": "46.566667", "city": "Horzach II", "lon": "14.533333"}, {"lat": "46.566667", "city": "Horzach Zwei", "lon": "14.533333"}, {"lat": "46.733333", "city": "Horzendorf", "lon": "14.333333"}, {"lat": "46.85", "city": "Huhnersberg", "lon": "13.45"}, {"lat": "46.633333", "city": "Humtschach", "lon": "14.7"}, {"lat": "46.526944", "city": "Hundsdorf", "lon": "14.195"}, {"lat": "46.941389", "city": "Huttenberg", "lon": "14.55"}, {"lat": "46.621389", "city": "Huttendorf", "lon": "13.688889"}, {"lat": "46.633333", "city": "Illmitzen", "lon": "14.916667"}, {"lat": "46.933333", "city": "Inder Stelzing", "lon": "14.65"}, {"lat": "47", "city": "Ingolsthal", "lon": "14.266667"}, {"lat": "46.716667", "city": "Innere Einode", "lon": "13.816667"}, {"lat": "46.816667", "city": "Innere Wimitz", "lon": "14.233333"}, {"lat": "46.965278", "city": "Innerfragant", "lon": "13.058333"}, {"lat": "46.969444", "city": "Innerkrems", "lon": "13.724444"}, {"lat": "46.891944", "city": "Innernoring", "lon": "13.602222"}, {"lat": "46.726389", "city": "Inner-Teuchen", "lon": "13.918333"}, {"lat": "46.747222", "city": "Innerteuchen", "lon": "13.936667"}, {"lat": "46.816667", "city": "Innerwimitz", "lon": "14.233333"}, {"lat": "46.751667", "city": "Insberg", "lon": "13.600278"}, {"lat": "46.756944", "city": "Irschen", "lon": "13.025278"}, {"lat": "46.663056", "city": "Jadersdorf", "lon": "13.325278"}, {"lat": "46.75", "city": "Jakling", "lon": "14.833333"}, {"lat": "46.9", "city": "Jauernig", "lon": "14.066667"}, {"lat": "46.616667", "city": "Jenig", "lon": "13.25"}, {"lat": "46.540833", "city": "Jerischach", "lon": "14.560833"}, {"lat": "46.607222", "city": "Judendorf", "lon": "13.796944"}, {"lat": "46.607222", "city": "Judendorf-Warmbad", "lon": "13.796944"}, {"lat": "46.473889", "city": "Jug", "lon": "14.395"}, {"lat": "46.633333", "city": "Kadutschen", "lon": "13.733333"}, {"lat": "46.770556", "city": "Kaidern", "lon": "14.070278"}, {"lat": "46.85", "city": "Kaindorf", "lon": "14.167222"}, {"lat": "46.835", "city": "Kalsberg", "lon": "14.088611"}, {"lat": "46.766667", "city": "Kaltenberg", "lon": "14.566667"}, {"lat": "46.616667", "city": "Kaltschach", "lon": "13.95"}, {"lat": "46.738333", "city": "Kamering", "lon": "13.599722"}, {"lat": "46.633333", "city": "Kameritsch", "lon": "13.316667"}, {"lat": "46.883333", "city": "Kamperkogel", "lon": "14.966667"}, {"lat": "46.884444", "city": "Kamp", "lon": "14.921944"}, {"lat": "46.65", "city": "Kanaren", "lon": "14.75"}, {"lat": "46.827222", "city": "Kaning", "lon": "13.709167"}, {"lat": "46.540556", "city": "Kanin", "lon": "14.016667"}, {"lat": "46.6225", "city": "Kantnig", "lon": "13.99"}, {"lat": "46.683333", "city": "Kanzelhohe", "lon": "13.9"}, {"lat": "46.838611", "city": "Kappel am Krappfeld", "lon": "14.486389"}, {"lat": "46.533333", "city": "Kappel an der Drau", "lon": "14.25"}, {"lat": "46.533333", "city": "Kappel", "lon": "14.25"}, {"lat": "46.631389", "city": "Karieritsch", "lon": "13.309167"}, {"lat": "46.833333", "city": "karlsdorf", "lon": "13.466667"}, {"lat": "46.7", "city": "Karnberg", "lon": "14.283333"}, {"lat": "46.685278", "city": "Karnburg", "lon": "14.315"}, {"lat": "47.066667", "city": "Karntnerisch Lassnitz", "lon": "14.2"}, {"lat": "46.855833", "city": "Kasperle", "lon": "14.944444"}, {"lat": "46.733333", "city": "Kaunz", "lon": "14.716667"}, {"lat": "46.67", "city": "Kellerberg", "lon": "13.688611"}, {"lat": "46.766667", "city": "Kerschbaum", "lon": "13.2"}, {"lat": "46.620833", "city": "Kerschdorf", "lon": "13.567778"}, {"lat": "46.593056", "city": "Keutschach am See", "lon": "14.188889"}, {"lat": "46.593056", "city": "Keutschach", "lon": "14.188889"}, {"lat": "46.783333", "city": "Kienberg", "lon": "14.766667"}, {"lat": "46.650278", "city": "Kirchbach im Gailtal", "lon": "13.211389"}, {"lat": "46.650278", "city": "Kirchbach", "lon": "13.211389"}, {"lat": "46.893889", "city": "Kirchberg", "lon": "14.570833"}, {"lat": "46.533333", "city": "Kirchentheur", "lon": "14.266667"}, {"lat": "46.533333", "city": "Kirschentheuer", "lon": "14.266667"}, {"lat": "46.85", "city": "Kitschdorf", "lon": "14.533333"}, {"lat": "46.624722", "city": "Klagenfurt", "lon": "14.305278"}, {"lat": "46.781389", "city": "Klamberg", "lon": "13.755278"}, {"lat": "46.774722", "city": "Kleblach", "lon": "13.333889"}, {"lat": "46.635833", "city": "Kleinbergl", "lon": "13.272222"}, {"lat": "46.633333", "city": "Kleindiex", "lon": "14.733333"}, {"lat": "46.7", "city": "Kleindorfl", "lon": "14.7"}, {"lat": "46.814167", "city": "Kleinedling", "lon": "14.827778"}, {"lat": "46.766667", "city": "Kleinegg", "lon": "13.6"}, {"lat": "46.85", "city": "Kleinglodnitz", "lon": "14.133333"}, {"lat": "46.916667", "city": "Kleinhattenberg", "lon": "13.516667"}, {"lat": "46.822778", "city": "Kleinkirchheim", "lon": "13.792222"}, {"lat": "46.95", "city": "Kleinpreitenegg", "lon": "14.966667"}, {"lat": "46.783333", "city": "Kleinrojach", "lon": "14.816667"}, {"lat": "46.836111", "city": "Klein Sankt Paul", "lon": "14.541389"}, {"lat": "46.7", "city": "Klein Sankt Veit", "lon": "14.166667"}, {"lat": "46.6", "city": "Kleinsattel", "lon": "13.883333"}, {"lat": "46.633333", "city": "Kleinvassach", "lon": "13.85"}, {"lat": "46.633333", "city": "Klein Venedig", "lon": "14.483333"}, {"lat": "46.833333", "city": "Kleinwinklern", "lon": "14.85"}, {"lat": "46.55", "city": "Kleinzapfen", "lon": "14.583333"}, {"lat": "46.95", "city": "Kliening", "lon": "14.766667"}, {"lat": "46.556944", "city": "Klobasnica", "lon": "14.702778"}, {"lat": "46.6", "city": "Klopein am Klopeiner See", "lon": "14.583333"}, {"lat": "46.6", "city": "Klopein", "lon": "14.583333"}, {"lat": "46.726389", "city": "Klosterle", "lon": "13.918333"}, {"lat": "46.934444", "city": "Knappenberg", "lon": "14.572222"}, {"lat": "46.678333", "city": "Knasweg", "lon": "14.143611"}, {"lat": "46.468889", "city": "Kobla", "lon": "14.381944"}, {"lat": "46.566667", "city": "Kocking", "lon": "14.65"}, {"lat": "46.561389", "city": "Koettmannsdorf", "lon": "14.233889"}, {"lat": "46.85", "city": "Koflach", "lon": "13.866667"}, {"lat": "46.790278", "city": "Kogelschwaiger", "lon": "14.665556"}, {"lat": "46.566667", "city": "Kohldorf", "lon": "14.45"}, {"lat": "46.783333", "city": "Kollegg", "lon": "14.783333"}, {"lat": "46.716667", "city": "Kollnitz", "lon": "14.85"}, {"lat": "46.5425", "city": "Kopein", "lon": "13.963056"}, {"lat": "46.483333", "city": "Koprein", "lon": "14.683333"}, {"lat": "46.5", "city": "Koprein Petzen", "lon": "14.7"}, {"lat": "46.483333", "city": "Koprein-Sonnseite", "lon": "14.683333"}, {"lat": "46.483333", "city": "Koprivna", "lon": "14.683333"}, {"lat": "46.683333", "city": "Korb", "lon": "14.566667"}, {"lat": "46.690833", "city": "Kornat", "lon": "12.8925"}, {"lat": "46.543611", "city": "Korpitsch", "lon": "13.807222"}, {"lat": "46.568889", "city": "Kosasmojach", "lon": "14.430833"}, {"lat": "46.982222", "city": "Koschach", "lon": "13.473056"}, {"lat": "46.65", "city": "Kostenberg", "lon": "14.016667"}, {"lat": "46.616667", "city": "Kostendorf", "lon": "13.5"}, {"lat": "46.681667", "city": "Kotschach", "lon": "13.006944"}, {"lat": "46.816667", "city": "Kotschendorf", "lon": "14.166667"}, {"lat": "46.85", "city": "Kotsch", "lon": "14.716667"}, {"lat": "46.788611", "city": "Kottern", "lon": "14.071111"}, {"lat": "46.561389", "city": "Kottmannsdorf", "lon": "14.233889"}, {"lat": "46.666667", "city": "Kottwein", "lon": "13.85"}, {"lat": "46.838056", "city": "Kotzing", "lon": "13.5025"}, {"lat": "46.720833", "city": "Kraa", "lon": "13.804167"}, {"lat": "46.813056", "city": "Kraig", "lon": "14.368611"}, {"lat": "46.533611", "city": "Krainberg", "lon": "13.759167"}, {"lat": "46.533889", "city": "Krainegg", "lon": "13.804722"}, {"lat": "47.016667", "city": "Krangl", "lon": "13.616667"}, {"lat": "46.616667", "city": "Kranzelhofen", "lon": "14.033333"}, {"lat": "46.616667", "city": "Kranzlhofen", "lon": "14.033333"}, {"lat": "46.633333", "city": "Kraschach", "lon": "13.316667"}, {"lat": "46.983333", "city": "Krass", "lon": "12.866667"}, {"lat": "46.633333", "city": "Krassnitz", "lon": "14.766667"}, {"lat": "46.85", "city": "Krasta", "lon": "14.466667"}, {"lat": "46.6", "city": "Kratschach", "lon": "13.9"}, {"lat": "46.957778", "city": "Krauping", "lon": "14.475556"}, {"lat": "46.633333", "city": "Kreggab", "lon": "14.183333"}, {"lat": "46.947222", "city": "Kremsbrucke", "lon": "13.6275"}, {"lat": "46.7", "city": "Kremschitz", "lon": "14.55"}, {"lat": "46.666667", "city": "Krenobitsch", "lon": "14.583333"}, {"lat": "46.616667", "city": "Kreublach", "lon": "13.566667"}, {"lat": "46.726111", "city": "Kreuzberg", "lon": "13.240556"}, {"lat": "46.668056", "city": "Kreuzen", "lon": "13.575"}, {"lat": "46.65", "city": "Kreuzergegend", "lon": "14.533333"}, {"lat": "46.65", "city": "Kreuzer", "lon": "14.533333"}, {"lat": "46.726111", "city": "Kreuzwirt", "lon": "13.240556"}, {"lat": "46.8", "city": "Krieselsdorf", "lon": "13.533333"}, {"lat": "46.670833", "city": "Krips", "lon": "13.804444"}, {"lat": "46.55", "city": "Kristendorf", "lon": "14.65"}, {"lat": "46.690278", "city": "Krobathen", "lon": "14.486389"}, {"lat": "46.65", "city": "Kronhof", "lon": "13.066667"}, {"lat": "46.468889", "city": "Kropivna", "lon": "14.344722"}, {"lat": "46.583333", "city": "Krottendorf", "lon": "14.266667"}, {"lat": "46.633333", "city": "Krumpendorf", "lon": "14.216667"}, {"lat": "46.633333", "city": "Kuhnburg", "lon": "13.416667"}, {"lat": "46.621944", "city": "Kuhnsdorf", "lon": "14.636389"}, {"lat": "46.633333", "city": "Kuhweg", "lon": "13.366667"}, {"lat": "46.533333", "city": "Laak", "lon": "14.366667"}, {"lat": "46.654444", "city": "Laas", "lon": "14.025278"}, {"lat": "46.752778", "city": "Laastadt", "lon": "13.854722"}, {"lat": "46.75", "city": "Labegg", "lon": "14.516667"}, {"lat": "46.604444", "city": "Labientschach", "lon": "13.614722"}, {"lat": "46.833333", "city": "Lading", "lon": "14.75"}, {"lat": "46.9225", "city": "Laggen", "lon": "13.593611"}, {"lat": "46.851111", "city": "Lainach Diesseits", "lon": "12.9375"}, {"lat": "46.851111", "city": "Lainach Jenseits", "lon": "12.9375"}, {"lat": "46.851111", "city": "Lainach", "lon": "12.9375"}, {"lat": "46.583333", "city": "Lak", "lon": "14.3"}, {"lat": "46.566667", "city": "Lambichl", "lon": "14.266667"}, {"lat": "46.666667", "city": "Lambrechtsberg", "lon": "14.966667"}, {"lat": "46.866667", "city": "Lamitz", "lon": "12.983333"}, {"lat": "46.766667", "city": "Lam", "lon": "14.766667"}, {"lat": "46.802778", "city": "Lammersdorf", "lon": "13.609167"}, {"lat": "46.766667", "city": "Lamm", "lon": "14.766667"}, {"lat": "46.866667", "city": "Lamnitz", "lon": "12.983333"}, {"lat": "46.816667", "city": "Lampersberg", "lon": "13.4"}, {"lat": "46.603333", "city": "Lampolach", "lon": "13.473333"}, {"lat": "46.666667", "city": "Lamprechtsberg", "lon": "14.966667"}, {"lat": "46.833333", "city": "Landbrucken", "lon": "14.45"}, {"lat": "46.616667", "city": "Landskron", "lon": "13.883333"}, {"lat": "46.853611", "city": "Langanderle", "lon": "13.636667"}, {"lat": "46.553889", "city": "Langdorf", "lon": "14.055"}, {"lat": "46.733333", "city": "Langegg", "lon": "14.766667"}, {"lat": "46.724722", "city": "Lang", "lon": "13.6625"}, {"lat": "46.909722", "city": "Langwiesen", "lon": "14.2925"}, {"lat": "46.678333", "city": "Lansach", "lon": "13.697222"}, {"lat": "46.678333", "city": "Lansoch", "lon": "13.697222"}, {"lat": "46.65", "city": "Lanzendorf", "lon": "14.45"}, {"lat": "46.7", "city": "Lanz", "lon": "13"}, {"lat": "46.966667", "city": "Lassach Schattseite", "lon": "13.183333"}, {"lat": "46.966667", "city": "Lassach Sonnseite", "lon": "13.183333"}, {"lat": "46.621667", "city": "Lassein", "lon": "14.528056"}, {"lat": "46.866667", "city": "Lassenberg", "lon": "14.133333"}, {"lat": "46.661944", "city": "Lassendorf", "lon": "13.306944"}, {"lat": "47.066667", "city": "Lassnitz", "lon": "14.2"}, {"lat": "46.556111", "city": "Latschach", "lon": "13.928889"}, {"lat": "46.556111", "city": "Latschach ober dem Faakersee", "lon": "13.928889"}, {"lat": "46.880278", "city": "Latzendorf", "lon": "13.015278"}, {"lat": "46.820833", "city": "Laubendorf", "lon": "13.563333"}, {"lat": "46.810833", "city": "Laufenberg", "lon": "13.665278"}, {"lat": "46.770556", "city": "Launsdorf", "lon": "14.451944"}, {"lat": "46.65", "city": "Lavamund", "lon": "14.933333"}, {"lat": "46.766667", "city": "Lawesen", "lon": "14.15"}, {"lat": "46.733333", "city": "Lebmach", "lon": "14.3"}, {"lat": "46.566389", "city": "Ledenitzen", "lon": "13.961389"}, {"lat": "46.666667", "city": "Legerbuch", "lon": "14.9"}, {"lat": "46.65", "city": "Leibsdorf", "lon": "14.466667"}, {"lat": "46.666667", "city": "Leifling", "lon": "13.1"}, {"lat": "46.702778", "city": "Leinig", "lon": "14.078333"}, {"lat": "46.616667", "city": "Leinsdorf", "lon": "14.2"}, {"lat": "46.594167", "city": "Leisbach", "lon": "14.231111"}, {"lat": "46.683333", "city": "Leiten", "lon": "14.05"}, {"lat": "46.9", "city": "Leiwald", "lon": "14.716667"}, {"lat": "46.657778", "city": "Lendorf", "lon": "14.278333"}, {"lat": "46.766944", "city": "Lengholz", "lon": "13.303056"}, {"lat": "46.940556", "city": "Leoben", "lon": "13.608889"}, {"lat": "46.483333", "city": "Lepena", "lon": "14.633333"}, {"lat": "46.483333", "city": "Leppen", "lon": "14.633333"}, {"lat": "46.789722", "city": "Lessnig", "lon": "13.345278"}, {"lat": "46.933333", "city": "Leutschach", "lon": "13.233333"}, {"lat": "46.983333", "city": "Lichtengraben", "lon": "14.783333"}, {"lat": "46.766667", "city": "Lichtenwald", "lon": "14.733333"}, {"lat": "46.614444", "city": "Lichtpold", "lon": "13.996667"}, {"lat": "46.737778", "city": "Liebenfels", "lon": "14.286667"}, {"lat": "46.883333", "city": "Lieding", "lon": "14.316667"}, {"lat": "46.833611", "city": "Liedweg", "lon": "13.536389"}, {"lat": "46.75", "city": "Liemberg", "lon": "14.233333"}, {"lat": "46.733333", "city": "Lierzberg", "lon": "13.766667"}, {"lat": "46.65", "city": "Liesch", "lon": "13.333333"}, {"lat": "46.833333", "city": "Lieserbrucke", "lon": "13.483333"}, {"lat": "46.842778", "city": "Lieserhofen", "lon": "13.471944"}, {"lat": "46.692778", "city": "Liesing", "lon": "12.818611"}, {"lat": "46.7", "city": "Limberg", "lon": "14.75"}, {"lat": "46.616667", "city": "Limmersdorf", "lon": "14.383333"}, {"lat": "46.6", "city": "Linden", "lon": "14.15"}, {"lat": "46.863611", "city": "Linder", "lon": "14.237778"}, {"lat": "46.733333", "city": "Lindhof", "lon": "14.883333"}, {"lat": "46.55", "city": "Lind", "lon": "13.75"}, {"lat": "46.715556", "city": "Lindl", "lon": "14.095"}, {"lat": "46.602222", "city": "Lind ob Velden", "lon": "14.002778"}, {"lat": "46.666667", "city": "Linsenberg", "lon": "14.466667"}, {"lat": "46.815", "city": "Lippbauer", "lon": "14.722778"}, {"lat": "46.648333", "city": "Lippendorf", "lon": "14.72"}, {"lat": "46.633333", "city": "Lippitzbach", "lon": "14.766667"}, {"lat": "46.85", "city": "Litzldorf", "lon": "13.483333"}, {"lat": "46.966667", "city": "Loben", "lon": "14.833333"}, {"lat": "46.865", "city": "Lobersberg", "lon": "12.911111"}, {"lat": "46.483333", "city": "Lobnig", "lon": "14.616667"}, {"lat": "46.483333", "city": "Lobnik", "lon": "14.616667"}, {"lat": "46.56", "city": "Loibach", "lon": "14.810278"}, {"lat": "46.568611", "city": "Loibegg", "lon": "14.668611"}, {"lat": "46.466667", "city": "Loibltal", "lon": "14.25"}, {"lat": "46.466667", "city": "Loiblthal", "lon": "14.25"}, {"lat": "46.921389", "city": "Lollinggraben", "lon": "14.594444"}, {"lat": "46.921389", "city": "Lolling", "lon": "14.594444"}, {"lat": "46.916667", "city": "Lolling Schattseite", "lon": "14.583333"}, {"lat": "46.933333", "city": "Lolling Sonnseite", "lon": "14.583333"}, {"lat": "46.633333", "city": "Lorenzenberg", "lon": "14.983333"}, {"lat": "46.683333", "city": "Loschenthal", "lon": "14.883333"}, {"lat": "46.7", "city": "Lotschenberg", "lon": "13.816667"}, {"lat": "46.7075", "city": "Luggau", "lon": "12.739722"}, {"lat": "46.816667", "city": "Lurnbichl", "lon": "13.483333"}, {"lat": "46.65", "city": "Magdalensberg", "lon": "14.966667"}, {"lat": "46.766667", "city": "Magersdorf", "lon": "14.85"}, {"lat": "46.5425", "city": "Maglern", "lon": "13.665"}, {"lat": "46.6", "city": "Maiernigg", "lon": "14.233333"}, {"lat": "46.8", "city": "Maildorf", "lon": "14.85"}, {"lat": "46.780278", "city": "Maitratten", "lon": "13.937222"}, {"lat": "46.470556", "city": "Male", "lon": "14.335833"}, {"lat": "46.549167", "city": "Mallenitzen", "lon": "13.987778"}, {"lat": "48.833333", "city": "Mallersbach", "lon": "15.8"}, {"lat": "46.55", "city": "Mallestig", "lon": "13.883333"}, {"lat": "46.992778", "city": "Mallnitz", "lon": "13.15"}, {"lat": "46.966667", "city": "Maltaberg", "lon": "13.516667"}, {"lat": "46.706111", "city": "Maltschach", "lon": "14.125"}, {"lat": "46.777222", "city": "Malzbiehl", "lon": "13.584167"}, {"lat": "46.683333", "city": "Mandorf", "lon": "13.016667"}, {"lat": "46.7", "city": "Manessen", "lon": "14"}, {"lat": "46.8", "city": "Mannsberg", "lon": "14.483333"}, {"lat": "46.9", "city": "Mannsdorf", "lon": "14.316667"}, {"lat": "46.532222", "city": "Maria Elend in Rosentale", "lon": "14.085833"}, {"lat": "46.532222", "city": "Maria Elend", "lon": "14.085833"}, {"lat": "46.532222", "city": "Maria-Ellend", "lon": "14.085833"}, {"lat": "46.704722", "city": "Maria Feicht", "lon": "14.215278"}, {"lat": "46.592222", "city": "Maria Gail", "lon": "13.880833"}, {"lat": "46.883333", "city": "Mariahilf", "lon": "14.533333"}, {"lat": "46.7075", "city": "Maria Luggau", "lon": "12.739722"}, {"lat": "46.553889", "city": "Maria Rain", "lon": "14.295556"}, {"lat": "46.733333", "city": "Maria Rojach", "lon": "14.883333"}, {"lat": "46.680833", "city": "Maria Saal", "lon": "14.348611"}, {"lat": "46.616389", "city": "Maria Worth", "lon": "14.163056"}, {"lat": "47.05", "city": "Marx", "lon": "12.816667"}, {"lat": "46.516667", "city": "Matschach", "lon": "14.15"}, {"lat": "46.7025", "city": "Matschenbloch", "lon": "14.926389"}, {"lat": "46.63", "city": "Matschiedl", "lon": "13.541389"}, {"lat": "46.688056", "city": "Mattling", "lon": "12.868333"}, {"lat": "46.8", "city": "Matzelsdorf", "lon": "13.633333"}, {"lat": "46.677222", "city": "Mauchler", "lon": "14.75"}, {"lat": "46.938333", "city": "Mauterndorf", "lon": "14.826389"}, {"lat": "46.716667", "city": "Mauthbrucken", "lon": "14.183333"}, {"lat": "46.669167", "city": "Mauthen", "lon": "13.018056"}, {"lat": "46.941389", "city": "Mauth", "lon": "14.423056"}, {"lat": "46.966667", "city": "Mayerhofen", "lon": "14.366667"}, {"lat": "46.849722", "city": "Mayerhof", "lon": "14.094722"}, {"lat": "46.884167", "city": "Mayerling", "lon": "13.820833"}, {"lat": "46.839722", "city": "Meiselding", "lon": "14.397778"}, {"lat": "46.616667", "city": "Mellach", "lon": "13.416667"}, {"lat": "46.6", "city": "Mellweg", "lon": "13.45"}, {"lat": "46.75", "city": "Messensach", "lon": "14.866667"}, {"lat": "46.980556", "city": "Metnitz", "lon": "14.216667"}, {"lat": "46.712222", "city": "Metschach", "lon": "14.240556"}, {"lat": "46.733333", "city": "Mettersdorf", "lon": "14.833333"}, {"lat": "46.883333", "city": "Mia Hilf", "lon": "14.533333"}, {"lat": "46.683333", "city": "Michaelerberg", "lon": "14.566667"}, {"lat": "46.8", "city": "Michaelsdorf", "lon": "14.883333"}, {"lat": "46.616667", "city": "Micheldorf", "lon": "13.4"}, {"lat": "46.536667", "city": "Miklautzhof", "lon": "14.598056"}, {"lat": "46.536667", "city": "Miklauzhof", "lon": "14.598056"}, {"lat": "46.75", "city": "Milbersdorf", "lon": "14.4"}, {"lat": "46.804167", "city": "Millstatt am See", "lon": "13.580556"}, {"lat": "46.804167", "city": "Millstatt", "lon": "13.580556"}, {"lat": "46.8", "city": "Mirnig", "lon": "14.583333"}, {"lat": "46.624444", "city": "Mitschig", "lon": "13.339167"}, {"lat": "46.966667", "city": "Mitteldorf", "lon": "12.9"}, {"lat": "46.6", "city": "Mittelmoos", "lon": "14.766667"}, {"lat": "46.991667", "city": "Mitten", "lon": "12.895"}, {"lat": "46.633333", "city": "Mittenwald", "lon": "13.766667"}, {"lat": "46.724167", "city": "Mitterberg", "lon": "13.691667"}, {"lat": "46.897778", "city": "Mitterdorf", "lon": "14.272778"}, {"lat": "46.815833", "city": "Mitteregg", "lon": "13.935833"}, {"lat": "47.033333", "city": "Mitterer Fleiss", "lon": "12.866667"}, {"lat": "46.733333", "city": "Mitterpichling", "lon": "14.866667"}, {"lat": "46.698333", "city": "Mittertrixen", "lon": "14.585278"}, {"lat": "46.466667", "city": "Mitterwinkel", "lon": "14.333333"}, {"lat": "46.589722", "city": "Mittewald", "lon": "13.890556"}, {"lat": "46.604722", "city": "Mittlern", "lon": "14.721944"}, {"lat": "46.589722", "city": "Mochling", "lon": "14.518333"}, {"lat": "46.612778", "city": "Moderndorf", "lon": "13.365833"}, {"lat": "46.954722", "city": "Modringer", "lon": "14.155278"}, {"lat": "46.954722", "city": "Modring", "lon": "14.155278"}, {"lat": "46.966667", "city": "Modring-Schattseite", "lon": "14.166667"}, {"lat": "46.95", "city": "Modring-Sonnseite", "lon": "14.15"}, {"lat": "46.9", "city": "Modritsch", "lon": "14.15"}, {"lat": "46.583333", "city": "Mokriach", "lon": "14.6"}, {"lat": "46.85", "city": "Molbling", "lon": "14.433333"}, {"lat": "46.862222", "city": "Molbung", "lon": "14.448056"}, {"lat": "46.836389", "city": "Mollbrucke", "lon": "13.372778"}, {"lat": "46.777222", "city": "Molzbichl", "lon": "13.584167"}, {"lat": "46.6575", "city": "Moosburg in Karnten", "lon": "14.174722"}, {"lat": "46.6575", "city": "Moosburg", "lon": "14.174722"}, {"lat": "46.733333", "city": "Mooswald", "lon": "13.7"}, {"lat": "46.923889", "city": "Mortschach", "lon": "12.917778"}, {"lat": "46.933333", "city": "Moschitz", "lon": "14.35"}, {"lat": "46.888056", "city": "Mosel", "lon": "14.5475"}, {"lat": "46.766667", "city": "Mosern", "lon": "14.866667"}, {"lat": "46.983333", "city": "Moserwinkl", "lon": "14.3"}, {"lat": "46.95", "city": "Mosinz", "lon": "14.6"}, {"lat": "46.95", "city": "Mossinz", "lon": "14.6"}, {"lat": "46.5425", "city": "Muglern", "lon": "13.665"}, {"lat": "46.566667", "city": "Muhlbach", "lon": "14.033333"}, {"lat": "46.737222", "city": "Muhldorf", "lon": "14.860833"}, {"lat": "46.571944", "city": "Muhlgraben", "lon": "14.463056"}, {"lat": "46.55", "city": "Mullern", "lon": "14.566667"}, {"lat": "46.55", "city": "Mullnern", "lon": "14.566667"}, {"lat": "46.9", "city": "Muraniberg", "lon": "14.466667"}, {"lat": "46.739167", "city": "Muraunberg", "lon": "14.358333"}, {"lat": "46.716667", "city": "Nadling", "lon": "14.033333"}, {"lat": "46.566667", "city": "Nadram", "lon": "14.3"}, {"lat": "46.575278", "city": "Nageltschach", "lon": "14.510278"}, {"lat": "46.716667", "city": "Naggl", "lon": "13.333333"}, {"lat": "46.6", "city": "Nampolach", "lon": "13.483333"}, {"lat": "46.893056", "city": "Napplach", "lon": "13.260833"}, {"lat": "46.866667", "city": "Nassing", "lon": "14.183333"}, {"lat": "46.683333", "city": "Nassweg", "lon": "14.15"}, {"lat": "46.65", "city": "Nessendorf", "lon": "14.35"}, {"lat": "46.816667", "city": "Neualbeck", "lon": "14.066667"}, {"lat": "46.633333", "city": "Neudenstein", "lon": "14.583333"}, {"lat": "46.583333", "city": "Neudorf", "lon": "14.283333"}, {"lat": "46.55", "city": "Neuhaus an der Gail", "lon": "13.783333"}, {"lat": "46.55", "city": "Neuhaus", "lon": "13.783333"}, {"lat": "46.721111", "city": "Neusach", "lon": "13.315"}, {"lat": "46.474167", "city": "Neu-Sankt Michael", "lon": "14.155"}, {"lat": "46.551111", "city": "Neusass", "lon": "14.186944"}, {"lat": "46.883056", "city": "Neuschitz", "lon": "13.491111"}, {"lat": "46.616667", "city": "Niederdorf", "lon": "14.4"}, {"lat": "46.683611", "city": "Niedergail", "lon": "12.838333"}, {"lat": "46.683333", "city": "Niederhof", "lon": "14.916667"}, {"lat": "46.75", "city": "Niederosterwitz", "lon": "14.433333"}, {"lat": "46.783333", "city": "Niederwinklern", "lon": "14.133333"}, {"lat": "46.705833", "city": "Nihelsdorf", "lon": "13.646389"}, {"lat": "46.705833", "city": "Nikelsdorf", "lon": "13.646389"}, {"lat": "46.646111", "city": "Nolbling", "lon": "13.086667"}, {"lat": "46.678056", "city": "Nostra", "lon": "12.872222"}, {"lat": "46.624444", "city": "Notsch bei Bleiberg", "lon": "13.646944"}, {"lat": "46.583333", "city": "Notsch", "lon": "13.616667"}, {"lat": "46.683333", "city": "Nussberg", "lon": "14.216667"}, {"lat": "46.766667", "city": "Oberagsdorf", "lon": "14.8"}, {"lat": "46.56", "city": "Oberaichwald", "lon": "13.925833"}, {"lat": "46.792778", "city": "Oberaigen", "lon": "14.813056"}, {"lat": "46.760278", "city": "Oberallach", "lon": "13.345278"}, {"lat": "47", "city": "Oberalpen", "lon": "14.15"}, {"lat": "47", "city": "Oberalpe", "lon": "14.15"}, {"lat": "46.769722", "city": "Oberamlach", "lon": "13.526667"}, {"lat": "46.966667", "city": "Oberauerling", "lon": "14.95"}, {"lat": "46.766667", "city": "Oberberg", "lon": "13.116667"}, {"lat": "46.75", "city": "Oberboden auf der Lasen", "lon": "14.016667"}, {"lat": "46.75", "city": "Oberboden", "lon": "14.016667"}, {"lat": "46.633333", "city": "Oberbuchach", "lon": "13.116667"}, {"lat": "46.9", "city": "Oberbuch", "lon": "13.55"}, {"lat": "46.9825", "city": "Oberburgstallberg", "lon": "13.602778"}, {"lat": "46.621667", "city": "Ober-Dellach", "lon": "14.122778"}, {"lat": "46.633333", "city": "Oberdobernitzen", "lon": "13.166667"}, {"lat": "46.533333", "city": "Oberdorfl", "lon": "14.45"}, {"lat": "46.65", "city": "Oberdorf", "lon": "13.866667"}, {"lat": "46.743056", "city": "Ober-Drauberg", "lon": "12.970278"}, {"lat": "46.743056", "city": "Oberdrauburg", "lon": "12.970278"}, {"lat": "46.766667", "city": "Obere Drassnitz", "lon": "13.083333"}, {"lat": "46.635556", "city": "Obere Fellach", "lon": "13.818611"}, {"lat": "46.839722", "city": "Ober-Eggen", "lon": "14.046667"}, {"lat": "46.9", "city": "Obere Steinwand", "lon": "13.05"}, {"lat": "46.583333", "city": "Oberfederaun", "lon": "13.816667"}, {"lat": "46.635556", "city": "Oberfellach", "lon": "13.818611"}, {"lat": "46.571944", "city": "Oberferlach", "lon": "13.960556"}, {"lat": "46.69", "city": "Oberglan", "lon": "14.118333"}, {"lat": "46.667778", "city": "Obergoriach", "lon": "14.122778"}, {"lat": "46.633333", "city": "Obergoritschitzen", "lon": "14.316667"}, {"lat": "46.866667", "city": "Obergosel", "lon": "14.933333"}, {"lat": "46.932778", "city": "Ober-Gossen", "lon": "14.569167"}, {"lat": "46.803611", "city": "Obergottesfeld", "lon": "13.349167"}, {"lat": "46.916667", "city": "Obergratschach", "lon": "13.233333"}, {"lat": "46.75", "city": "Obergreutschach", "lon": "14.7"}, {"lat": "46.55", "city": "Oberguntschach", "lon": "14.333333"}, {"lat": "46.716667", "city": "Oberhaidach", "lon": "14.233333"}, {"lat": "46.95", "city": "Oberhof", "lon": "14.15"}, {"lat": "46.95", "city": "Oberhof-Schattseite", "lon": "14.15"}, {"lat": "46.966667", "city": "Oberhof-Sonnseite", "lon": "14.116667"}, {"lat": "46.633333", "city": "Oberjeserz", "lon": "14.016667"}, {"lat": "46.887222", "city": "Oberkolbnitz", "lon": "13.321111"}, {"lat": "46.966667", "city": "Oberkremsberg", "lon": "13.633333"}, {"lat": "46.916667", "city": "Oberkreuschlach", "lon": "13.533333"}, {"lat": "46.575", "city": "Oberkreuth", "lon": "14.426944"}, {"lat": "46.916667", "city": "Oberlassach", "lon": "12.916667"}, {"lat": "46.886667", "city": "Oberleidenberg", "lon": "14.7925"}, {"lat": "46.555278", "city": "Oberloibach", "lon": "14.808611"}, {"lat": "46.9575", "city": "Obermalta", "lon": "13.507778"}, {"lat": "46.968056", "city": "Obermentebauer", "lon": "13.408611"}, {"lat": "46.583333", "city": "Obermieger", "lon": "14.433333"}, {"lat": "46.813889", "city": "Obermillstatt", "lon": "13.601944"}, {"lat": "46.65", "city": "Obermitterdorf", "lon": "14.766667"}, {"lat": "46.6", "city": "Obermoos", "lon": "14.766667"}, {"lat": "46.638889", "city": "Obermoschach", "lon": "13.349167"}, {"lat": "46.775556", "city": "Obermuhlbach", "lon": "14.341667"}, {"lat": "46.7", "city": "Oberndorf", "lon": "14.7"}, {"lat": "46.65", "city": "Obernolbling", "lon": "13.083333"}, {"lat": "46.82", "city": "Oberort", "lon": "14.143611"}, {"lat": "46.75", "city": "Oberpichling", "lon": "14.9"}, {"lat": "46.766667", "city": "Oberpirkach", "lon": "12.916667"}, {"lat": "46.933333", "city": "Oberpreitenegg", "lon": "14.966667"}, {"lat": "46.65", "city": "Oberpudlach", "lon": "14.9"}, {"lat": "46.985278", "city": "Oberrieger", "lon": "14.126111"}, {"lat": "46.583333", "city": "Obersammelsdorf", "lon": "14.583333"}, {"lat": "46.569722", "city": "Oberschutt", "lon": "13.758056"}, {"lat": "46.55", "city": "Obertechanting", "lon": "13.85"}, {"lat": "46.533333", "city": "Oberthorl", "lon": "13.65"}, {"lat": "46.566667", "city": "Obertollern", "lon": "14.316667"}, {"lat": "46.7", "city": "Obertrixen", "lon": "14.583333"}, {"lat": "46.816667", "city": "Obertschern", "lon": "13.766667"}, {"lat": "46.8", "city": "Obertweng", "lon": "13.733333"}, {"lat": "46.636667", "city": "Obervellach", "lon": "13.418333"}, {"lat": "46.614167", "city": "Oberwernberg", "lon": "13.945833"}, {"lat": "46.881667", "city": "Oberwietingberg", "lon": "14.566667"}, {"lat": "46.466667", "city": "Oberwinkel", "lon": "14.316667"}, {"lat": "46.65", "city": "Oberwinklern", "lon": "13.983333"}, {"lat": "46.650556", "city": "Oberwollanig", "lon": "13.833889"}, {"lat": "46.733333", "city": "Oberwollan", "lon": "13.833333"}, {"lat": "46.633333", "city": "Oberwuchel", "lon": "14.45"}, {"lat": "46.633333", "city": "Oberwuchl", "lon": "14.45"}, {"lat": "46.688056", "city": "Ochsendorf", "lon": "14.457778"}, {"lat": "46.544722", "city": "Oerthorl", "lon": "13.645833"}, {"lat": "46.733333", "city": "Oetting", "lon": "12.966667"}, {"lat": "46.753611", "city": "Olsach", "lon": "13.583889"}, {"lat": "46.95", "city": "Olsa", "lon": "14.416667"}, {"lat": "46.933333", "city": "Olschnogg", "lon": "14.333333"}, {"lat": "46.493889", "city": "Oreinschnak", "lon": "14.211111"}, {"lat": "46.95", "city": "Ort", "lon": "14.9"}, {"lat": "46.676944", "city": "Oschenitzen", "lon": "14.645556"}, {"lat": "46.666667", "city": "Ossiachberg", "lon": "13.9"}, {"lat": "46.666667", "city": "Ossiach", "lon": "13.983333"}, {"lat": "46.663056", "city": "Ostriach", "lon": "13.979722"}, {"lat": "46.543333", "city": "Otrouza", "lon": "14.320556"}, {"lat": "46.733333", "city": "Otting", "lon": "12.966667"}, {"lat": "46.701111", "city": "Ottmanach", "lon": "14.431111"}, {"lat": "46.533333", "city": "Outschena", "lon": "13.916667"}, {"lat": "46.916667", "city": "Pabenberg", "lon": "14.366667"}, {"lat": "46.476667", "city": "Pagitz", "lon": "14.251111"}, {"lat": "46.75", "city": "Paierdorf", "lon": "14.9"}, {"lat": "46.816667", "city": "Paildorf", "lon": "14.866667"}, {"lat": "46.8", "city": "Passering", "lon": "14.466667"}, {"lat": "46.616667", "city": "Passriach", "lon": "13.45"}, {"lat": "46.4375", "city": "Pasterk", "lon": "14.544444"}, {"lat": "46.716667", "city": "Patendorf", "lon": "13.65"}, {"lat": "46.815833", "city": "Patergassen", "lon": "13.872222"}, {"lat": "46.714167", "city": "Paternion", "lon": "13.636111"}, {"lat": "46.716667", "city": "Pattendorf", "lon": "13.65"}, {"lat": "46.815833", "city": "Pattergassen", "lon": "13.872222"}, {"lat": "46.488333", "city": "Pautz", "lon": "14.243333"}, {"lat": "46.584167", "city": "Penken", "lon": "14.105556"}, {"lat": "46.883333", "city": "Penzelberg", "lon": "12.866667"}, {"lat": "46.623333", "city": "Peratschitzen", "lon": "14.606944"}, {"lat": "46.889722", "city": "Perau", "lon": "13.536667"}, {"lat": "46.666667", "city": "Pernach", "lon": "14.116667"}, {"lat": "46.666667", "city": "Pernegg", "lon": "14.05"}, {"lat": "46.589722", "city": "Pertitschach", "lon": "14.223056"}, {"lat": "46.8", "city": "Pesentheiner", "lon": "13.6"}, {"lat": "46.8", "city": "Pesenthein", "lon": "13.6"}, {"lat": "46.55", "city": "Pessendellach", "lon": "13.65"}, {"lat": "46.583333", "city": "Petschnitzen", "lon": "13.95"}, {"lat": "46.945", "city": "Pfaffenberg", "lon": "13.236944"}, {"lat": "46.6", "city": "Pfaffendorf", "lon": "14.383333"}, {"lat": "46.967778", "city": "Pfannegger", "lon": "14.608056"}, {"lat": "46.816667", "city": "Pfannhof", "lon": "14.383333"}, {"lat": "46.555278", "city": "Pfannsdorf", "lon": "14.636944"}, {"lat": "46.633333", "city": "Pfarrdorf", "lon": "14.95"}, {"lat": "46.728333", "city": "Pflugern", "lon": "14.392222"}, {"lat": "46.733333", "city": "Pichlern", "lon": "14.066667"}, {"lat": "46.933333", "city": "Pirkachberg", "lon": "12.9"}, {"lat": "46.616667", "city": "Pirk an der Drau", "lon": "14.683333"}, {"lat": "46.933333", "city": "Pirkeggen", "lon": "13.616667"}, {"lat": "46.566667", "city": "Pirk", "lon": "14"}, {"lat": "46.683333", "city": "Pischeldorf", "lon": "14.45"}, {"lat": "46.85", "city": "Pisweg", "lon": "14.283333"}, {"lat": "46.666667", "city": "Pitzelstatten", "lon": "14.266667"}, {"lat": "46.956667", "city": "Plaggowitz", "lon": "14.610556"}, {"lat": "46.806944", "city": "Planitz", "lon": "14.188611"}, {"lat": "46.866667", "city": "Plappergassen", "lon": "12.966667"}, {"lat": "46.583333", "city": "Plaschischen", "lon": "14.166667"}, {"lat": "46.476944", "city": "Plasnik", "lon": "14.519167"}, {"lat": "46.583333", "city": "Plescherken", "lon": "14.133333"}, {"lat": "46.949722", "city": "Plessnitz", "lon": "13.604167"}, {"lat": "46.65", "city": "Plestatten", "lon": "14.95"}, {"lat": "46.616667", "city": "Plocken", "lon": "12.95"}, {"lat": "46.480278", "city": "Plosnoutz", "lon": "14.251667"}, {"lat": "46.7", "city": "Pobersach", "lon": "13.683333"}, {"lat": "46.554444", "city": "Pockau", "lon": "13.748333"}, {"lat": "46.883333", "city": "Pockstein", "lon": "14.433333"}, {"lat": "46.478611", "city": "Poden", "lon": "14.228611"}, {"lat": "46.5", "city": "Pod Peco", "lon": "14.7"}, {"lat": "46.65", "city": "Poggersdorf", "lon": "14.45"}, {"lat": "46.55", "city": "Pogoriach", "lon": "13.9"}, {"lat": "46.75", "city": "Poitschach", "lon": "14.1"}, {"lat": "46.6375", "city": "Polland", "lon": "13.521944"}, {"lat": "46.694722", "city": "Pollan", "lon": "13.638333"}, {"lat": "46.833333", "city": "Pollheim", "lon": "14.783333"}, {"lat": "46.680833", "city": "Polling", "lon": "13.856944"}, {"lat": "46.666667", "city": "Ponfeld", "lon": "14.233333"}, {"lat": "46.766667", "city": "Pontnig", "lon": "14.933333"}, {"lat": "46.833333", "city": "Poppenhof", "lon": "14.483333"}, {"lat": "46.664167", "city": "Poppichl", "lon": "14.302222"}, {"lat": "46.698611", "city": "Portschach am Berg", "lon": "14.319444"}, {"lat": "46.636389", "city": "Portschach am Worthersee", "lon": "14.146389"}, {"lat": "46.636389", "city": "Portschach", "lon": "14.146389"}, {"lat": "46.7", "city": "Possau", "lon": "14.383333"}, {"lat": "46.75", "city": "Potschling", "lon": "13.033333"}, {"lat": "46.75", "city": "Powirtschach", "lon": "14.083333"}, {"lat": "46.683333", "city": "Pragrad", "lon": "14.066667"}, {"lat": "46.833333", "city": "Prailing", "lon": "14.583333"}, {"lat": "46.866667", "city": "Praken", "lon": "14.966667"}, {"lat": "46.933333", "city": "Preblau", "lon": "14.8"}, {"lat": "46.926111", "city": "Prebl-Brunnen", "lon": "14.8025"}, {"lat": "46.916667", "city": "Prebl", "lon": "14.8"}, {"lat": "46.816667", "city": "Predl", "lon": "14.266667"}, {"lat": "46.69", "city": "Prefelnig", "lon": "14.055833"}, {"lat": "46.9", "city": "Preims", "lon": "14.75"}, {"lat": "47", "city": "Preining", "lon": "14.183333"}, {"lat": "46.9", "city": "Preisdorf", "lon": "13.283333"}, {"lat": "46.9", "city": "Preissdorf", "lon": "13.283333"}, {"lat": "46.898611", "city": "Preissl", "lon": "13.859722"}, {"lat": "46.94", "city": "Preitenegg", "lon": "14.925833"}, {"lat": "46.85", "city": "Premersdorf", "lon": "13.383333"}, {"lat": "46.623333", "city": "Pribelsdorf", "lon": "14.682222"}, {"lat": "46.626667", "city": "Pritschitz", "lon": "14.185278"}, {"lat": "46.561667", "city": "Probein", "lon": "14.599444"}, {"lat": "46.561667", "city": "Proboj", "lon": "14.599444"}, {"lat": "46.716667", "city": "Projern", "lon": "14.316667"}, {"lat": "46.6", "city": "Prossowitsch", "lon": "13.883333"}, {"lat": "46.816667", "city": "Psein", "lon": "14.216667"}, {"lat": "46.816667", "city": "Psien", "lon": "14.216667"}, {"lat": "46.651111", "city": "Pubersdorf", "lon": "14.429167"}, {"lat": "46.666667", "city": "Puch", "lon": "13.760556"}, {"lat": "46.9", "city": "Puchreit", "lon": "13.533333"}, {"lat": "46.570556", "city": "Pulpitsch", "lon": "14.022778"}, {"lat": "46.75", "city": "Pulst", "lon": "14.283333"}, {"lat": "46.966667", "city": "Purbach", "lon": "13.616667"}, {"lat": "46.833333", "city": "Pusarnitz", "lon": "13.4"}, {"lat": "46.9", "city": "Pusstratten", "lon": "13.033333"}, {"lat": "46.75", "city": "Pustritz", "lon": "14.75"}, {"lat": "46.991944", "city": "Putschall", "lon": "12.870833"}, {"lat": "46.863611", "city": "Rabachboden", "lon": "14.503056"}, {"lat": "46.766667", "city": "Rabant Berghauser", "lon": "12.95"}, {"lat": "46.516667", "city": "Rabenberg", "lon": "14.216667"}, {"lat": "46.716667", "city": "Rabensdorf", "lon": "14.083333"}, {"lat": "46.616667", "city": "Rabenstein", "lon": "14.983333"}, {"lat": "46.883333", "city": "Rabing", "lon": "14.416667"}, {"lat": "46.983333", "city": "Rabisch", "lon": "13.183333"}, {"lat": "46.533333", "city": "Radendorf", "lon": "13.783333"}, {"lat": "46.800556", "city": "Radenthein", "lon": "13.711667"}, {"lat": "46.644444", "city": "Radnig", "lon": "13.363889"}, {"lat": "46.683333", "city": "Radweg", "lon": "14.133333"}, {"lat": "46.883333", "city": "Raffelsdorf", "lon": "14.55"}, {"lat": "46.636944", "city": "Ragain", "lon": "13.949444"}, {"lat": "46.716667", "city": "Raggane", "lon": "14.883333"}, {"lat": "46.742222", "city": "Ragglach", "lon": "14.905"}, {"lat": "46.742222", "city": "Raglach", "lon": "14.905"}, {"lat": "46.533333", "city": "Rain", "lon": "14.583333"}, {"lat": "46.6", "city": "Rajach", "lon": "14"}, {"lat": "46.633333", "city": "Rakollach", "lon": "14.566667"}, {"lat": "46.9", "city": "Rakowitzen", "lon": "13.066667"}, {"lat": "46.683333", "city": "Rammersdorf", "lon": "14.583333"}, {"lat": "46.966667", "city": "Ranach", "lon": "12.883333"}, {"lat": "46.865278", "city": "Rangersdorf", "lon": "12.978333"}, {"lat": "46.866667", "city": "Ranitz", "lon": "14.283333"}, {"lat": "46.85", "city": "Rappersdorf", "lon": "13.366667"}, {"lat": "46.678056", "city": "Rappitsch", "lon": "13.996111"}, {"lat": "46.730833", "city": "Rassing", "lon": "13.076944"}, {"lat": "46.85", "city": "Rastenfeld", "lon": "14.383333"}, {"lat": "46.633333", "city": "Ratschitschach", "lon": "14.683333"}, {"lat": "46.621111", "city": "Rattendorf", "lon": "13.251944"}, {"lat": "46.666667", "city": "Ratzendorf", "lon": "14.333333"}, {"lat": "46.65", "city": "Ratzenegg", "lon": "14.183333"}, {"lat": "46.983333", "city": "Rauchenkatsch", "lon": "13.633333"}, {"lat": "46.666667", "city": "Raunach", "lon": "14.483333"}, {"lat": "46.716667", "city": "Rausch", "lon": "14.733333"}, {"lat": "46.516667", "city": "Rauth", "lon": "14.35"}, {"lat": "46.7", "city": "Raut", "lon": "12.733333"}, {"lat": "46.466667", "city": "Ravna", "lon": "14.366667"}, {"lat": "46.583333", "city": "Reautz", "lon": "14.233333"}, {"lat": "46.76", "city": "Rebernig", "lon": "14.680556"}, {"lat": "46.816667", "city": "Reding", "lon": "14.85"}, {"lat": "46.85", "city": "Reichenau", "lon": "13.916389"}, {"lat": "47", "city": "Reichenfels", "lon": "14.75"}, {"lat": "46.866667", "city": "Reichenhaus", "lon": "14.266667"}, {"lat": "46.6", "city": "Reichersdorf", "lon": "14.366667"}, {"lat": "46.816667", "city": "Reich", "lon": "13.516667"}, {"lat": "46.8", "city": "Reideben", "lon": "14.883333"}, {"lat": "46.607222", "city": "Reifnitz", "lon": "14.181667"}, {"lat": "46.65", "city": "Reigersdorf", "lon": "14.4"}, {"lat": "46.816667", "city": "Reinfelsdorf", "lon": "14.816667"}, {"lat": "46.866667", "city": "Reinsberg", "lon": "14.166667"}, {"lat": "46.864722", "city": "Reintal", "lon": "12.880278"}, {"lat": "46.864722", "city": "Reinthal", "lon": "12.880278"}, {"lat": "46.763611", "city": "Reipersdorf", "lon": "14.421667"}, {"lat": "46.654722", "city": "Reisach", "lon": "13.153611"}, {"lat": "46.8", "city": "Reisberg", "lon": "14.75"}, {"lat": "46.716667", "city": "Reisdorf", "lon": "14.533333"}, {"lat": "46.783333", "city": "Rennweg", "lon": "14.126944"}, {"lat": "46.533333", "city": "Ressnig", "lon": "14.283333"}, {"lat": "46.9", "city": "Rettenbach", "lon": "12.886389"}, {"lat": "46.816667", "city": "Rieding", "lon": "14.9"}, {"lat": "46.707778", "city": "Ried", "lon": "13.595278"}, {"lat": "46.792222", "city": "Riegelsdorf", "lon": "14.882222"}, {"lat": "46.547222", "city": "Riegersdorf", "lon": "13.822778"}, {"lat": "46.751111", "city": "Rittersdorf", "lon": "13.034444"}, {"lat": "46.55", "city": "Robesch", "lon": "14.483333"}, {"lat": "46.6", "city": "Roda", "lon": "14.116667"}, {"lat": "46.733333", "city": "Rojach", "lon": "14.883333"}, {"lat": "46.716667", "city": "Ronsdorf", "lon": "14.283333"}, {"lat": "46.583333", "city": "Rosegg", "lon": "14.033333"}, {"lat": "46.683333", "city": "Rosenau", "lon": "14.183333"}, {"lat": "46.533333", "city": "Rosenbach", "lon": "14.033333"}, {"lat": "46.757222", "city": "Rosenberg", "lon": "12.967778"}, {"lat": "46.918889", "city": "Rossbacher", "lon": "13.634167"}, {"lat": "47.016667", "city": "Rossbach", "lon": "14.25"}, {"lat": "46.649444", "city": "Rosshutte", "lon": "15.027222"}, {"lat": "46.764444", "city": "Rothenthurn", "lon": "13.601389"}, {"lat": "46.731389", "city": "Rottendorf", "lon": "14.169444"}, {"lat": "46.566667", "city": "Rottenstein", "lon": "14.416667"}, {"lat": "46.661111", "city": "Rubland", "lon": "13.658611"}, {"lat": "46.566667", "city": "Ruckersdorf", "lon": "14.566667"}, {"lat": "46.658333", "city": "Ruden", "lon": "14.776389"}, {"lat": "46.65", "city": "Ruhstatt", "lon": "14.583333"}, {"lat": "46.575", "city": "Rut", "lon": "14.426944"}, {"lat": "46.54", "city": "Ruttach", "lon": "14.75"}, {"lat": "46.533333", "city": "Saagerberg", "lon": "14.65"}, {"lat": "46.566667", "city": "Saager", "lon": "14.466667"}, {"lat": "46.626667", "city": "Saag", "lon": "14.091944"}, {"lat": "46.594444", "city": "Saak", "lon": "13.623889"}, {"lat": "46.566667", "city": "Saberda", "lon": "14.35"}, {"lat": "46.533333", "city": "Sabosach", "lon": "14.4"}, {"lat": "46.583611", "city": "Sabuatach", "lon": "14.468333"}, {"lat": "46.829167", "city": "Sachsenburg", "lon": "13.355"}, {"lat": "46.833333", "city": "Sachsenweg", "lon": "13.35"}, {"lat": "46.860833", "city": "Sadin", "lon": "14.185278"}, {"lat": "46.933333", "city": "Sagas", "lon": "13.05"}, {"lat": "46.533333", "city": "Sagerberg", "lon": "14.65"}, {"lat": "46.965833", "city": "Sagritz", "lon": "12.91"}, {"lat": "46.683333", "city": "Salchendorf", "lon": "14.516667"}, {"lat": "46.7", "city": "Sallach", "lon": "14.033333"}, {"lat": "46.615278", "city": "Sand", "lon": "13.9725"}, {"lat": "46.666667", "city": "Sankt Agnes", "lon": "14.65"}, {"lat": "46.766111", "city": "Sankt Andrae Im Lavanttal", "lon": "14.823611"}, {"lat": "46.766111", "city": "Sankt Andra Lavanttal", "lon": "14.823611"}, {"lat": "46.766111", "city": "Sankt Andra", "lon": "14.823611"}, {"lat": "46.65", "city": "Sankt Bartlma", "lon": "14.1"}, {"lat": "46.666667", "city": "Sankt Daniel", "lon": "13.066667"}, {"lat": "46.737222", "city": "Sankt Donat", "lon": "14.395"}, {"lat": "46.577222", "city": "Sankt Egiden", "lon": "14.061667"}, {"lat": "46.577222", "city": "Sankt Egyden", "lon": "14.061667"}, {"lat": "46.7", "city": "Sankt Filippen bei Reinegg", "lon": "14.5"}, {"lat": "46.7", "city": "Sankt Filippen", "lon": "14.5"}, {"lat": "46.8", "city": "Sankt Florian", "lon": "14.516667"}, {"lat": "46.55", "city": "Sankt Gandolf", "lon": "14.233333"}, {"lat": "46.783333", "city": "Sankt Georgen am Langsee", "lon": "14.433333"}, {"lat": "46.65", "city": "Sankt Georgen am Sandhof", "lon": "14.316667"}, {"lat": "46.683333", "city": "Sankt Georgen am Weinberge", "lon": "14.55"}, {"lat": "46.6", "city": "Sankt Georgen im Gailtale", "lon": "13.583333"}, {"lat": "46.6", "city": "Sankt Georgen im Gailtal", "lon": "13.583333"}, {"lat": "46.55", "city": "Sankt Georgen", "lon": "14.816667"}, {"lat": "46.65", "city": "Sankt-Georgen", "lon": "14.316667"}, {"lat": "46.683333", "city": "Sankt Georgen", "lon": "14.55"}, {"lat": "46.6", "city": "Sankt Georgen vor dem Bleiberge", "lon": "13.583333"}, {"lat": "46.866667", "city": "Sankt Gertraud", "lon": "14.866667"}, {"lat": "46.716667", "city": "Sankt Gregorn", "lon": "14.516667"}, {"lat": "46.616667", "city": "Sankt Jakob an der Strasse", "lon": "14.366667"}, {"lat": "46.733333", "city": "Sankt Jakob bei Framrach", "lon": "14.833333"}, {"lat": "46.733333", "city": "Sankt Jakob bei Winkling", "lon": "14.816667"}, {"lat": "46.6875", "city": "Sankt Jakob im Lesachtal", "lon": "12.938889"}, {"lat": "46.6875", "city": "Sankt Jakob im Lesachthale", "lon": "12.938889"}, {"lat": "46.547778", "city": "Sankt Jakob im Rosental", "lon": "14.057222"}, {"lat": "46.547778", "city": "Sankt Jakob im Rosenthal", "lon": "14.057222"}, {"lat": "46.547778", "city": "Sankt Jakob", "lon": "14.057222"}, {"lat": "46.75", "city": "Sankt Johann am Bruckl", "lon": "14.533333"}, {"lat": "46.966667", "city": "Sankt Johann am Pressen", "lon": "14.583333"}, {"lat": "46.533333", "city": "Sankt Johann im Rosental", "lon": "14.2"}, {"lat": "46.533333", "city": "Sankt Johann", "lon": "14.2"}, {"lat": "46.966667", "city": "Sankt Johan", "lon": "14.35"}, {"lat": "46.614444", "city": "Sankt Kanzian", "lon": "14.575833"}, {"lat": "46.583333", "city": "Sankt Kathrein", "lon": "14.066667"}, {"lat": "46.816667", "city": "Sankt Klementen", "lon": "14.483333"}, {"lat": "46.683333", "city": "Sankt Kollmann", "lon": "14.766667"}, {"lat": "46.866667", "city": "Sankt Kosmas", "lon": "14.416667"}, {"lat": "46.594444", "city": "Sankt Lambrecht", "lon": "14.017222"}, {"lat": "46.783333", "city": "Sankt Leonhard an der Saualpe", "lon": "14.7"}, {"lat": "46.55", "city": "Sankt Leonhard bei Siebenbrunn", "lon": "13.8"}, {"lat": "46.464722", "city": "Sankt Leonhard", "lon": "14.257222"}, {"lat": "46.65", "city": "Sankt Lorenzen im Gischthale", "lon": "13.3"}, {"lat": "46.65", "city": "Sankt Lorenzen im Gitschtal", "lon": "13.3"}, {"lat": "46.704722", "city": "Sankt Lorenzen im Lesach", "lon": "12.783889"}, {"lat": "46.704722", "city": "Sankt Lorenzen im Lesachtal", "lon": "12.783889"}, {"lat": "46.633333", "city": "Sankt Lorenzen", "lon": "14.6"}, {"lat": "46.673611", "city": "Sankt Lorenzer im Gitschtal", "lon": "13.310556"}, {"lat": "46.633333", "city": "Sankt Luzia", "lon": "14.816667"}, {"lat": "46.833333", "city": "Sankt Magdalena", "lon": "14.2"}, {"lat": "46.616667", "city": "Sankt Magdalen", "lon": "13.883333"}, {"lat": "46.810278", "city": "Sankt Marein", "lon": "14.821944"}, {"lat": "46.544167", "city": "Sankt Margareten im Rosental", "lon": "14.424444"}, {"lat": "46.85", "city": "Sankt Margarethen im Lavanttale", "lon": "14.8"}, {"lat": "46.85", "city": "Sankt Margarethen im Lavanttal", "lon": "14.8"}, {"lat": "46.85", "city": "Sankt Margarethen im Lavantthale", "lon": "14.8"}, {"lat": "46.544167", "city": "Sankt Margarethen im Rosental", "lon": "14.424444"}, {"lat": "46.544167", "city": "Sankt Margarethen im Rosenthale", "lon": "14.424444"}, {"lat": "46.583333", "city": "Sankt Margarethen ob Bleiburg", "lon": "14.833333"}, {"lat": "46.666667", "city": "Sankt Margarethen ober Tollerberg", "lon": "14.566667"}, {"lat": "46.666667", "city": "Sankt Margarethen ob Tollerberg", "lon": "14.566667"}, {"lat": "46.544167", "city": "Sankt Margarethen", "lon": "14.424444"}, {"lat": "46.810278", "city": "Sankt Marien", "lon": "14.821944"}, {"lat": "46.8", "city": "Sankt Martin am Krappfelde", "lon": "14.483333"}, {"lat": "46.8", "city": "Sankt Martin am Krappfeld", "lon": "14.483333"}, {"lat": "46.986944", "city": "Sankt Martin am Silberberg", "lon": "14.547222"}, {"lat": "46.658611", "city": "Sankt Martin am Techelsberg", "lon": "14.101944"}, {"lat": "46.581389", "city": "Sankt Martin", "lon": "13.985556"}, {"lat": "46.633333", "city": "Sankt Marxen", "lon": "14.616667"}, {"lat": "46.716667", "city": "Sankt Michael am Zollfeld", "lon": "14.383333"}, {"lat": "46.578889", "city": "Sankt Michael ob Bleiburg", "lon": "14.743333"}, {"lat": "46.683333", "city": "Sankt Michael ob der Gurk", "lon": "14.5"}, {"lat": "46.578889", "city": "Sankt Michael", "lon": "14.743333"}, {"lat": "46.604167", "city": "Sankt Niklas an der Drau", "lon": "13.864444"}, {"lat": "46.590833", "city": "Sankt Nikolai", "lon": "14.210556"}, {"lat": "46.533333", "city": "Sankt Oswald", "lon": "14.1"}, {"lat": "46.618611", "city": "Sankt Paul an der Gail", "lon": "13.520556"}, {"lat": "46.700556", "city": "Sankt Paul im Lavanttal", "lon": "14.875556"}, {"lat": "46.700556", "city": "Sankt Paul im Levanttal", "lon": "14.875556"}, {"lat": "46.733333", "city": "Sankt Paul ob Ferndorf", "lon": "13.633333"}, {"lat": "46.618611", "city": "Sankt Paul", "lon": "13.520556"}, {"lat": "46.7", "city": "Sankt Peter am Bichl", "lon": "14.266667"}, {"lat": "46.65", "city": "Sankt Peter am Wallersberg", "lon": "14.683333"}, {"lat": "47.016667", "city": "Sankt Peter im Katschtal", "lon": "13.6"}, {"lat": "46.816667", "city": "Sankt Peter in Holz", "lon": "13.466667"}, {"lat": "46.8", "city": "Sankt Peter in Tweng", "lon": "13.733333"}, {"lat": "46.55", "city": "Sankt Peter", "lon": "14.033333"}, {"lat": "46.566667", "city": "Sankt Primus", "lon": "14.566667"}, {"lat": "46.663611", "city": "Sankt Radegund", "lon": "14.8225"}, {"lat": "46.645278", "city": "Sankt Ruprecht am Moos", "lon": "13.869444"}, {"lat": "46.645278", "city": "Sankt Ruprecht bei Villach", "lon": "13.869444"}, {"lat": "46.6", "city": "Sankt Ruprecht", "lon": "14.316667"}, {"lat": "46.97", "city": "Sankt Salvator", "lon": "14.356944"}, {"lat": "46.733333", "city": "Sankt Sebastian", "lon": "14.45"}, {"lat": "46.866667", "city": "Sankt Stefan am Krappfelde", "lon": "14.433333"}, {"lat": "46.866667", "city": "Sankt Stefan am Krappfeld", "lon": "14.433333"}, {"lat": "46.616667", "city": "Sankt Stefan an der Gail", "lon": "13.516667"}, {"lat": "46.8075", "city": "Sankt Stefan im Lavanttal", "lon": "14.851667"}, {"lat": "46.566667", "city": "Sankt Stefan", "lon": "13.866667"}, {"lat": "46.666667", "city": "Sankt Thomas", "lon": "14.4"}, {"lat": "46.75", "city": "Sankt Ulrich am Johannserberg", "lon": "14.583333"}, {"lat": "46.55", "city": "Sankt Ulrich", "lon": "14.3"}, {"lat": "46.666667", "city": "Sankt Urban", "lon": "13.95"}, {"lat": "46.768056", "city": "Sankt Veit an der Glan", "lon": "14.360278"}, {"lat": "46.583333", "city": "Sankt Veit im Jauntale", "lon": "14.533333"}, {"lat": "46.583333", "city": "Sankt Veit im Jauntal", "lon": "14.533333"}, {"lat": "46.768056", "city": "Sankt Veit", "lon": "14.360278"}, {"lat": "46.696111", "city": "Sankt Vincenz", "lon": "15.018056"}, {"lat": "46.696111", "city": "Sankt Vinzenz", "lon": "15.018056"}, {"lat": "46.7725", "city": "Sankt Walburgen", "lon": "14.543889"}, {"lat": "46.805278", "city": "Sankt Willibald", "lon": "14.488889"}, {"lat": "46.816667", "city": "Sankt Wolfgang", "lon": "13.516667"}, {"lat": "46.489444", "city": "Sapotnica", "lon": "14.265833"}, {"lat": "46.796111", "city": "Sappl", "lon": "13.625556"}, {"lat": "46.933333", "city": "Saps", "lon": "13.516667"}, {"lat": "46.966667", "city": "Sattelbogen", "lon": "14.466667"}, {"lat": "46.668611", "city": "Sattendorf", "lon": "13.905"}, {"lat": "46.886111", "city": "Sauereggen", "lon": "13.896389"}, {"lat": "46.733333", "city": "Saurachberg", "lon": "14.033333"}, {"lat": "46.886111", "city": "Saureggen", "lon": "13.896389"}, {"lat": "46.516667", "city": "Sawrschnik", "lon": "14.383333"}, {"lat": "47.016667", "city": "Schachnern", "lon": "12.883333"}, {"lat": "46.466667", "city": "Schaida", "lon": "14.45"}, {"lat": "46.479167", "city": "Schaidnig", "lon": "14.47"}, {"lat": "46.479167", "city": "Schaidnik", "lon": "14.47"}, {"lat": "46.728889", "city": "Schallegger", "lon": "14.688333"}, {"lat": "46.706111", "city": "Scharnitzen", "lon": "13.618611"}, {"lat": "46.916667", "city": "Schattseite", "lon": "14.583333"}, {"lat": "46.783333", "city": "Schaumboden", "lon": "14.283333"}, {"lat": "46.780556", "city": "Scheifling", "lon": "14.432222"}, {"lat": "46.842778", "city": "Scherbartl", "lon": "14.957778"}, {"lat": "46.733333", "city": "Scherzboden", "lon": "13.778333"}, {"lat": "46.604444", "city": "Schiefling am See", "lon": "14.0975"}, {"lat": "46.604444", "city": "Schiefling", "lon": "14.0975"}, {"lat": "46.683333", "city": "Schildberg", "lon": "14.816667"}, {"lat": "46.6", "city": "Schlanitzen", "lon": "13.283333"}, {"lat": "46.5375", "city": "Schlatten", "lon": "14.036667"}, {"lat": "46.953333", "city": "Schlatzing", "lon": "13.491667"}, {"lat": "46.738056", "city": "Schlogel", "lon": "13.921944"}, {"lat": "46.927778", "city": "Schmelzhutten", "lon": "13.115833"}, {"lat": "46.741389", "city": "Schmieddorf", "lon": "14.533889"}, {"lat": "46.966667", "city": "Schnatten", "lon": "14.283333"}, {"lat": "46.916667", "city": "Schnessnitz", "lon": "14.266667"}, {"lat": "46.930278", "city": "Schober", "lon": "13.632778"}, {"lat": "46.9275", "city": "Schodendorf", "lon": "14.422778"}, {"lat": "46.95", "city": "Schonberg", "lon": "14.866667"}, {"lat": "46.744722", "city": "Schonweg", "lon": "14.786667"}, {"lat": "46.85", "city": "Schuss", "lon": "13.9"}, {"lat": "46.792222", "city": "Schwaiger", "lon": "14.730278"}, {"lat": "46.783333", "city": "Schwaig", "lon": "13.483333"}, {"lat": "46.683333", "city": "Schwarzenbach", "lon": "14.933333"}, {"lat": "46.645556", "city": "Schwarzendorf", "lon": "14.061389"}, {"lat": "46.835", "city": "Schwarzwald", "lon": "13.691389"}, {"lat": "46.883333", "city": "Schwersberg", "lon": "12.983333"}, {"lat": "46.586667", "city": "Seebach", "lon": "14.240278"}, {"lat": "46.821944", "city": "Seeboden", "lon": "13.495"}, {"lat": "46.816667", "city": "Seebrucke", "lon": "13.5"}, {"lat": "46.774722", "city": "Seefischer", "lon": "13.646667"}, {"lat": "46.737778", "city": "Seidlhof", "lon": "14.303333"}, {"lat": "46.533333", "city": "Seidolach", "lon": "14.35"}, {"lat": "46.666111", "city": "Seigbichl", "lon": "14.211111"}, {"lat": "46.6", "city": "Sekirn", "lon": "14.2"}, {"lat": "46.633333", "city": "Sekull", "lon": "14.116667"}, {"lat": "46.45", "city": "Sele-Kosuta", "lon": "14.383333"}, {"lat": "46.472222", "city": "Sele na Rozu", "lon": "14.388889"}, {"lat": "46.472222", "city": "Sele pri Cerkoi", "lon": "14.388889"}, {"lat": "46.472222", "city": "Sele", "lon": "14.388889"}, {"lat": "46.75", "city": "Selesen", "lon": "14.5"}, {"lat": "46.466667", "city": "Sele-Zorhnji-Kol", "lon": "14.316667"}, {"lat": "46.6", "city": "Selpritsch", "lon": "14.016667"}, {"lat": "46.65", "city": "Seltenheim", "lon": "14.25"}, {"lat": "46.55", "city": "Seltschach", "lon": "13.7"}, {"lat": "46.616667", "city": "Semering", "lon": "13.583333"}, {"lat": "46.916667", "city": "Semlach", "lon": "14.55"}, {"lat": "46.9475", "city": "Semslach", "lon": "13.187222"}, {"lat": "46.794722", "city": "Siebenaich", "lon": "14.39"}, {"lat": "46.766667", "city": "Siebending", "lon": "14.85"}, {"lat": "46.8", "city": "Siegelsdorf", "lon": "14.783333"}, {"lat": "46.533333", "city": "Sielach", "lon": "14.616667"}, {"lat": "46.781667", "city": "Siflitz", "lon": "13.375278"}, {"lat": "46.566667", "city": "Sigmontitsch", "lon": "13.816667"}, {"lat": "46.851667", "city": "Silberegg", "lon": "14.493611"}, {"lat": "46.666667", "city": "Sillebrucke", "lon": "14.433333"}, {"lat": "46.75", "city": "Simmerlach", "lon": "13"}, {"lat": "46.516667", "city": "Sinach", "lon": "14.183333"}, {"lat": "46.516667", "city": "Singerberg", "lon": "14.233333"}, {"lat": "46.809722", "city": "Sirnitz-Schattseite", "lon": "14.0025"}, {"lat": "46.823611", "city": "Sirnitz", "lon": "14.059444"}, {"lat": "46.845", "city": "Sirnitz-Sonnseite", "lon": "14"}, {"lat": "46.816667", "city": "Sittenberg", "lon": "14.533333"}, {"lat": "46.544444", "city": "Sittersdorf", "lon": "14.605833"}, {"lat": "46.7", "city": "Sittich", "lon": "14.116667"}, {"lat": "46.683333", "city": "Sittmoos", "lon": "12.933333"}, {"lat": "46.583333", "city": "Skarbin", "lon": "14.483333"}, {"lat": "46.533333", "city": "Slovenje", "lon": "14.666667"}, {"lat": "46.942222", "city": "Sobriach", "lon": "13.1675"}, {"lat": "46.829167", "city": "Sochsenburg", "lon": "13.355"}, {"lat": "46.983333", "city": "Sommerau", "lon": "14.666667"}, {"lat": "46.703611", "city": "Sonnberg", "lon": "14.023889"}, {"lat": "46.466667", "city": "Sonnegg", "lon": "14.45"}, {"lat": "46.753889", "city": "Sonnleiten", "lon": "14.026111"}, {"lat": "46.95", "city": "Sonnseite", "lon": "14.15"}, {"lat": "46.766667", "city": "Sorg", "lon": "14.266667"}, {"lat": "46.833333", "city": "Spitalein", "lon": "14.1"}, {"lat": "46.8", "city": "Spital", "lon": "13.5"}, {"lat": "46.8", "city": "Spittal an der Drau", "lon": "13.5"}, {"lat": "46.8", "city": "Spittal", "lon": "13.5"}, {"lat": "46.833333", "city": "Spitzwiesen", "lon": "14.1"}, {"lat": "46.833333", "city": "Spizwiesen", "lon": "14.1"}, {"lat": "46.55", "city": "Srajach", "lon": "14.033333"}, {"lat": "46.616667", "city": "Srallach", "lon": "14.216667"}, {"lat": "46.616667", "city": "Srejach", "lon": "14.6"}, {"lat": "46.666944", "city": "Stadelbach", "lon": "13.737778"}, {"lat": "46.716667", "city": "Stadling", "lon": "14.833333"}, {"lat": "46.733333", "city": "Stadt", "lon": "13.9"}, {"lat": "46.635556", "city": "Stallhofen", "lon": "13.977222"}, {"lat": "46.890556", "city": "Stall", "lon": "13.036944"}, {"lat": "46.8", "city": "Stammerdorf", "lon": "14.45"}, {"lat": "46.8", "city": "Stammersdorf", "lon": "14.45"}, {"lat": "46.938333", "city": "Stampfen", "lon": "12.897778"}, {"lat": "46.966667", "city": "Staudachhof", "lon": "14.3"}, {"lat": "46.833333", "city": "Staudach", "lon": "13.766667"}, {"lat": "46.683333", "city": "Stegendorf", "lon": "14.283333"}, {"lat": "46.75", "city": "Steinberg Oberhaus", "lon": "14.916667"}, {"lat": "46.75", "city": "Steinberg", "lon": "14.916667"}, {"lat": "46.733333", "city": "Steinberg Unterhaus", "lon": "14.916667"}, {"lat": "46.8", "city": "Steinbichl", "lon": "14.216667"}, {"lat": "46.698333", "city": "Steindorf am Ossiacher See", "lon": "14.009167"}, {"lat": "46.698333", "city": "Steindorf", "lon": "14.009167"}, {"lat": "46.583333", "city": "Steinerberg", "lon": "14.55"}, {"lat": "46.765556", "city": "Steinfeld", "lon": "13.271667"}, {"lat": "46.610833", "city": "Stein im Jauntal", "lon": "14.545"}, {"lat": "46.984722", "city": "Steinkellner", "lon": "14.745"}, {"lat": "46.681944", "city": "Steinkogel", "lon": "14.655"}, {"lat": "46.583333", "city": "Stein", "lon": "14.283333"}, {"lat": "46.933333", "city": "Stelzing", "lon": "14.65"}, {"lat": "46.566667", "city": "Stemeritsch", "lon": "14.35"}, {"lat": "46.483333", "city": "Stephun", "lon": "14.45"}, {"lat": "46.616667", "city": "Sternberg", "lon": "13.983333"}, {"lat": "46.7", "city": "Sterzen", "lon": "12.75"}, {"lat": "46.783333", "city": "Steuerberg", "lon": "14.116667"}, {"lat": "46.9", "city": "Stiefelberg", "lon": "13"}, {"lat": "46.9", "city": "Stieflberg", "lon": "13"}, {"lat": "46.7", "city": "Stiegl", "lon": "13.983333"}, {"lat": "46.7", "city": "Stift Griffen", "lon": "14.7"}, {"lat": "46.85", "city": "Stoberdorf", "lon": "14.433333"}, {"lat": "46.669444", "city": "Stockelweingarten", "lon": "13.937778"}, {"lat": "46.726111", "city": "Stockenboi", "lon": "13.523056"}, {"lat": "46.85", "city": "Stocklern", "lon": "13.4"}, {"lat": "46.683333", "city": "Stocklitz", "lon": "14.1"}, {"lat": "46.65", "city": "Stofflerberg", "lon": "13.2"}, {"lat": "46.673056", "city": "Stollwitz", "lon": "13.052778"}, {"lat": "46.4925", "city": "Stoper", "lon": "14.6325"}, {"lat": "46.55", "city": "Stossau", "lon": "13.683333"}, {"lat": "46.816667", "city": "Straganz", "lon": "14.4"}, {"lat": "46.681389", "city": "Strajach", "lon": "12.952778"}, {"lat": "46.915278", "city": "Stranach", "lon": "12.905"}, {"lat": "46.6375", "city": "Stranig", "lon": "13.160833"}, {"lat": "46.894444", "city": "Strassburg im Karnten", "lon": "14.328611"}, {"lat": "46.894444", "city": "Strassburg in Karnten", "lon": "14.328611"}, {"lat": "46.894444", "city": "Strassburg", "lon": "14.328611"}, {"lat": "46.866667", "city": "Strasser", "lon": "13.5"}, {"lat": "46.533333", "city": "Strau", "lon": "14.25"}, {"lat": "46.716667", "city": "Streimberg", "lon": "14.35"}, {"lat": "46.783333", "city": "Strieden", "lon": "13"}, {"lat": "46.816667", "city": "Stromberg", "lon": "14.333333"}, {"lat": "46.833333", "city": "Stron", "lon": "14"}, {"lat": "46.7", "city": "Stuben", "lon": "13.683333"}, {"lat": "46.681111", "city": "Stuttern", "lon": "14.392778"}, {"lat": "46.526944", "city": "Suetschach", "lon": "14.156389"}, {"lat": "46.55", "city": "Susalitsch", "lon": "13.833333"}, {"lat": "46.833333", "city": "Sutsch", "lon": "14.25"}, {"lat": "46.547778", "city": "Sveti Jakob", "lon": "14.057222"}, {"lat": "46.766667", "city": "Taggenbrunn", "lon": "14.383333"}, {"lat": "46.633333", "city": "Tainach", "lon": "14.533333"}, {"lat": "46.826667", "city": "Tangern", "lon": "13.5475"}, {"lat": "46.7", "city": "Tanzenberg", "lon": "14.35"}, {"lat": "46.746667", "city": "Tassach", "lon": "13.813056"}, {"lat": "46.731111", "city": "Tauchendorf", "lon": "14.235556"}, {"lat": "46.665833", "city": "Tauerneck", "lon": "14.015"}, {"lat": "46.665833", "city": "Tauern", "lon": "14.015"}, {"lat": "46.658611", "city": "Techelsberg", "lon": "14.101944"}, {"lat": "46.583333", "city": "Techelweg", "lon": "14.1"}, {"lat": "46.720278", "city": "Techendorf", "lon": "13.296944"}, {"lat": "47.016667", "city": "Teichl", "lon": "14.2"}, {"lat": "46.683333", "city": "Tentschach", "lon": "14.25"}, {"lat": "46.480278", "city": "Terklbauer", "lon": "14.444167"}, {"lat": "46.480278", "city": "Terkl", "lon": "14.444167"}, {"lat": "46.616667", "city": "Terlach", "lon": "13.966667"}, {"lat": "46.65", "city": "Terndorf", "lon": "14.316667"}, {"lat": "46.7", "city": "Terpetzen", "lon": "14.566667"}, {"lat": "46.666667", "city": "Tessendorf", "lon": "14.3"}, {"lat": "46.874722", "city": "Teuchl", "lon": "13.233889"}, {"lat": "46.766667", "city": "Thalsdorf", "lon": "14.433333"}, {"lat": "46.910833", "city": "Theissenegg", "lon": "14.881667"}, {"lat": "46.983333", "city": "Theissing", "lon": "14.8"}, {"lat": "46.63", "city": "Thon", "lon": "14.480278"}, {"lat": "46.8", "city": "Thurn", "lon": "14.783333"}, {"lat": "46.633333", "city": "Tibitsch", "lon": "14.1"}, {"lat": "46.765556", "city": "Tiebel", "lon": "14.009722"}, {"lat": "46.633333", "city": "Tiebitsch", "lon": "14.1"}, {"lat": "46.7", "city": "Tiefenbach", "lon": "12.733333"}, {"lat": "46.7075", "city": "Tiffen", "lon": "14.060278"}, {"lat": "46.7275", "city": "Tiffnerwinkel", "lon": "14.038889"}, {"lat": "46.7275", "city": "Tiffnerwinkl", "lon": "14.038889"}, {"lat": "46.683611", "city": "Tigring", "lon": "14.186667"}, {"lat": "46.55", "city": "Tihoja", "lon": "14.633333"}, {"lat": "46.683333", "city": "Timenitz", "lon": "14.416667"}, {"lat": "46.739167", "city": "Tobitsch", "lon": "13.7775"}, {"lat": "46.66", "city": "Tobring", "lon": "13.8575"}, {"lat": "46.695556", "city": "Toltschach", "lon": "14.367222"}, {"lat": "46.8", "city": "Toplach", "lon": "14.416667"}, {"lat": "46.654167", "city": "Toplitsch", "lon": "13.740556"}, {"lat": "46.562778", "city": "Toppelsdorf", "lon": "14.289167"}, {"lat": "46.65", "city": "Topriach", "lon": "14.083333"}, {"lat": "46.916667", "city": "Torf", "lon": "14.1"}, {"lat": "46.883333", "city": "Toscheldorf", "lon": "14.466667"}, {"lat": "46.633333", "city": "Toschling", "lon": "14.1"}, {"lat": "46.616667", "city": "Trabenig", "lon": "13.95"}, {"lat": "46.565278", "city": "Trabesing", "lon": "14.253056"}, {"lat": "46.716667", "city": "Tragin", "lon": "13.633333"}, {"lat": "46.866667", "city": "Traming", "lon": "14.2"}, {"lat": "46.625833", "city": "Tratten", "lon": "13.538611"}, {"lat": "46.466111", "city": "Travnik", "lon": "14.342778"}, {"lat": "46.886389", "city": "Trebesing", "lon": "13.510278"}, {"lat": "46.7", "city": "Treffelsdorf", "lon": "14.4"}, {"lat": "46.566667", "city": "Treffen", "lon": "14.066667"}, {"lat": "46.8425", "city": "Treffling", "lon": "13.527222"}, {"lat": "46.866667", "city": "Treibach", "lon": "14.466667"}, {"lat": "46.645833", "city": "Tresdorf", "lon": "13.201944"}, {"lat": "46.645833", "city": "Tressdorf", "lon": "13.201944"}, {"lat": "46.566667", "city": "Tretram", "lon": "14.266667"}, {"lat": "46.55", "city": "Trieblach", "lon": "14.433333"}, {"lat": "46.733333", "city": "Trobelsberg", "lon": "13.233333"}, {"lat": "46.612778", "city": "Tropolach", "lon": "13.275556"}, {"lat": "46.61", "city": "Truttendorf", "lon": "14.433056"}, {"lat": "46.55", "city": "Tschachoritsch", "lon": "14.216667"}, {"lat": "46.7", "city": "Tscheuritsch", "lon": "13.732222"}, {"lat": "46.583333", "city": "Tschinowitsch", "lon": "13.85"}, {"lat": "46.679167", "city": "Tschoran", "lon": "13.961667"}, {"lat": "46.563611", "city": "Tschrestal", "lon": "14.2"}, {"lat": "46.766667", "city": "Tschrietes", "lon": "14.716667"}, {"lat": "46.716667", "city": "Tschriet", "lon": "14.016667"}, {"lat": "46.733333", "city": "Tschwarzen", "lon": "14.116667"}, {"lat": "46.65", "city": "Tuderschitz", "lon": "14.2"}, {"lat": "46.723611", "city": "Tuffbad", "lon": "12.768333"}, {"lat": "46.65", "city": "Tultschnig", "lon": "14.233333"}, {"lat": "46.583333", "city": "Turdanitsch", "lon": "13.866667"}, {"lat": "46.583333", "city": "Tuzach", "lon": "14.366667"}, {"lat": "46.916111", "city": "Twimberg", "lon": "14.845278"}, {"lat": "46.799722", "city": "Uberfeld", "lon": "14.368889"}, {"lat": "46.673056", "city": "Uggowitz", "lon": "13.753333"}, {"lat": "46.648333", "city": "Umberg", "lon": "13.9575"}, {"lat": "46.766667", "city": "Unteragsdorf", "lon": "14.8"}, {"lat": "46.916667", "city": "Unteraich", "lon": "14.35"}, {"lat": "46.55", "city": "Unteraichwald", "lon": "13.95"}, {"lat": "46.783333", "city": "Unteraigen", "lon": "14.8"}, {"lat": "46.733333", "city": "Unteralpen", "lon": "13.5"}, {"lat": "46.983333", "city": "Unteralpe", "lon": "14.15"}, {"lat": "46.763333", "city": "Unteramlach", "lon": "13.5475"}, {"lat": "46.966667", "city": "Unterauerling", "lon": "14.916667"}, {"lat": "46.516667", "city": "Unterbergen", "lon": "14.283333"}, {"lat": "46.695278", "city": "Unterberg", "lon": "13.982778"}, {"lat": "46.766667", "city": "Unterbruckendorf", "lon": "14.466667"}, {"lat": "46.633333", "city": "Unterbuchach", "lon": "13.133333"}, {"lat": "46.9", "city": "Unterbuch", "lon": "13.55"}, {"lat": "46.6", "city": "Unterburg am Klopeiner See", "lon": "14.6"}, {"lat": "46.983333", "city": "Unterburgstallberg", "lon": "13.616667"}, {"lat": "46.85", "city": "Unterdeka", "lon": "14.35"}, {"lat": "46.616667", "city": "Unter-Dellach", "lon": "14.133333"}, {"lat": "46.633333", "city": "Unterdobernitzen", "lon": "13.183333"}, {"lat": "46.833333", "city": "Unter Dorfl", "lon": "14.016667"}, {"lat": "46.766667", "city": "Untere Drassnitz", "lon": "13.083333"}, {"lat": "46.633333", "city": "Untere Fellach", "lon": "13.833333"}, {"lat": "46.715833", "city": "Untereggen", "lon": "12.711944"}, {"lat": "46.835278", "city": "Unter-Eggen", "lon": "14.051667"}, {"lat": "46.9", "city": "Untere Steinwand", "lon": "13.066667"}, {"lat": "46.575833", "city": "Unterfederaun", "lon": "13.777778"}, {"lat": "46.536667", "city": "Unterferlach", "lon": "14.306389"}, {"lat": "46.536667", "city": "Unter-Ferlach", "lon": "14.306389"}, {"lat": "46.55", "city": "Unterferlach", "lon": "13.983333"}, {"lat": "46.633333", "city": "Untergoritschitzen", "lon": "14.316667"}, {"lat": "46.866667", "city": "Untergosel", "lon": "14.883333"}, {"lat": "46.941389", "city": "Unter-Gossen", "lon": "14.554722"}, {"lat": "46.916667", "city": "Untergratschach", "lon": "13.233333"}, {"lat": "46.55", "city": "Untergreuth", "lon": "13.933333"}, {"lat": "46.75", "city": "Untergreutschach", "lon": "14.7"}, {"lat": "46.55", "city": "Unterguntschach", "lon": "14.35"}, {"lat": "46.716667", "city": "Unterhaidach", "lon": "14.25"}, {"lat": "46.798611", "city": "Unterhaus", "lon": "13.465"}, {"lat": "46.783333", "city": "Unterhof", "lon": "14.116667"}, {"lat": "46.683333", "city": "Unterholz", "lon": "14.933333"}, {"lat": "46.878056", "city": "Unterkolbnitz", "lon": "13.311389"}, {"lat": "46.966667", "city": "Unterkremsberg", "lon": "13.633333"}, {"lat": "46.916667", "city": "Unterkreuschlach", "lon": "13.533333"}, {"lat": "46.566667", "city": "Unterkreuth", "lon": "14.416667"}, {"lat": "46.85", "city": "Unterlamm", "lon": "14.016667"}, {"lat": "46.913611", "city": "Unterlassach", "lon": "12.918333"}, {"lat": "46.783333", "city": "Unterlatschach", "lon": "14.4"}, {"lat": "46.866667", "city": "Unterleidenberg", "lon": "14.8"}, {"lat": "46.568056", "city": "Unterloibach", "lon": "14.808056"}, {"lat": "46.5075", "city": "Unterloibl", "lon": "14.289722"}, {"lat": "46.95", "city": "Untermalta", "lon": "13.5"}, {"lat": "46.9", "city": "Unter Mannsdorf", "lon": "14.316667"}, {"lat": "46.866667", "city": "Unter Markt", "lon": "14.483333"}, {"lat": "46.583333", "city": "Untermieger", "lon": "14.433333"}, {"lat": "46.6625", "city": "Untermitterdorf", "lon": "14.819444"}, {"lat": "46.6", "city": "Untermoos", "lon": "14.783333"}, {"lat": "46.633333", "city": "Untermoschach", "lon": "13.35"}, {"lat": "46.75", "city": "Untermuhlbach", "lon": "14.383333"}, {"lat": "46.583333", "city": "Unternarrach", "lon": "14.566667"}, {"lat": "46.666667", "city": "Unternberg", "lon": "14.75"}, {"lat": "46.65", "city": "Unternolbling", "lon": "13.083333"}, {"lat": "46.716667", "city": "Unterpichling", "lon": "14.866667"}, {"lat": "46.756389", "city": "Unterpirkach", "lon": "12.925833"}, {"lat": "46.933333", "city": "Unterpreitenegg", "lon": "14.9"}, {"lat": "46.65", "city": "Unterpudlach", "lon": "14.933333"}, {"lat": "46.683333", "city": "Unterrain", "lon": "14.75"}, {"lat": "46.821667", "city": "Unter Sankt Paul", "lon": "14.551111"}, {"lat": "46.565556", "city": "Unterschutt", "lon": "13.786111"}, {"lat": "46.556667", "city": "Untertechanting", "lon": "13.850833"}, {"lat": "46.533333", "city": "Unterthorl", "lon": "13.65"}, {"lat": "46.556667", "city": "Untertochanting", "lon": "13.850833"},