{"BE": {"02": [{"lat": "50.766667", "city": "Aalst", "lon": "4.866667"}, {"lat": "50.966667", "city": "Aardenweg", "lon": "5.066667"}, {"lat": "50.983333", "city": "Aarschot", "lon": "4.833333"}, {"lat": "50.7", "city": "Abeiche", "lon": "4.366667"}, {"lat": "50.7", "city": "Achenfosse", "lon": "4.183333"}, {"lat": "50.7", "city": "Achonfosse", "lon": "4.183333"}, {"lat": "50.883333", "city": "Achter den Berg", "lon": "4.55"}, {"lat": "50.883333", "city": "Achter-Den-Bergh", "lon": "4.55"}, {"lat": "50.916667", "city": "Achterheide", "lon": "4.983333"}, {"lat": "50.766667", "city": "Aelst", "lon": "4.866667"}, {"lat": "50.983333", "city": "Aerschot", "lon": "4.833333"}, {"lat": "50.716667", "city": "Ais\u00e9mont", "lon": "4.616667"}, {"lat": "50.933333", "city": "Alsberg", "lon": "4.883333"}, {"lat": "50.733333", "city": "Alsemberg", "lon": "4.316667"}, {"lat": "50.75", "city": "Alsput", "lon": "4.233333"}, {"lat": "50.566667", "city": "Altiaux", "lon": "4.6"}, {"lat": "50.6", "city": "Alz\u00e9mont", "lon": "4.35"}, {"lat": "50.816667", "city": "Anderghen", "lon": "4.433333"}, {"lat": "50.716667", "city": "Angousart", "lon": "4.566667"}, {"lat": "50.716667", "city": "Angoussart", "lon": "4.566667"}, {"lat": "50.7", "city": "Annecroix", "lon": "4.116667"}, {"lat": "50.933333", "city": "Appelblok", "lon": "4.783333"}, {"lat": "50.683333", "city": "Aquinot", "lon": "4.466667"}, {"lat": "50.916667", "city": "Araan", "lon": "5.133333"}, {"lat": "50.916667", "city": "Araen", "lon": "5.133333"}, {"lat": "50.75", "city": "Archennes", "lon": "4.666667"}, {"lat": "50.766667", "city": "Ardevoor", "lon": "5"}, {"lat": "50.7", "city": "Arnelle", "lon": "4.75"}, {"lat": "50.9", "city": "Asbeek", "lon": "4.166667"}, {"lat": "50.633333", "city": "Asquempont", "lon": "4.233333"}, {"lat": "50.916667", "city": "Assche", "lon": "4.2"}, {"lat": "50.916667", "city": "Assche-ter-Heiden", "lon": "4.15"}, {"lat": "50.916667", "city": "Asse", "lon": "4.2"}, {"lat": "50.95", "city": "Assent", "lon": "5.016667"}, {"lat": "50.916667", "city": "Asse ter Heide", "lon": "4.15"}, {"lat": "50.766667", "city": "Attenhoven", "lon": "5.1"}, {"lat": "50.883333", "city": "Attenrode", "lon": "4.916667"}, {"lat": "50.883333", "city": "Attenrode-Wever", "lon": "4.916667"}, {"lat": "50.783333", "city": "Audenaeken", "lon": "4.2"}, {"lat": "50.816667", "city": "Auderghem", "lon": "4.433333"}, {"lat": "50.7", "city": "Audrimont", "lon": "4.466667"}, {"lat": "50.966667", "city": "Aurheide", "lon": "4.833333"}, {"lat": "51", "city": "Aurodenberg", "lon": "4.833333"}, {"lat": "50.766667", "city": "Autgaerde", "lon": "4.916667"}, {"lat": "50.666667", "city": "Autre-\u00c9glise", "lon": "4.916667"}, {"lat": "51.033333", "city": "Averbode", "lon": "4.983333"}, {"lat": "51", "city": "Baal", "lon": "4.75"}, {"lat": "51", "city": "Baalheide", "lon": "4.733333"}, {"lat": "50.8", "city": "Babelom", "lon": "4.833333"}, {"lat": "50.75", "city": "Baekenbosch", "lon": "4.5"}, {"lat": "51", "city": "Bael", "lon": "4.75"}, {"lat": "51", "city": "Bael Heide", "lon": "4.733333"}, {"lat": "50.6", "city": "Baisy-Thy", "lon": "4.466667"}, {"lat": "50.75", "city": "Bakenbos", "lon": "4.5"}, {"lat": "50.933333", "city": "Balkerstraat", "lon": "4.6"}, {"lat": "50.933333", "city": "Balkestraat", "lon": "4.6"}, {"lat": "50.966667", "city": "Ballaar", "lon": "4.983333"}, {"lat": "50.966667", "city": "Ballaer", "lon": "4.983333"}, {"lat": "50.916667", "city": "Bansbroek", "lon": "4.983333"}, {"lat": "50.583333", "city": "Banterlez", "lon": "4.45"}, {"lat": "51", "city": "Barenberg", "lon": "5.083333"}, {"lat": "50.933333", "city": "Baronsheide", "lon": "4.833333"}, {"lat": "50.716667", "city": "Bas Bonlez", "lon": "4.7"}, {"lat": "50.6", "city": "Bas Masville", "lon": "4.266667"}, {"lat": "50.7", "city": "Bas Ransbeek", "lon": "4.45"}, {"lat": "50.716667", "city": "Basse-Bonlez", "lon": "4.7"}, {"lat": "50.633333", "city": "Basse Bruy\u00e8re", "lon": "4.2"}, {"lat": "50.616667", "city": "Basse Fauquez", "lon": "4.25"}, {"lat": "50.583333", "city": "Basse Heuval", "lon": "4.55"}, {"lat": "50.683333", "city": "Basse Lasne", "lon": "4.466667"}, {"lat": "50.683333", "city": "Basse Noucelle", "lon": "4.316667"}, {"lat": "50.683333", "city": "Basse-Noucelles", "lon": "4.316667"}, {"lat": "50.7", "city": "Basse-Ransb\u00eache", "lon": "4.45"}, {"lat": "50.716667", "city": "Basse Roux Miroir", "lon": "4.766667"}, {"lat": "50.716667", "city": "Basse Wavre", "lon": "4.633333"}, {"lat": "50.616667", "city": "Batria", "lon": "4.366667"}, {"lat": "50.633333", "city": "Baudemont", "lon": "4.283333"}, {"lat": "50.616667", "city": "Baulers", "lon": "4.35"}, {"lat": "50.633333", "city": "Baurieux", "lon": "4.583333"}, {"lat": "50.85", "city": "Bautersem", "lon": "4.833333"}, {"lat": "50.683333", "city": "Beau Ch\u00eane", "lon": "4.45"}, {"lat": "50.7", "city": "Beaufaulx", "lon": "4.383333"}, {"lat": "50.666667", "city": "Beaumont", "lon": "4.483333"}, {"lat": "50.633333", "city": "Beaurieux", "lon": "4.583333"}, {"lat": "50.783333", "city": "Beauvechain", "lon": "4.766667"}, {"lat": "50.883333", "city": "Beckerzeel", "lon": "4.233333"}, {"lat": "50.95", "city": "Becquevoort", "lon": "4.966667"}, {"lat": "50.85", "city": "Beekkant", "lon": "4.316667"}, {"lat": "51.016667", "city": "Beekstraat", "lon": "4.266667"}, {"lat": "50.766667", "city": "Beersel", "lon": "4.3"}, {"lat": "50.733333", "city": "Beert", "lon": "4.183333"}, {"lat": "50.95", "city": "Begaarden Berg", "lon": "4.833333"}, {"lat": "50.95", "city": "Begaerden-Berg", "lon": "4.833333"}, {"lat": "51.016667", "city": "Beggynendyck", "lon": "4.766667"}, {"lat": "50.85", "city": "Begijnenborre", "lon": "4.233333"}, {"lat": "51.016667", "city": "Begijnendijk", "lon": "4.766667"}, {"lat": "50.95", "city": "Begijne Weide", "lon": "4.85"}, {"lat": "50.85", "city": "Begijnnenborre", "lon": "4.233333"}, {"lat": "50.95", "city": "Beigem", "lon": "4.366667"}, {"lat": "50.783333", "city": "Beisberg", "lon": "4.216667"}, {"lat": "50.9", "city": "Beisem", "lon": "4.616667"}, {"lat": "50.883333", "city": "Bekkerzeel", "lon": "4.233333"}, {"lat": "50.95", "city": "Bekkevoort", "lon": "4.966667"}, {"lat": "50.716667", "city": "Belle Vue", "lon": "4.416667"}, {"lat": "50.75", "city": "Bellingen", "lon": "4.15"}, {"lat": "50.75", "city": "Bellinghen", "lon": "4.15"}, {"lat": "50.833333", "city": "Bemel", "lon": "4.416667"}, {"lat": "50.833333", "city": "Bemelsveld", "lon": "4.416667"}, {"lat": "50.833333", "city": "Benedenheide", "lon": "4.8"}, {"lat": "50.9", "city": "Beneden Kessel", "lon": "4.733333"}, {"lat": "50.916667", "city": "Bensberg", "lon": "4.85"}, {"lat": "50.866667", "city": "Berchem-Sainte-Agathe", "lon": "4.283333"}, {"lat": "50.783333", "city": "Berchem-Saint-Laurent", "lon": "4.2"}, {"lat": "50.716667", "city": "Berendries", "lon": "4.233333"}, {"lat": "50.933333", "city": "Berg", "lon": "4.533333"}, {"lat": "50.933333", "city": "Bergbroek", "lon": "4.766667"}, {"lat": "50.766667", "city": "Bergem", "lon": "4.083333"}, {"lat": "50.9", "city": "Bergen", "lon": "5.083333"}, {"lat": "50.8", "city": "Bergenbroeck", "lon": "4.1"}, {"lat": "50.8", "city": "Bergenbroek", "lon": "4.1"}, {"lat": "50.9", "city": "Bergen-Einde", "lon": "5.183333"}, {"lat": "50.966667", "city": "Bergheide", "lon": "4.533333"}, {"lat": "50.766667", "city": "Berghem", "lon": "4.083333"}, {"lat": "50.766667", "city": "Bergom", "lon": "4.083333"}, {"lat": "50.966667", "city": "Bergvijver", "lon": "4.85"}, {"lat": "50.766667", "city": "Beringen", "lon": "4.133333"}, {"lat": "50.766667", "city": "Beringhen", "lon": "4.133333"}, {"lat": "50.866667", "city": "Bertem", "lon": "4.633333"}, {"lat": "50.883333", "city": "Bertembos", "lon": "4.633333"}, {"lat": "50.866667", "city": "Berthem", "lon": "4.633333"}, {"lat": "50.883333", "city": "Berthembosch", "lon": "4.633333"}, {"lat": "50.983333", "city": "Betecom", "lon": "4.783333"}, {"lat": "50.983333", "city": "Betekom", "lon": "4.783333"}, {"lat": "50.833333", "city": "Bettendries", "lon": "4.216667"}, {"lat": "50.933333", "city": "Beuken", "lon": "4.616667"}, {"lat": "50.95", "city": "Beurt", "lon": "4.933333"}, {"lat": "50.783333", "city": "Bevekom", "lon": "4.766667"}, {"lat": "50.916667", "city": "Bever", "lon": "4.316667"}, {"lat": "50.983333", "city": "Beverlaak", "lon": "4.666667"}, {"lat": "50.95", "city": "Beversluis", "lon": "4.733333"}, {"lat": "50.95", "city": "Beyghem", "lon": "4.366667"}, {"lat": "50.783333", "city": "Beysberg", "lon": "4.216667"}, {"lat": "50.9", "city": "Beyssem", "lon": "4.616667"}, {"lat": "50.633333", "city": "Bierbais", "lon": "4.616667"}, {"lat": "50.833333", "city": "Bierbeek", "lon": "4.766667"}, {"lat": "50.716667", "city": "Bierges", "lon": "4.6"}, {"lat": "50.7", "city": "Bierghes", "lon": "4.133333"}, {"lat": "50.7", "city": "Bierk", "lon": "4.133333"}, {"lat": "50.9", "city": "Biesemstraat", "lon": "5.166667"}, {"lat": "50.9", "city": "Biessemstraat", "lon": "5.166667"}, {"lat": "50.866667", "city": "Biest", "lon": "4.766667"}, {"lat": "50.933333", "city": "Biesthoek", "lon": "4.35"}, {"lat": "50.733333", "city": "Biez", "lon": "4.7"}, {"lat": "50.883333", "city": "Biezendries", "lon": "4.133333"}, {"lat": "50.883333", "city": "Biezendriesch", "lon": "4.133333"}, {"lat": "50.966667", "city": "Biezenhuiskens", "lon": "4.866667"}, {"lat": "50.85", "city": "Bijvoorde", "lon": "4.883333"}, {"lat": "50.666667", "city": "Bilot", "lon": "4.266667"}, {"lat": "50.866667", "city": "Binkom", "lon": "4.883333"}, {"lat": "50.933333", "city": "Bisthoek", "lon": "4.35"}, {"lat": "51", "city": "Blaasberg", "lon": "4.666667"}, {"lat": "50.95", "city": "Blakenberg", "lon": "5.033333"}, {"lat": "50.833333", "city": "Blanden", "lon": "4.716667"}, {"lat": "50.616667", "city": "Blanmont", "lon": "4.65"}, {"lat": "50.916667", "city": "Blaregem", "lon": "4.116667"}, {"lat": "51.016667", "city": "Blauwenhoek", "lon": "4.3"}, {"lat": "50.883333", "city": "Blauwput", "lon": "4.716667"}, {"lat": "50.916667", "city": "Blekkom", "lon": "5.066667"}, {"lat": "50.966667", "city": "Bleuken", "lon": "4.533333"}, {"lat": "50.766667", "city": "Bleyenkeer", "lon": "4.033333"}, {"lat": "50.766667", "city": "Bleykheer", "lon": "4.033333"}, {"lat": "50.766667", "city": "Blijkeer", "lon": "4.033333"}, {"lat": "50.766667", "city": "Blijken", "lon": "4.033333"}, {"lat": "50.916667", "city": "Blijstraat", "lon": "5.016667"}, {"lat": "50.983333", "city": "Blinkenberg", "lon": "4.733333"}, {"lat": "50.683333", "city": "Blocquia", "lon": "4.683333"}, {"lat": "50.666667", "city": "Bloc Ry", "lon": "4.6"}, {"lat": "51", "city": "Bloemse Hoeven", "lon": "4.8"}, {"lat": "50.683333", "city": "Bloquia", "lon": "4.683333"}, {"lat": "50.95", "city": "Bocht", "lon": "4.5"}, {"lat": "50.95", "city": "Bockt", "lon": "4.5"}, {"lat": "51.016667", "city": "Bockxheide", "lon": "4.233333"}, {"lat": "50.866667", "city": "Bodeghem-Saint-Martin", "lon": "4.2"}, {"lat": "50.866667", "city": "Bodegnem-Saint-Martin", "lon": "4.2"}, {"lat": "50.716667", "city": "Bodrissart", "lon": "4.366667"}, {"lat": "50.916667", "city": "Boekhout", "lon": "4.1"}, {"lat": "51.016667", "city": "Boeksheide", "lon": "4.233333"}, {"lat": "50.95", "city": "Boekt", "lon": "4.5"}, {"lat": "51.016667", "city": "Boekxheide", "lon": "4.233333"}, {"lat": "50.8", "city": "Boendael", "lon": "4.383333"}, {"lat": "50.85", "city": "Boeslinter", "lon": "4.966667"}, {"lat": "50.733333", "city": "Bogaarden", "lon": "4.133333"}, {"lat": "50.733333", "city": "Bogaerden", "lon": "4.133333"}, {"lat": "50.566667", "city": "Bois de Neuvilles", "lon": "4.35"}, {"lat": "50.566667", "city": "Bois de Nivelles", "lon": "4.35"}, {"lat": "50.666667", "city": "Bois du Foyau", "lon": "4.283333"}, {"lat": "50.616667", "city": "Bois-du-S\u00e9pulcre", "lon": "4.3"}, {"lat": "50.65", "city": "Bois le Duc", "lon": "4.366667"}, {"lat": "50.65", "city": "Bois Seigneur Isaac", "lon": "4.316667"}, {"lat": "50.616667", "city": "Bois S\u00e9pulcre", "lon": "4.3"}, {"lat": "50.8", "city": "Boitsfort", "lon": "4.4"}, {"lat": "51.016667", "city": "Boksheide", "lon": "4.233333"}, {"lat": "50.916667", "city": "Bollebeek", "lon": "4.233333"}, {"lat": "50.916667", "city": "Bollekeek", "lon": "4.233333"}, {"lat": "50.883333", "city": "Bollenberg", "lon": "4.816667"}, {"lat": "51", "city": "Bollo", "lon": "4.716667"}, {"lat": "51", "city": "Bolloo", "lon": "4.716667"}, {"lat": "50.666667", "city": "Bomal", "lon": "4.883333"}, {"lat": "50.6", "city": "Bon Air", "lon": "4.483333"}, {"lat": "50.7", "city": "Bonlez", "lon": "4.7"}, {"lat": "51.016667", "city": "Bonten Os", "lon": "4.733333"}, {"lat": "50.75", "city": "Bontestraat", "lon": "4.05"}, {"lat": "50.75", "city": "Bontestraet", "lon": "4.05"}, {"lat": "50.833333", "city": "Booienhoven", "lon": "5.116667"}, {"lat": "50.983333", "city": "Boortmeerbeek", "lon": "4.566667"}, {"lat": "50.816667", "city": "Boosuit", "lon": "4.183333"}, {"lat": "50.833333", "city": "Borchtlombeek", "lon": "4.133333"}, {"lat": "50.933333", "city": "Borght", "lon": "4.4"}, {"lat": "50.833333", "city": "Borght-Lombeek", "lon": "4.133333"}, {"lat": "50.933333", "city": "Borgt", "lon": "4.4"}, {"lat": "50.6", "city": "Bornival", "lon": "4.266667"}, {"lat": "50.933333", "city": "Bosbeek", "lon": "4.25"}, {"lat": "50.85", "city": "Bos", "lon": "5.083333"}, {"lat": "50.933333", "city": "Boschbeek", "lon": "4.25"}, {"lat": "50.85", "city": "Bosch", "lon": "5.083333"}, {"lat": "51", "city": "Boschkam", "lon": "4.216667"}, {"lat": "50.866667", "city": "Boschkant", "lon": "4.866667"}, {"lat": "50.783333", "city": "Boschstraat", "lon": "4.05"}, {"lat": "50.766667", "city": "Boschveld", "lon": "3.95"}, {"lat": "50.866667", "city": "Boskant", "lon": "4.866667"}, {"lat": "50.716667", "city": "Bosstraat", "lon": "4.1"}, {"lat": "50.816667", "city": "Bossuit", "lon": "4.183333"}, {"lat": "50.766667", "city": "Bossut-Gottechain", "lon": "4.7"}, {"lat": "50.783333", "city": "Bost", "lon": "4.95"}, {"lat": "50.766667", "city": "Bosveld", "lon": "3.95"}, {"lat": "50.9", "city": "Boterberg", "lon": "4.233333"}, {"lat": "50.983333", "city": "Boterstraat", "lon": "4.683333"}, {"lat": "50.916667", "city": "Bouchout", "lon": "4.1"}, {"lat": "50.916667", "city": "Boukhout", "lon": "4.1"}, {"lat": "50.75", "city": "Bouly", "lon": "4.666667"}, {"lat": "50.7", "city": "Bourgeois", "lon": "4.5"}, {"lat": "50.616667", "city": "Bousval", "lon": "4.5"}, {"lat": "50.85", "city": "Boutersem", "lon": "4.833333"}, {"lat": "50.65", "city": "Bouton Rouge", "lon": "4.2"}, {"lat": "50.883333", "city": "Bovenberg", "lon": "4.633333"}, {"lat": "50.833333", "city": "Bovenheide", "lon": "4.783333"}, {"lat": "50.833333", "city": "Bovenste-Heide", "lon": "4.783333"}, {"lat": "50.833333", "city": "Boyenhove", "lon": "5.116667"}, {"lat": "50.833333", "city": "Boyenhoven", "lon": "5.116667"}, {"lat": "50.866667", "city": "Braekum", "lon": "4.85"}, {"lat": "50.733333", "city": "Brages", "lon": "4.183333"}, {"lat": "50.633333", "city": "Braidise", "lon": "4.25"}, {"lat": "50.683333", "city": "Braine-l'Alleud", "lon": "4.366667"}, {"lat": "50.683333", "city": "Braine-le-Ch\u00e2teau", "lon": "4.266667"}, {"lat": "50.866667", "city": "Brakum", "lon": "4.85"}, {"lat": "50.766667", "city": "Breedhout", "lon": "4.2"}, {"lat": "50.75", "city": "Breedveld", "lon": "4.283333"}, {"lat": "50.783333", "city": "Bree Eik", "lon": "4.133333"}, {"lat": "50.966667", "city": "Breestraten", "lon": "4.266667"}, {"lat": "50.833333", "city": "Breijssem", "lon": "4.883333"}, {"lat": "50.833333", "city": "Breisem", "lon": "4.883333"}, {"lat": "50.833333", "city": "Breissem", "lon": "4.883333"}, {"lat": "50.85", "city": "Brempt", "lon": "4.783333"}, {"lat": "50.7", "city": "Brire", "lon": "4.483333"}, {"lat": "50.683333", "city": "Brocsous", "lon": "4.65"}, {"lat": "50.716667", "city": "Brocuy", "lon": "4.833333"}, {"lat": "50.833333", "city": "Broeck", "lon": "4.283333"}, {"lat": "50.833333", "city": "Broek", "lon": "4.283333"}, {"lat": "50.766667", "city": "Broekstraat", "lon": "4.066667"}, {"lat": "50.7", "city": "Brombais", "lon": "4.8"}, {"lat": "50.766667", "city": "Brucom", "lon": "4.25"}, {"lat": "50.85", "city": "Bruel", "lon": "4.8"}, {"lat": "50.75", "city": "Brugge", "lon": "4.1"}, {"lat": "50.733333", "city": "Bruineput", "lon": "4.3"}, {"lat": "50.766667", "city": "Bruinsbroek", "lon": "3.95"}, {"lat": "50.766667", "city": "Brukom", "lon": "4.25"}, {"lat": "50.933333", "city": "Brussegem", "lon": "4.266667"}, {"lat": "50.933333", "city": "Brusseghem", "lon": "4.266667"}, {"lat": "50.85", "city": "Bruul", "lon": "4.8"}, {"lat": "50.716667", "city": "Bruy\u00e8re \u00e0 la Croix", "lon": "4.483333"}, {"lat": "50.666667", "city": "Bruy\u00e8re", "lon": "4.133333"}, {"lat": "50.633333", "city": "Bruy\u00e8re des Berlus", "lon": "4.4"}, {"lat": "50.616667", "city": "Bruy\u00e8re du Sart", "lon": "4.566667"}, {"lat": "50.683333", "city": "Bruy\u00e8re Landuit", "lon": "4.283333"}, {"lat": "50.683333", "city": "Bruy\u00e8re Landuyt", "lon": "4.283333"}, {"lat": "50.633333", "city": "Bruy\u00e8re Madame", "lon": "4.4"}, {"lat": "50.65", "city": "Bruy\u00e8res", "lon": "4.6"}, {"lat": "50.916667", "city": "Buda", "lon": "4.183333"}, {"lat": "50.866667", "city": "Budingen", "lon": "5.1"}, {"lat": "50.95", "city": "Buiblok", "lon": "4.916667"}, {"lat": "50.666667", "city": "Buissot", "lon": "4.15"}, {"lat": "50.733333", "city": "Buizingen", "lon": "4.25"}, {"lat": "50.933333", "city": "Buken", "lon": "4.616667"}, {"lat": "50.95", "city": "Bulsom", "lon": "4.516667"}, {"lat": "51.016667", "city": "Bunders", "lon": "4.8"}, {"lat": "50.85", "city": "Bunsbeek", "lon": "4.933333"}, {"lat": "50.85", "city": "Butsel", "lon": "4.833333"}, {"lat": "50.85", "city": "Butzel", "lon": "4.833333"}, {"lat": "50.733333", "city": "Buysinghen", "lon": "4.25"}, {"lat": "50.85", "city": "Byvoorde", "lon": "4.883333"}, {"lat": "50.95", "city": "Caggevinne-Assent", "lon": "5.016667"}, {"lat": "50.983333", "city": "Caggevinne", "lon": "5.033333"}, {"lat": "50.633333", "city": "Cala", "lon": "4.45"}, {"lat": "50.783333", "city": "Calevoet", "lon": "4.316667"}, {"lat": "50.783333", "city": "Calheide", "lon": "4.566667"}, {"lat": "51", "city": "Calvenne", "lon": "4.716667"}, {"lat": "50.95", "city": "Campelaar", "lon": "4.55"}, {"lat": "50.95", "city": "Campelaer", "lon": "4.55"}, {"lat": "50.95", "city": "Campenhout", "lon": "4.55"}, {"lat": "51.016667", "city": "Cappelle-au-Bois", "lon": "4.366667"}, {"lat": "50.883333", "city": "Cappellen", "lon": "4.95"}, {"lat": "50.883333", "city": "Cappelle-Saint-Ulric", "lon": "4.216667"}, {"lat": "50.716667", "city": "Carante", "lon": "4.366667"}, {"lat": "50.716667", "city": "Caraute", "lon": "4.366667"}, {"lat": "50.766667", "city": "Castre", "lon": "4.116667"}, {"lat": "50.9", "city": "Cattebeek", "lon": "4.983333"}, {"lat": "50.85", "city": "Catthem", "lon": "4.1"}, {"lat": "50.683333", "city": "Caturiaux", "lon": "4.483333"}, {"lat": "50.85", "city": "Caudenjert", "lon": "4.283333"}, {"lat": "50.883333", "city": "Cautertaverent", "lon": "4.183333"}, {"lat": "50.8", "city": "Cayberg", "lon": "4.733333"}, {"lat": "50.75", "city": "Centrale Hut", "lon": "4.383333"}, {"lat": "50.733333", "city": "Centri", "lon": "4.683333"}, {"lat": "50.733333", "city": "Centry", "lon": "4.683333"}, {"lat": "50.6", "city": "Cerisier", "lon": "4.516667"}, {"lat": "50.666667", "city": "C\u00e9roux-Mousty", "lon": "4.516667"}, {"lat": "50.766667", "city": "Chabut", "lon": "4.716667"}, {"lat": "50.7", "city": "Champ de M\u00e9", "lon": "4.366667"}, {"lat": "50.65", "city": "Champ du Long Pr\u00e9", "lon": "4.833333"}, {"lat": "50.683333", "city": "Champ Laurent", "lon": "4.616667"}, {"lat": "50.733333", "city": "Chample", "lon": "4.566667"}, {"lat": "50.733333", "city": "Champles", "lon": "4.566667"}, {"lat": "50.7", "city": "Champs-de-Mai", "lon": "4.366667"}, {"lat": "50.7", "city": "Chapelle Saint-Lambert", "lon": "4.5"}, {"lat": "50.733333", "city": "Chapelle-Saint-Laurent", "lon": "4.75"}, {"lat": "50.6", "city": "Chastre", "lon": "4.633333"}, {"lat": "50.6", "city": "Chastre-Villeroux-Blanmont", "lon": "4.633333"}, {"lat": "50.7", "city": "Chaubrire", "lon": "4.483333"}, {"lat": "50.616667", "city": "Chaumont", "lon": "4.366667"}, {"lat": "50.683333", "city": "Chaumont-Gistoux", "lon": "4.733333"}, {"lat": "50.55", "city": "Chechy", "lon": "4.483333"}, {"lat": "50.6", "city": "Ch\u00eane", "lon": "4.283333"}, {"lat": "50.583333", "city": "Chenemont", "lon": "4.466667"}, {"lat": "50.6", "city": "Cheniat", "lon": "4.483333"}, {"lat": "50.683333", "city": "Chennerie", "lon": "4.366667"}, {"lat": "50.633333", "city": "Chenois", "lon": "4.85"}, {"lat": "50.616667", "city": "Chenoy", "lon": "4.6"}, {"lat": "50.683333", "city": "Cheval de Bois", "lon": "4.45"}, {"lat": "50.6", "city": "Choup\u00e8re", "lon": "4.266667"}, {"lat": "50.733333", "city": "Cintry", "lon": "4.683333"}, {"lat": "50.683333", "city": "Clabecq", "lon": "4.216667"}, {"lat": "50.6", "city": "Clarisse", "lon": "4.333333"}, {"lat": "50.85", "city": "Cley", "lon": "4.116667"}, {"lat": "50.95", "city": "Cleye", "lon": "4.216667"}, {"lat": "50.916667", "city": "Cobbeghem", "lon": "4.25"}, {"lat": "50.733333", "city": "Cocrou Biez", "lon": "4.716667"}, {"lat": "50.733333", "city": "Cocrou", "lon": "4.716667"}, {"lat": "50.733333", "city": "Cocroux-Biez", "lon": "4.716667"}, {"lat": "50.733333", "city": "Cocroux", "lon": "4.716667"}, {"lat": "50.666667", "city": "Coercq", "lon": "4.183333"}, {"lat": "50.666667", "city": "Coerecq", "lon": "4.183333"}, {"lat": "50.666667", "city": "Coeurq", "lon": "4.183333"}, {"lat": "50.85", "city": "Coige", "lon": "4.55"}, {"lat": "50.65", "city": "Colinet", "lon": "4.466667"}, {"lat": "50.566667", "city": "Communes", "lon": "4.6"}, {"lat": "50.7", "city": "Coquiane", "lon": "4.066667"}, {"lat": "50.65", "city": "Corbais", "lon": "4.65"}, {"lat": "50.85", "city": "Corbeek-Dyle", "lon": "4.65"}, {"lat": "50.866667", "city": "Corbeek-Loo", "lon": "4.733333"}, {"lat": "50.666667", "city": "Corroy-le-Grand", "lon": "4.683333"}, {"lat": "50.566667", "city": "Corsal", "lon": "4.633333"}, {"lat": "50.916667", "city": "Cortenaeken", "lon": "5.066667"}, {"lat": "50.883333", "city": "Cortenberg", "lon": "4.533333"}, {"lat": "50.583333", "city": "Cortil", "lon": "4.65"}, {"lat": "50.583333", "city": "Cortil-Noirmont", "lon": "4.65"}, {"lat": "50.933333", "city": "Cortryck-Dutzel", "lon": "4.8"}, {"lat": "50.633333", "city": "Cours d'Eau", "lon": "4.366667"}, {"lat": "50.65", "city": "Court-Saint-\u00c9tienne", "lon": "4.566667"}, {"lat": "50.666667", "city": "Couture-Saint-Germain", "lon": "4.466667"}, {"lat": "50.916667", "city": "Craasbeek", "lon": "4.916667"}, {"lat": "50.733333", "city": "Crabbosch", "lon": "4.283333"}, {"lat": "50.733333", "city": "Crabbos", "lon": "4.283333"}, {"lat": "50.733333", "city": "Crabosch", "lon": "4.283333"}, {"lat": "50.916667", "city": "Craesbeek", "lon": "4.916667"}, {"lat": "50.866667", "city": "Crainhem", "lon": "4.466667"}, {"lat": "50.616667", "city": "Croiseau", "lon": "4.25"}, {"lat": "50.916667", "city": "Crokegem", "lon": "4.183333"}, {"lat": "50.666667", "city": "Croly", "lon": "4.133333"}, {"lat": "51", "city": "Cruys", "lon": "4.683333"}, {"lat": "50.8", "city": "Culo", "lon": "4.783333"}, {"lat": "50.683333", "city": "Culot", "lon": "4.483333"}, {"lat": "50.65", "city": "Culots", "lon": "4.333333"}, {"lat": "50.816667", "city": "Cumptich", "lon": "4.883333"}, {"lat": "50.833333", "city": "Curegem", "lon": "4.333333"}, {"lat": "50.833333", "city": "Cureghem", "lon": "4.333333"}, {"lat": "50.933333", "city": "Cutseghem", "lon": "4.533333"}, {"lat": "50.766667", "city": "Dachelberg", "lon": "4.316667"}, {"lat": "50.766667", "city": "Dachelenberg", "lon": "4.316667"}, {"lat": "50.733333", "city": "Dael", "lon": "4.15"}, {"lat": "51.016667", "city": "Dassenaarde", "lon": "5.033333"}, {"lat": "51.016667", "city": "Dassen Aerde", "lon": "5.033333"}, {"lat": "50.866667", "city": "De Baan", "lon": "4.633333"}, {"lat": "51", "city": "De Bloemsche Hoeven", "lon": "4.8"}, {"lat": "50.983333", "city": "De Brug", "lon": "4.483333"}, {"lat": "50.966667", "city": "De Donck", "lon": "4.6"}, {"lat": "50.966667", "city": "De Donk", "lon": "4.6"}, {"lat": "50.883333", "city": "De Drie Linden", "lon": "4.433333"}, {"lat": "51", "city": "De Haan", "lon": "4.25"}, {"lat": "50.75", "city": "De Hagaard", "lon": "4.516667"}, {"lat": "50.8", "city": "De Heck", "lon": "5.016667"}, {"lat": "50.916667", "city": "Deheide", "lon": "4.283333"}, {"lat": "50.8", "city": "De Hek", "lon": "5.016667"}, {"lat": "50.783333", "city": "De Hoek", "lon": "4.166667"}, {"lat": "50.833333", "city": "De Hoeve", "lon": "4.25"}, {"lat": "51.016667", "city": "De Honderd", "lon": "4.8"}, {"lat": "50.95", "city": "De Hulst", "lon": "4.966667"}, {"lat": "50.916667", "city": "Delle", "lon": "4.633333"}, {"lat": "50.9", "city": "De Lo", "lon": "4.45"}, {"lat": "50.9", "city": "De Loo", "lon": "4.45"}, {"lat": "50.783333", "city": "De Meer", "lon": "4.816667"}, {"lat": "51.016667", "city": "De Meeren", "lon": "4.766667"}, {"lat": "51.016667", "city": "De Meren", "lon": "4.766667"}, {"lat": "51.033333", "city": "De Mosch Vinne", "lon": "4.933333"}, {"lat": "51.033333", "city": "De Mosvinne", "lon": "4.933333"}, {"lat": "50.95", "city": "De Mot", "lon": "4.433333"}, {"lat": "50.983333", "city": "De Motte", "lon": "4.866667"}, {"lat": "51", "city": "Den Bauw", "lon": "4.233333"}, {"lat": "50.966667", "city": "Den Berg", "lon": "4.483333"}, {"lat": "50.766667", "city": "Den Boecht", "lon": "4.35"}, {"lat": "51", "city": "Den Bouw", "lon": "4.233333"}, {"lat": "50.733333", "city": "Den Daal", "lon": "4.15"}, {"lat": "50.966667", "city": "Den Dries", "lon": "4.45"}, {"lat": "50.85", "city": "Den Duivel", "lon": "4.733333"}, {"lat": "50.866667", "city": "Den Eenenboom", "lon": "4.433333"}, {"lat": "50.866667", "city": "Den Enenboom", "lon": "4.433333"}, {"lat": "50.75", "city": "Den Hagaerd", "lon": "4.516667"}, {"lat": "50.966667", "city": "Den Heuvel", "lon": "4.333333"}, {"lat": "50.733333", "city": "Den Hoek", "lon": "4.366667"}, {"lat": "50.983333", "city": "Den Hout", "lon": "4.616667"}, {"lat": "51", "city": "Den Hulst", "lon": "4.9"}, {"lat": "50.933333", "city": "Dennewinkel", "lon": "4.966667"}, {"lat": "50.783333", "city": "Den Top", "lon": "4.233333"}, {"lat": "51", "city": "De Plas", "lon": "4.266667"}, {"lat": "50.816667", "city": "De Plein", "lon": "4.7"}, {"lat": "51.016667", "city": "De Putten", "lon": "4.783333"}, {"lat": "50.583333", "city": "Dernier Patard", "lon": "4.45"}, {"lat": "50.883333", "city": "De Roos", "lon": "4.766667"}, {"lat": "50.883333", "city": "De Rose", "lon": "4.766667"}, {"lat": "50.8", "city": "Derrevoethoek", "lon": "4.083333"}, {"lat": "50.8", "city": "Derrevoetshoek", "lon": "4.083333"}, {"lat": "50.8", "city": "Derrevoort", "lon": "4.083333"}, {"lat": "51.016667", "city": "De Stee", "lon": "4.75"}, {"lat": "50.716667", "city": "Destelheide", "lon": "4.316667"}, {"lat": "50.75", "city": "De Tomme", "lon": "4.633333"}, {"lat": "50.75", "city": "De Tommen", "lon": "4.633333"}, {"lat": "50.783333", "city": "De Top", "lon": "4.233333"}, {"lat": "50.783333", "city": "Deurne", "lon": "4.75"}, {"lat": "50.866667", "city": "De Vergadering", "lon": "4.3"}, {"lat": "50.933333", "city": "De Vijvers", "lon": "4.833333"}, {"lat": "50.933333", "city": "De Voort", "lon": "4.566667"}, {"lat": "51.016667", "city": "De Vrunten", "lon": "5.083333"}, {"lat": "51", "city": "De Zavelbemden", "lon": "4.933333"}, {"lat": "50.9", "city": "Diegem", "lon": "4.433333"}, {"lat": "50.9", "city": "Dieghem", "lon": "4.433333"}, {"lat": "50.8", "city": "Diepenbroeck", "lon": "4.15"}, {"lat": "50.8", "city": "Diepenbroek", "lon": "4.15"}, {"lat": "50.983333", "city": "Diest", "lon": "5.05"}, {"lat": "50.9", "city": "Dijk", "lon": "4.516667"}, {"lat": "50.85", "city": "Dilbeek", "lon": "4.266667"}, {"lat": "50.7", "city": "Dion-le-Mont", "lon": "4.666667"}, {"lat": "50.716667", "city": "Dion-le-Val", "lon": "4.666667"}, {"lat": "50.733333", "city": "Doiceau", "lon": "4.666667"}, {"lat": "50.9", "city": "Dokken", "lon": "4.133333"}, {"lat": "50.7", "city": "Dongelberg", "lon": "4.816667"}, {"lat": "50.833333", "city": "Donkerstraat", "lon": "4.083333"}, {"lat": "51", "city": "Doodbroek", "lon": "4.983333"}, {"lat": "50.983333", "city": "Doorenberg", "lon": "4.85"}, {"lat": "50.95", "city": "Dooren", "lon": "4.25"}, {"lat": "50.983333", "city": "Doortstraat", "lon": "4.2"}, {"lat": "50.983333", "city": "Dorenberg", "lon": "4.85"}, {"lat": "50.916667", "city": "Doren", "lon": "4.666667"}, {"lat": "50.816667", "city": "Dormaal", "lon": "5.1"}, {"lat": "50.816667", "city": "Dormael", "lon": "5.1"}, {"lat": "50.8", "city": "Drie Egypten", "lon": "4.066667"}, {"lat": "50.916667", "city": "Drie Fonteinen", "lon": "4.416667"}, {"lat": "50.9", "city": "Driehoek", "lon": "4.133333"}, {"lat": "50.933333", "city": "Drie Linden", "lon": "4.716667"}, {"lat": "50.866667", "city": "Dries", "lon": "5.016667"}, {"lat": "50.85", "city": "Drieslinter", "lon": "5.05"}, {"lat": "50.866667", "city": "Driessen", "lon": "5.016667"}, {"lat": "50.916667", "city": "Driesstraat", "lon": "4.916667"}, {"lat": "50.9", "city": "Drijhoek", "lon": "4.133333"}, {"lat": "50.916667", "city": "Drinkeling", "lon": "4.266667"}, {"lat": "50.95", "city": "Droeshout", "lon": "4.166667"}, {"lat": "50.783333", "city": "Drogenbosch", "lon": "4.316667"}, {"lat": "50.783333", "city": "Drogenbos", "lon": "4.316667"}, {"lat": "50.866667", "city": "Drogenhof", "lon": "4.816667"}, {"lat": "50.733333", "city": "Dronkaard", "lon": "3.983333"}, {"lat": "50.733333", "city": "Dronkaart", "lon": "3.983333"}, {"lat": "50.783333", "city": "Droogenbosch", "lon": "4.316667"}, {"lat": "50.733333", "city": "Druimeeren", "lon": "4.066667"}, {"lat": "50.733333", "city": "Druimeren", "lon": "4.066667"}, {"lat": "50.733333", "city": "Druimieren", "lon": "4.066667"}, {"lat": "50.966667", "city": "Dubbeek", "lon": "4.833333"}, {"lat": "50.816667", "city": "Duisburg", "lon": "4.55"}, {"lat": "50.866667", "city": "Duivelsbosch", "lon": "4.583333"}, {"lat": "50.866667", "city": "Duivelsbos", "lon": "4.583333"}, {"lat": "50.65", "city": "Dujacquier", "lon": "4.2"}, {"lat": "50.766667", "city": "Dumberg", "lon": "4.45"}, {"lat": "50.816667", "city": "Dungel", "lon": "5.116667"}, {"lat": "50.916667", "city": "Dutsel", "lon": "4.783333"}, {"lat": "50.916667", "city": "Dutzel", "lon": "4.783333"}, {"lat": "50.816667", "city": "Duysbourg", "lon": "4.55"}, {"lat": "50.733333", "city": "Dworp", "lon": "4.3"}, {"lat": "50.733333", "city": "Eeckhout", "lon": "4.1"}, {"lat": "50.733333", "city": "Eeckout", "lon": "4.1"}, {"lat": "50.866667", "city": "Eegenhoven", "lon": "4.666667"}, {"lat": "50.8", "city": "Eekeendries", "lon": "4.066667"}, {"lat": "50.733333", "city": "Eekhout", "lon": "4.1"}, {"lat": "50.983333", "city": "Eeksken", "lon": "4.166667"}, {"lat": "50.95", "city": "Eekt", "lon": "4.733333"}, {"lat": "50.9", "city": "Eenhoorn", "lon": "4.183333"}, {"lat": "50.75", "city": "Eerken", "lon": "4.666667"}, {"lat": "50.75", "city": "Eetvelde", "lon": "3.966667"}, {"lat": "50.866667", "city": "Egenhoven", "lon": "4.666667"}, {"lat": "50.966667", "city": "Eggersberg", "lon": "4.966667"}, {"lat": "50.683333", "city": "Eigenbrake", "lon": "4.366667"}, {"lat": "50.85", "city": "Eigendom", "lon": "4.133333"}, {"lat": "50.85", "city": "Eigendommen", "lon": "4.133333"}, {"lat": "50.85", "city": "Eikelenberg", "lon": "4.283333"}, {"lat": "50.8", "city": "Eikelendries", "lon": "4.066667"}, {"lat": "50.916667", "city": "Einde", "lon": "4.983333"}, {"lat": "50.75", "city": "Eisingen", "lon": "4.25"}, {"lat": "50.883333", "city": "Eizerberg", "lon": "4.65"}, {"lat": "50.833333", "city": "Eizeringen", "lon": "4.133333"}, {"lat": "50.8", "city": "Ekelendries", "lon": "4.066667"}, {"lat": "50.716667", "city": "Ekkelberg", "lon": "4.05"}, {"lat": "50.733333", "city": "Elbeek", "lon": "4.2"}, {"lat": "50.85", "city": "Elegem", "lon": "4.266667"}, {"lat": "50.966667", "city": "Elewijt", "lon": "4.5"}, {"lat": "50.966667", "city": "Elewyt", "lon": "4.5"}, {"lat": "50.783333", "city": "Eliksem", "lon": "5.016667"}, {"lat": "50.783333", "city": "Elingen", "lon": "4.166667"}, {"lat": "50.783333", "city": "Elinghen", "lon": "4.166667"}, {"lat": "50.783333", "city": "Elixem", "lon": "5.016667"}, {"lat": "50.733333", "city": "Elsemheide", "lon": "4.316667"}, {"lat": "50.833333", "city": "Elsene", "lon": "4.366667"}, {"lat": "51.016667", "city": "Elsleuken", "lon": "4.916667"}, {"lat": "51.016667", "city": "Elsleukenweide", "lon": "4.9"}, {"lat": "50.766667", "city": "Elst", "lon": "4.883333"}, {"lat": "50.866667", "city": "Enenboom", "lon": "4.433333"}, {"lat": "50.783333", "city": "Engeland", "lon": "4.333333"}, {"lat": "51.016667", "city": "Engelbeek", "lon": "5.066667"}, {"lat": "50.7", "city": "\u00c9nines", "lon": "4.933333"}, {"lat": "50.966667", "city": "Eppegem", "lon": "4.466667"}, {"lat": "50.966667", "city": "Eppeghem", "lon": "4.466667"}, {"lat": "50.716667", "city": "Ermite", "lon": "4.35"}, {"lat": "50.9", "city": "Erps-Kwerps", "lon": "4.566667"}, {"lat": "50.9", "city": "Erps-Querbs", "lon": "4.566667"}, {"lat": "50.783333", "city": "Esemael", "lon": "5"}, {"lat": "50.75", "city": "Espinette-Centrale", "lon": "4.383333"}, {"lat": "50.716667", "city": "Espinette", "lon": "4.266667"}, {"lat": "50.716667", "city": "Esschenbeek", "lon": "4.25"}, {"lat": "50.9", "city": "Esschene", "lon": "4.133333"}, {"lat": "50.866667", "city": "Esschene-Winkel", "lon": "4.133333"}, {"lat": "50.716667", "city": "Essenbeek", "lon": "4.25"}, {"lat": "50.9", "city": "Essene", "lon": "4.133333"}, {"lat": "50.866667", "city": "Essene Winkel", "lon": "4.133333"}, {"lat": "50.683333", "city": "Estr\u00e9e", "lon": "4.366667"}, {"lat": "50.883333", "city": "Everberg", "lon": "4.566667"}, {"lat": "50.966667", "city": "Everveld", "lon": "4.783333"}, {"lat": "50.966667", "city": "Evervelt", "lon": "4.783333"}, {"lat": "50.833333", "city": "Eyseringhen", "lon": "4.133333"}, {"lat": "50.75", "city": "Eysinghen", "lon": "4.25"}, {"lat": "50.8", "city": "Eyzer", "lon": "4.55"}, {"lat": "50.783333", "city": "Ezemaal", "lon": "5"}, {"lat": "50.6", "city": "Faubourg de Bruxelles", "lon": "4.333333"}, {"lat": "50.583333", "city": "Faubourg de Charleroi", "lon": "4.333333"}, {"lat": "50.583333", "city": "Faubourg de Mons", "lon": "4.316667"}, {"lat": "50.6", "city": "Faubourg de Namur", "lon": "4.35"}, {"lat": "50.583333", "city": "Faubourg de Soignies", "lon": "4.3"}, {"lat": "50.6", "city": "Faubourg Sainte-Anne", "lon": "4.316667"}, {"lat": "50.633333", "city": "Fauquez", "lon": "4.25"}, {"lat": "50.616667", "city": "Faux", "lon": "4.55"}, {"lat": "50.65", "city": "Ferri\u00e8re", "lon": "4.516667"}, {"lat": "50.65", "city": "Ferri\u00e8res", "lon": "4.516667"}, {"lat": "50.65", "city": "Flamandes", "lon": "4.433333"}, {"lat": "50.683333", "city": "Flohaye", "lon": "4.366667"}, {"lat": "50.683333", "city": "Flohayes", "lon": "4.366667"}, {"lat": "50.8", "city": "Flor\u00e9al", "lon": "4.416667"}, {"lat": "50.766667", "city": "Florival", "lon": "4.666667"}, {"lat": "50.65", "city": "Fodiaux", "lon": "4.916667"}, {"lat": "50.933333", "city": "Foeksenberg", "lon": "4.316667"}, {"lat": "50.666667", "city": "Folx-les-Caves", "lon": "4.933333"}, {"lat": "50.7", "city": "Fond Vandenbosch", "lon": "4.4"}, {"lat": "50.7", "city": "Fontenelle", "lon": "4.666667"}, {"lat": "50.6", "city": "Fonteny", "lon": "4.4"}, {"lat": "50.8", "city": "Forest", "lon": "4.316667"}, {"lat": "50.65", "city": "Forri\u00e8re", "lon": "4.516667"}, {"lat": "50.6", "city": "Fosty", "lon": "4.5"}, {"lat": "50.7", "city": "Froidmont", "lon": "4.533333"}, {"lat": "50.8", "city": "Gaasbeek", "lon": "4.183333"}, {"lat": "50.8", "city": "Gaesbeek", "lon": "4.183333"}, {"lat": "50.716667", "city": "Gaillemarde", "lon": "4.433333"}, {"lat": "50.633333", "city": "Gala", "lon": "4.45"}, {"lat": "50.966667", "city": "Galgenberg", "lon": "4.916667"}, {"lat": "50.7", "city": "Galgendries", "lon": "4.033333"}, {"lat": "50.966667", "city": "Galgestraat", "lon": "4.233333"}, {"lat": "50.966667", "city": "Galgstraat", "lon": "4.233333"}, {"lat": "50.75", "city": "Galmaarden", "lon": "3.966667"}, {"lat": "50.75", "city": "Gammerages", "lon": "3.966667"}, {"lat": "50.833333", "city": "Gansendries", "lon": "5"}, {"lat": "50.816667", "city": "Gansmanstraat", "lon": "4.616667"}, {"lat": "50.816667", "city": "Ganspoel", "lon": "4.583333"}, {"lat": "50.816667", "city": "Ganzemansstraat", "lon": "4.616667"}, {"lat": "50.833333", "city": "Ganzendries", "lon": "5"}, {"lat": "50.816667", "city": "Ganzenpoel", "lon": "4.583333"}, {"lat": "50.733333", "city": "Gastuche", "lon": "4.65"}, {"lat": "50.95", "city": "Geelroede", "lon": "4.566667"}, {"lat": "50.9", "city": "Geesbeek", "lon": "4.8"}, {"lat": "50.9", "city": "Geestbeek", "lon": "4.8"}, {"lat": "50.65", "city": "Geest-Gerompont", "lon": "4.883333"}, {"lat": "50.65", "city": "Geest-G\u00e9rompont-Petit-Rosi\u00e8re", "lon": "4.883333"}, {"lat": "51", "city": "Geestveld", "lon": "4.766667"}, {"lat": "50.883333", "city": "Geetbets", "lon": "5.116667"}, {"lat": "50.883333", "city": "Geet Betz", "lon": "5.116667"}, {"lat": "50.9", "city": "Geetsbeek", "lon": "4.8"}, {"lat": "50.983333", "city": "Geetsvondel", "lon": "4.75"}, {"lat": "50.916667", "city": "Gehucht-Bosch", "lon": "4.316667"}, {"lat": "50.733333", "city": "Gehucht", "lon": "4.366667"}, {"lat": "50.883333", "city": "Geiten Rodeveld", "lon": "5.05"}, {"lat": "50.883333", "city": "Gelbergen", "lon": "5.016667"}, {"lat": "50.716667", "city": "Geldenaken", "lon": "4.866667"}, {"lat": "50.783333", "city": "Geleijtsbeek", "lon": "4.333333"}, {"lat": "50.783333", "city": "Geleitsbeek", "lon": "4.333333"}, {"lat": "50.966667", "city": "Gelrode", "lon": "4.8"}, {"lat": "50.75", "city": "Gemelinge", "lon": "3.95"}, {"lat": "50.75", "city": "Gemelingen", "lon": "3.95"}, {"lat": "50.6", "city": "Genappe", "lon": "4.45"}, {"lat": "50.6", "city": "Genepi\u00ebn", "lon": "4.45"}, {"lat": "50.683333", "city": "Genleau", "lon": "4.466667"}, {"lat": "51.033333", "city": "Gennevinne", "lon": "5.083333"}, {"lat": "50.583333", "city": "Gentinnes", "lon": "4.6"}, {"lat": "50.566667", "city": "Gentissart", "lon": "4.566667"}, {"lat": "50.716667", "city": "Genval", "lon": "4.483333"}, {"lat": "50.683333", "city": "Geten", "lon": "4.95"}, {"lat": "51", "city": "Gijmelberg", "lon": "4.833333"}, {"lat": "51.016667", "city": "Gijmel", "lon": "4.866667"}, {"lat": "50.883333", "city": "Gilbergen", "lon": "5.016667"}, {"lat": "50.55", "city": "Gimer\u00e9e", "lon": "4.466667"}, {"lat": "50.683333", "city": "Gistoux", "lon": "4.7"}, {"lat": "50.633333", "city": "Glabais", "lon": "4.45"}, {"lat": "50.866667", "city": "Glabbeek", "lon": "4.95"}, {"lat": "50.866667", "city": "Glabbeek-Suerbempde", "lon": "4.95"}, {"lat": "50.866667", "city": "Glabbeek-Zuurbemde", "lon": "4.95"}, {"lat": "50.716667", "city": "Glain", "lon": "4.516667"}, {"lat": "50.65", "city": "Glatigny", "lon": "4.8"}, {"lat": "50.683333", "city": "Glimes", "lon": "4.833333"}, {"lat": "50.666667", "city": "Gobard", "lon": "4.133333"}, {"lat": "50.666667", "city": "Gobart", "lon": "4.133333"}, {"lat": "50.916667", "city": "Gobbelsrode", "lon": "4.8"}, {"lat": "50.75", "city": "Gobertange", "lon": "4.85"}, {"lat": "50.766667", "city": "Goetsenhoven", "lon": "4.95"}, {"lat": "50.8", "city": "Gooik", "lon": "4.116667"}, {"lat": "51", "city": "Goor", "lon": "4.866667"}, {"lat": "51.016667", "city": "Goorveld", "lon": "4.9"}, {"lat": "50.95", "city": "Goot", "lon": "4.7"}, {"lat": "50.766667", "city": "Gossoncourt", "lon": "4.95"}, {"lat": "50.766667", "city": "Goteringen", "lon": "4.083333"}, {"lat": "50.766667", "city": "Gottechain", "lon": "4.716667"}, {"lat": "50.833333", "city": "Goudveerdegem", "lon": "4.183333"}, {"lat": "50.833333", "city": "Goudveerdeghem", "lon": "4.183333"}, {"lat": "50.8", "city": "Goyck", "lon": "4.116667"}, {"lat": "50.766667", "city": "Gracht", "lon": "4.05"}, {"lat": "50.866667", "city": "Graesen", "lon": "5.133333"}, {"lat": "50.616667", "city": "Grambais", "lon": "4.283333"}, {"lat": "50.616667", "city": "Grandbais", "lon": "4.283333"}, {"lat": "50.866667", "city": "Grand-Bigard", "lon": "4.25"}, {"lat": "50.75", "city": "Grande Espinette", "lon": "4.383333"}, {"lat": "50.633333", "city": "Grand-Rosi\u00e8re", "lon": "4.866667"}, {"lat": "50.633333", "city": "Grand-Rosi\u00e8re-Hottomont", "lon": "4.866667"}, {"lat": "50.683333", "city": "Grange aux Champs", "lon": "4.366667"}, {"lat": "50.683333", "city": "Grange des Champs", "lon": "4.366667"}, {"lat": "50.866667", "city": "Grassen", "lon": "5.133333"}, {"lat": "50.733333", "city": "Graven", "lon": "4.7"}, {"lat": "50.866667", "city": "Grazen", "lon": "5.133333"}, {"lat": "50.733333", "city": "Grez-Doiceau", "lon": "4.7"}, {"lat": "50.933333", "city": "Grimbergen", "lon": "4.383333"}, {"lat": "50.933333", "city": "Grimberghen", "lon": "4.383333"}, {"lat": "50.8", "city": "Grimde", "lon": "4.966667"}, {"lat": "50.683333", "city": "Griplotte", "lon": "4.666667"}, {"lat": "50.683333", "city": "Grippelotte", "lon": "4.666667"}, {"lat": "50.866667", "city": "Groene Dries", "lon": "4.9"}, {"lat": "50.766667", "city": "Groenendaal", "lon": "4.433333"}, {"lat": "50.766667", "city": "Groenendael", "lon": "4.433333"}, {"lat": "50.866667", "city": "Groenendries", "lon": "4.9"}, {"lat": "50.966667", "city": "Groenhoef", "lon": "4.933333"}, {"lat": "50.966667", "city": "Groenhoeve", "lon": "4.933333"}, {"lat": "50.966667", "city": "Groenhoven", "lon": "4.933333"}, {"lat": "50.8", "city": "Groeselenberg", "lon": "4.35"}, {"lat": "50.866667", "city": "Groot-Bijgaarden", "lon": "4.25"}, {"lat": "50.833333", "city": "Groote Heide", "lon": "4.8"}, {"lat": "51.033333", "city": "Groote-Heide", "lon": "4.3"}, {"lat": "50.983333", "city": "Grooten-Dries", "lon": "4.283333"}, {"lat": "51.033333", "city": "Grooten Haak", "lon": "4.983333"}, {"lat": "50.783333", "city": "Grooten-Haarding", "lon": "4.066667"}, {"lat": "50.716667", "city": "Grootheide", "lon": "4.3"}, {"lat": "51.016667", "city": "Grootlo", "lon": "4.7"}, {"lat": "51.016667", "city": "Grootloo", "lon": "4.7"}, {"lat": "50.783333", "city": "Groot Overlaar", "lon": "4.916667"}, {"lat": "50.783333", "city": "Grote Haarding", "lon": "4.066667"}, {"lat": "51.033333", "city": "Groteheide", "lon": "4.3"}, {"lat": "50.75", "city": "Grote Hut", "lon": "4.383333"}, {"lat": "50.983333", "city": "Groten Dries", "lon": "4.283333"}, {"lat": "51.033333", "city": "Groten Haak", "lon": "4.983333"}, {"lat": "50.783333", "city": "Groten Haardinge", "lon": "4.066667"}, {"lat": "50.85", "city": "Gucht", "lon": "4.133333"}, {"lat": "50.933333", "city": "Gulde Delle", "lon": "4.816667"}, {"lat": "50.8", "city": "Gussenhoven", "lon": "5.066667"}, {"lat": "50.983333", "city": "Haacht", "lon": "4.633333"}, {"lat": "50.966667", "city": "Haantjensberg", "lon": "4.816667"}, {"lat": "50.966667", "city": "Haantjesberg", "lon": "4.816667"}, {"lat": "50.966667", "city": "Haas", "lon": "4.35"}, {"lat": "50.833333", "city": "Haasrode", "lon": "4.733333"}, {"lat": "50.983333", "city": "Haecht", "lon": "4.633333"}, {"lat": "50.8", "city": "Haekendover", "lon": "4.983333"}, {"lat": "50.733333", "city": "Haesendries", "lon": "3.983333"}, {"lat": "50.833333", "city": "Haesrode", "lon": "4.733333"}, {"lat": "50.75", "city": "Hagaard", "lon": "4.516667"}, {"lat": "51.016667", "city": "Hagelboom", "lon": "4.333333"}, {"lat": "50.8", "city": "Hakendover", "lon": "4.983333"}, {"lat": "50.966667", "city": "Haksberg", "lon": "4.916667"}, {"lat": "50.733333", "city": "Hal", "lon": "4.233333"}, {"lat": "50.8", "city": "Halle-Booienhoven", "lon": "5.116667"}, {"lat": "50.8", "city": "Halle-Boyenhoven", "lon": "5.116667"}, {"lat": "50.733333", "city": "Halle", "lon": "4.233333"}, {"lat": "50.95", "city": "Hambosch", "lon": "4.666667"}, {"lat": "50.95", "city": "Hambos", "lon": "4.666667"}, {"lat": "50.916667", "city": "Hamme", "lon": "4.283333"}, {"lat": "50.783333", "city": "Hamme-Mille", "lon": "4.716667"}, {"lat": "50.733333", "city": "Hampteau", "lon": "4.983333"}, {"lat": "51.016667", "city": "Hanenberg", "lon": "4.933333"}, {"lat": "50.983333", "city": "Hanewijk", "lon": "4.683333"}, {"lat": "50.983333", "city": "Hanewyk", "lon": "4.683333"}, {"lat": "50.716667", "city": "Hannonsart", "lon": "4.466667"}, {"lat": "50.65", "city": "Hanogrune", "lon": "4.433333"}, {"lat": "50.983333", "city": "Hansbrug", "lon": "4.633333"}, {"lat": "50.716667", "city": "Happeau", "lon": "4.8"}, {"lat": "50.883333", "city": "Haren", "lon": "4.416667"}, {"lat": "50.633333", "city": "Hasquempont", "lon": "4.233333"}, {"lat": "50.95", "city": "Hasselt", "lon": "4.316667"}, {"lat": "50.6", "city": "Hatain", "lon": "4.483333"}, {"lat": "50.966667", "city": "Haterbeek", "lon": "4.85"}, {"lat": "50.6", "city": "Hattain", "lon": "4.483333"}, {"lat": "50.633333", "city": "Haute Bruy\u00e8re", "lon": "4.2"}, {"lat": "50.733333", "city": "Hautecroix", "lon": "4.116667"}, {"lat": "50.65", "city": "Haute Franchise", "lon": "4.1"}, {"lat": "50.6", "city": "Haute Heuval", "lon": "4.566667"}, {"lat": "50.6", "city": "Haute Masville", "lon": "4.266667"}, {"lat": "50.783333", "city": "Hautem-Sainte Catherine", "lon": "4.866667"}, {"lat": "50.833333", "city": "Hautem-Sainte-Marguerite", "lon": "4.966667"}, {"lat": "51.683333", "city": "Haute Noucelle", "lon": "4.316667"}, {"lat": "51.683333", "city": "Haute Noucelles", "lon": "4.316667"}, {"lat": "50.783333", "city": "Hauthem-Sainte-Catherine", "lon": "4.866667"}, {"lat": "50.65", "city": "Haut-Ittre", "lon": "4.3"}, {"lat": "50.7", "city": "Haut Ransbeek", "lon": "4.433333"}, {"lat": "50.683333", "city": "Hauts Tiennes", "lon": "4.366667"}, {"lat": "50.933333", "city": "Hauwaert", "lon": "4.85"}, {"lat": "50.95", "city": "Hauwaertsche Berg", "lon": "4.866667"}, {"lat": "50.883333", "city": "Hauwijk", "lon": "4.133333"}, {"lat": "50.966667", "city": "Haxberg", "lon": "4.916667"}, {"lat": "50.633333", "city": "Hayettes", "lon": "4.666667"}, {"lat": "50.966667", "city": "Hazenberg", "lon": "4.9"}, {"lat": "50.733333", "city": "Hazendries", "lon": "3.983333"}, {"lat": "50.666667", "city": "Hedenge", "lon": "4.9"}, {"lat": "50.816667", "city": "Heelen-Bosch", "lon": "5.083333"}, {"lat": "51.016667", "city": "Heibergen", "lon": "4.933333"}, {"lat": "50.916667", "city": "Heiblok", "lon": "4.933333"}, {"lat": "50.733333", "city": "Heidebroeck", "lon": "4.316667"}, {"lat": "50.766667", "city": "Heide", "lon": "4.1"}, {"lat": "50.933333", "city": "Heidekant", "lon": "4.85"}, {"lat": "50.866667", "city": "Heideken", "lon": "4.833333"}, {"lat": "50.733333", "city": "Heidenbroek", "lon": "4.316667"}, {"lat": "51", "city": "Heihoek", "lon": "4.533333"}, {"lat": "50.966667", "city": "Heikant", "lon": "4.733333"}, {"lat": "50.966667", "city": "Heiken", "lon": "4.633333"}, {"lat": "50.733333", "city": "Heikruis", "lon": "4.116667"}, {"lat": "50.883333", "city": "Heisel", "lon": "4.333333"}, {"lat": "50.883333", "city": "Heizel", "lon": "4.333333"}, {"lat": "50.9", "city": "Hekelgem", "lon": "4.1"}, {"lat": "50.816667", "city": "Helen-Bos", "lon": "5.083333"}, {"lat": "50.866667", "city": "Hel", "lon": "4.9"}, {"lat": "50.916667", "city": "Hellebeekberg", "lon": "4.366667"}, {"lat": "50.966667", "city": "Hellicht", "lon": "4.7"}, {"lat": "50.966667", "city": "Helligt", "lon": "4.7"}, {"lat": "50.716667", "city": "Hellingen", "lon": "4"}, {"lat": "50.866667", "city": "Helmet", "lon": "4.4"}, {"lat": "50.866667", "city": "Helstraat", "lon": "4.9"}, {"lat": "50.716667", "city": "Herbais", "lon": "4.916667"}, {"lat": "50.866667", "city": "Herendaal", "lon": "4.816667"}, {"lat": "50.866667", "city": "Herendael", "lon": "4.816667"}, {"lat": "50.9", "city": "Herent", "lon": "4.666667"}, {"lat": "50.75", "city": "Herfelingen", "lon": "4.1"}, {"lat": "50.75", "city": "Herffelinghen", "lon": "4.1"}, {"lat": "50.733333", "city": "Herhout", "lon": "3.95"}, {"lat": "50.716667", "city": "H\u00e9rinnes", "lon": "4.033333"}, {"lat": "50.933333", "city": "Hermansheuvel", "lon": "5.016667"}, {"lat": "50.716667", "city": "Herne", "lon": "4.033333"}, {"lat": "50.866667", "city": "Herrebeke", "lon": "5"}, {"lat": "50.866667", "city": "Herrebeken", "lon": "5"}, {"lat": "50.816667", "city": "Hertswegen", "lon": "4.55"}, {"lat": "51.033333", "city": "Het Hoeksken", "lon": "4.783333"}, {"lat": "51.016667", "city": "Het Lemmeken", "lon": "4.25"}, {"lat": "50.8", "city": "Het Reuken", "lon": "4.433333"}, {"lat": "50.983333", "city": "Het Sas", "lon": "4.4"}, {"lat": "51.016667", "city": "Het Steenbroek", "lon": "4.916667"}, {"lat": "50.833333", "city": "Het Venne", "lon": "5.133333"}, {"lat": "51", "city": "Het Vinne", "lon": "5.05"}, {"lat": "51", "city": "Het Zand", "lon": "5.016667"}, {"lat": "50.883333", "city": "Heurbeek", "lon": "4.866667"}, {"lat": "50.933333", "city": "Heuvel", "lon": "4.85"}, {"lat": "51", "city": "Hever", "lon": "4.55"}, {"lat": "50.866667", "city": "Heverlee", "lon": "4.7"}, {"lat": "50.866667", "city": "Heverlee Park", "lon": "4.7"}, {"lat": "50.866667", "city": "Heverle", "lon": "4.7"}, {"lat": "50.616667", "city": "H\u00e9villers", "lon": "4.616667"}, {"lat": "50.85", "city": "Heyde", "lon": "5.016667"}, {"lat": "51", "city": "Heyhoek", "lon": "4.533333"}, {"lat": "50.883333", "city": "Heysel", "lon": "4.333333"}, {"lat": "50.716667", "city": "H\u00e8ze", "lon": "4.716667"}, {"lat": "50.733333", "city": "Himbeek", "lon": "4.033333"}, {"lat": "50.8", "city": "Hoef", "lon": "4.35"}, {"lat": "50.783333", "city": "Hoegaarden", "lon": "4.9"}, {"lat": "50.766667", "city": "Hoeilaart", "lon": "4.466667"}, {"lat": "50.733333", "city": "Hoek", "lon": "4.366667"}, {"lat": "50.983333", "city": "Hoeksken", "lon": "4.166667"}, {"lat": "50.866667", "city": "Hoeleden", "lon": "4.983333"}, {"lat": "50.75", "city": "Hoesnaak", "lon": "4.15"}, {"lat": "50.783333", "city": "Hoeve", "lon": "4.066667"}, {"lat": "50.766667", "city": "Hoeylaert", "lon": "4.466667"}, {"lat": "50.783333", "city": "Hoezenbroeck", "lon": "4.083333"}, {"lat": "50.783333", "city": "Hoezenbroek", "lon": "4.083333"}, {"lat": "50.966667", "city": "Hofheide", "lon": "4.833333"}, {"lat": "51", "city": "Hofstade", "lon": "4.5"}, {"lat": "50.883333", "city": "Hogen", "lon": "5.083333"}, {"lat": "50.8", "city": "Hoksem", "lon": "4.883333"}, {"lat": "50.983333", "city": "Holbeek", "lon": "4.216667"}, {"lat": "50.766667", "city": "Holland", "lon": "4.066667"}, {"lat": "50.766667", "city": "Hollebeek", "lon": "4.35"}, {"lat": "50.583333", "city": "Hollers", "lon": "4.533333"}, {"lat": "50.916667", "city": "Holsbeek", "lon": "4.75"}, {"lat": "51.016667", "city": "Homberg", "lon": "4.866667"}, {"lat": "50.983333", "city": "Hompelstraat", "lon": "4.9"}, {"lat": "50.716667", "city": "Hondzocht", "lon": "4.183333"}, {"lat": "50.8", "city": "Honsem", "lon": "4.816667"}, {"lat": "50.85", "city": "Hoogbutsel", "lon": "4.833333"}, {"lat": "50.983333", "city": "Hoogdonck", "lon": "4.733333"}, {"lat": "50.983333", "city": "Hoogdonk", "lon": "4.733333"}, {"lat": "50.883333", "city": "Hoogen", "lon": "5.083333"}, {"lat": "50.966667", "city": "Hoogland", "lon": "4.716667"}, {"lat": "50.983333", "city": "Hoogscharent", "lon": "4.666667"}, {"lat": "50.983333", "city": "Hooiberg", "lon": "4.6"}, {"lat": "50.883333", "city": "Hooring", "lon": "4.283333"}, {"lat": "50.883333", "city": "Horing", "lon": "4.283333"}, {"lat": "51.05", "city": "Hoste", "lon": "5.083333"}, {"lat": "50.616667", "city": "Hottomont", "lon": "4.883333"}, {"lat": "50.783333", "city": "Hougaerde", "lon": "4.9"}, {"lat": "50.65", "city": "Hou", "lon": "4.1"}, {"lat": "50.566667", "city": "Houlette", "lon": "4.483333"}, {"lat": "50.633333", "city": "Hourdenge", "lon": "4.25"}, {"lat": "50.583333", "city": "Houtain le Mont", "lon": "4.4"}, {"lat": "50.583333", "city": "Houtain-le-Val", "lon": "4.416667"}, {"lat": "50.716667", "city": "Houtain-l' Eveque", "lon": "5.083333"}, {"lat": "50.716667", "city": "Houtain-l'Eveque", "lon": "5.083333"}, {"lat": "51.033333", "city": "Houtekruis", "lon": "4.283333"}, {"lat": "50.95", "city": "Houtem", "lon": "4.466667"}, {"lat": "50.95", "city": "Houthem", "lon": "4.466667"}, {"lat": "50.933333", "city": "Houwaart", "lon": "4.85"}, {"lat": "50.95", "city": "Houwaartseberg", "lon": "4.866667"}, {"lat": "51", "city": "Hoxdonck", "lon": "4.366667"}, {"lat": "50.8", "city": "Hoxem", "lon": "4.883333"}, {"lat": "50.8", "city": "Hoxheim", "lon": "4.883333"}, {"lat": "50.933333", "city": "Huinhoven", "lon": "4.483333"}, {"lat": "50.75", "city": "Huizingen", "lon": "4.283333"}, {"lat": "50.783333", "city": "Huldenberg", "lon": "4.583333"}, {"lat": "50.633333", "city": "Huleu", "lon": "4.25"}, {"lat": "50.633333", "city": "Huleux", "lon": "4.25"}, {"lat": "50.9", "city": "Hulsbeek", "lon": "5.116667"}, {"lat": "50.9", "city": "Hulstbeek", "lon": "5.116667"}, {"lat": "50.883333", "city": "Hulst", "lon": "4.883333"}, {"lat": "50.966667", "city": "Humbeek", "lon": "4.383333"}, {"lat": "50.9", "city": "Humelgem", "lon": "4.5"}, {"lat": "50.9", "city": "Humelghem", "lon": "4.5"}, {"lat": "51.05", "city": "Hunberg", "lon": "5.083333"}, {"lat": "50.95", "city": "Hunsberg", "lon": "4.266667"}, {"lat": "50.816667", "city": "Hunsel", "lon": "4.116667"}, {"lat": "50.683333", "city": "Huppaye", "lon": "4.883333"}, {"lat": "50.566667", "city": "Hututu", "lon": "4.35"}, {"lat": "50.75", "city": "Huyssinghen", "lon": "4.283333"}, {"lat": "50.833333", "city": "IJsberg", "lon": "4.216667"}, {"lat": "50.883333", "city": "IJzerenberg", "lon": "4.65"}, {"lat": "50.8", "city": "IJzer", "lon": "4.55"}, {"lat": "50.966667", "city": "Impde", "lon": "4.3"}, {"lat": "50.85", "city": "Impegem", "lon": "4.066667"}, {"lat": "50.966667", "city": "Impe", "lon": "4.3"}, {"lat": "50.7", "city": "Inchebroux", "lon": "4.7"}, {"lat": "50.7", "city": "Incourt", "lon": "4.783333"}, {"lat": "50.983333", "city": "Ipsvoorde", "lon": "4.366667"}, {"lat": "50.833333", "city": "Itterbeek", "lon": "4.25"}, {"lat": "50.65", "city": "Itter", "lon": "4.266667"}, {"lat": "50.65", "city": "Ittre", "lon": "4.266667"}, {"lat": "50.683333", "city": "Jandrain", "lon": "4.983333"}, {"lat": "50.683333", "city": "Jandrain-Jandrenouille", "lon": "4.983333"}, {"lat": "50.65", "city": "Jandrenouille", "lon": "4.983333"}, {"lat": "50.683333", "city": "Jauche", "lon": "4.95"}, {"lat": "50.683333", "city": "Jauche la Marne", "lon": "4.983333"}, {"lat": "50.683333", "city": "Jauchelette", "lon": "4.85"}, {"lat": "50.616667", "city": "Jausselette", "lon": "4.833333"}, {"lat": "50.55", "city": "Jemer\u00e9e", "lon": "4.466667"}, {"lat": "50.6", "city": "J\u00e9rusalem", "lon": "4.366667"}, {"lat": "50.8", "city": "Jesus-Eik", "lon": "4.466667"}, {"lat": "50.6", "city": "Jeune Pioul", "lon": "4.433333"}, {"lat": "50.8", "city": "Jezus-Eik", "lon": "4.466667"}, {"lat": "50.7", "city": "Jodigne-Souveraine", "lon": "4.85"}, {"lat": "50.716667", "city": "Jodoigne", "lon": "4.866667"}, {"lat": "50.7", "city": "Jodoigne-Souveraine", "lon": "4.85"}, {"lat": "50.7", "city": "Joli Bois", "lon": "4.4"}, {"lat": "50.783333", "city": "Kaalheide", "lon": "4.566667"}, {"lat": "50.983333", "city": "Kaggevinne", "lon": "5.033333"}, {"lat": "50.783333", "city": "Kalevoet", "lon": "4.316667"}, {"lat": "50.783333", "city": "Kalheide", "lon": "4.566667"}, {"lat": "50.916667", "city": "Kalkhoven", "lon": "4.2"}, {"lat": "50.95", "city": "Kampelaar", "lon": "4.55"}, {"lat": "50.95", "city": "Kampenhout", "lon": "4.55"}, {"lat": "51.016667", "city": "Kapelle Bosch", "lon": "4.366667"}, {"lat": "50.983333", "city": "Kapelleken", "lon": "4.9"}, {"lat": "50.883333", "city": "Kapellen", "lon": "4.95"}, {"lat": "51.016667", "city": "Kapelle-op-den-Bosch", "lon": "4.366667"}, {"lat": "51.016667", "city": "Kapelle-op-den-Bos", "lon": "4.366667"}, {"lat": "50.85", "city": "Kapelleveld", "lon": "4.466667"}, {"lat": "50.95", "city": "Kapel Ter Spelt", "lon": "4.233333"}, {"lat": "50.85", "city": "Kapelveld", "lon": "4.466667"}, {"lat": "50.9", "city": "Kareelveld", "lon": "4.683333"}, {"lat": "50.683333", "city": "Kasteelbrakel", "lon": "4.266667"}, {"lat": "50.9", "city": "Kattebeek", "lon": "4.983333"}, {"lat": "50.866667", "city": "Kattebroeck", "lon": "4.266667"}, {"lat": "50.866667", "city": "Kattebroek", "lon": "4.266667"}, {"lat": "50.85", "city": "Kattem", "lon": "4.1"}, {"lat": "50.85", "city": "Kaudenjert", "lon": "4.283333"}, {"lat": "50.783333", "city": "Kauterstraat", "lon": "4.55"}, {"lat": "50.883333", "city": "Kautertaverent", "lon": "4.183333"}, {"lat": "51", "city": "Keerbergen", "lon": "4.616667"}, {"lat": "50.95", "city": "Keeskorf", "lon": "4.866667"}, {"lat": "50.8", "city": "Keiberg", "lon": "4.733333"}, {"lat": "50.716667", "city": "Keldergat", "lon": "4.3"}, {"lat": "50.833333", "city": "Kelegem", "lon": "4.2"}, {"lat": "50.95", "city": "Kelfs", "lon": "4.683333"}, {"lat": "50.833333", "city": "Kelle", "lon": "4.433333"}, {"lat": "50.833333", "city": "Kellen", "lon": "4.433333"}, {"lat": "50.966667", "city": "Kemmeken", "lon": "4.2"}, {"lat": "50.966667", "city": "Kemmeren", "lon": "4.2"}, {"lat": "50.916667", "city": "Kerkevinne", "lon": "5.016667"}, {"lat": "50.85", "city": "Kerkom", "lon": "4.866667"}, {"lat": "50.883333", "city": "Kersbeek", "lon": "5"}, {"lat": "50.883333", "city": "Kersbeek-Miscom", "lon": "5"}, {"lat": "50.883333", "city": "Kersbeek-Miskom", "lon": "5"}, {"lat": "50.966667", "city": "Kerselaren Dries", "lon": "4.416667"}, {"lat": "50.9", "city": "Kessel", "lon": "4.733333"}, {"lat": "50.9", "city": "Kessel-Lo", "lon": "4.75"}, {"lat": "50.9", "city": "Kessel-Loo", "lon": "4.75"}, {"lat": "50.75", "city": "Kesterbeek", "lon": "4.283333"}, {"lat": "50.766667", "city": "Kestergat", "lon": "4.15"}, {"lat": "50.766667", "city": "Kester", "lon": "4.116667"}, {"lat": "50.783333", "city": "Ketelheide", "lon": "4.533333"}, {"lat": "50.933333", "city": "Keulenstraat", "lon": "4.9"}, {"lat": "50.833333", "city": "Keurebeek", "lon": "4.15"}, {"lat": "50.983333", "city": "Keyberg", "lon": "4.95"}, {"lat": "50.9", "city": "Kiesegem", "lon": "4.9"}, {"lat": "50.9", "city": "Kieseghem", "lon": "4.9"}, {"lat": "50.9", "city": "Kiezegem", "lon": "4.9"}, {"lat": "50.683333", "city": "Klabbeek", "lon": "4.216667"}, {"lat": "50.85", "city": "Klapscheut", "lon": "4.15"}, {"lat": "50.983333", "city": "Kleempoel", "lon": "4.45"}, {"lat": "50.883333", "city": "Kleemputten", "lon": "4.083333"}, {"lat": "50.85", "city": "Klei", "lon": "4.116667"}, {"lat": "50.8", "city": "Klein Bijgaarden", "lon": "4.283333"}, {"lat": "50.733333", "city": "Kleindijk", "lon": "4.383333"}, {"lat": "50.766667", "city": "Kleine Haarding", "lon": "4.05"}, {"lat": "50.833333", "city": "Kleine Heide", "lon": "4.783333"}, {"lat": "50.766667", "city": "Kleine Hut", "lon": "4.366667"}, {"lat": "50.983333", "city": "Kleinelinde", "lon": "4.45"}, {"lat": "51.016667", "city": "Kleinen Haak", "lon": "4.983333"}, {"lat": "50.766667", "city": "Kleinen Haardinge", "lon": "4.05"}, {"lat": "50.766667", "city": "Kleinen-Haarding", "lon": "4.05"}, {"lat": "50.883333", "city": "Klein Geitenrodeveld", "lon": "5.05"}, {"lat": "50.933333", "city": "Klein Kempen", "lon": "4.983333"}, {"lat": "50.766667", "city": "Klein Overlaar", "lon": "4.9"}, {"lat": "50.8", "city": "Klein Sint-Job", "lon": "4.35"}, {"lat": "50.783333", "city": "Klein Waver", "lon": "4.583333"}, {"lat": "50.85", "city": "Kley", "lon": "4.116667"}, {"lat": "51", "city": "Kloosterbemden", "lon": "4.983333"}, {"lat": "50.916667", "city": "Kobbegem", "lon": "4.25"}, {"lat": "50.766667", "city": "Kockelberg", "lon": "4.066667"}, {"lat": "50.916667", "city": "Koeigat", "lon": "4.966667"}, {"lat": "50.833333", "city": "Koeiken", "lon": "4.216667"}, {"lat": "51.033333", "city": "Koeisteert", "lon": "4.3"}, {"lat": "50.833333", "city": "Koeivijver", "lon": "4.25"}, {"lat": "51.033333", "city": "Koestaart", "lon": "4.3"}, {"lat": "51.033333", "city": "Koestraat", "lon": "4.3"}, {"lat": "50.833333", "city": "Koevijver", "lon": "4.25"}, {"lat": "50.9", "city": "Koningslo", "lon": "4.366667"}, {"lat": "50.9", "city": "Koningsloo", "lon": "4.366667"}, {"lat": "50.85", "city": "Kooige", "lon": "4.55"}, {"lat": "50.966667", "city": "Koppendries", "lon": "4.366667"}, {"lat": "50.85", "city": "Korbeek-Dijle", "lon": "4.65"}, {"lat": "50.866667", "city": "Korbeek-Lo", "lon": "4.733333"}, {"lat": "50.866667", "city": "Korbeek-Loo", "lon": "4.733333"}, {"lat": "50.916667", "city": "Kortenaken", "lon": "5.066667"}, {"lat": "50.883333", "city": "Kortenberg", "lon": "4.533333"}, {"lat": "50.933333", "city": "Kortrijk-Dutsel", "lon": "4.8"}, {"lat": "50.833333", "city": "Koudenheerd", "lon": "4.183333"}, {"lat": "50.783333", "city": "Kouterstraat", "lon": "4.55"}, {"lat": "50.85", "city": "Kraaiberg", "lon": "4.75"}, {"lat": "50.85", "city": "Kraaien Berg", "lon": "4.75"}, {"lat": "50.85", "city": "Kraaienbroek", "lon": "4.266667"}, {"lat": "50.866667", "city": "Kraainem", "lon": "4.466667"}, {"lat": "51.016667", "city": "Kraai Venne", "lon": "4.6"}, {"lat": "50.733333", "city": "Krabbos", "lon": "4.283333"}, {"lat": "50.85", "city": "Krakelberg", "lon": "4.75"}, {"lat": "50.85", "city": "Krayen Berg", "lon": "4.75"}, {"lat": "50.95", "city": "Kreisberg", "lon": "4.85"}, {"lat": "50.85", "city": "Krekelberg", "lon": "4.75"}, {"lat": "50.95", "city": "Kriesberg", "lon": "4.85"}, {"lat": "50.916667", "city": "Krokegem", "lon": "4.183333"}, {"lat": "50.95", "city": "Kromveld", "lon": "5.016667"}, {"lat": "51.016667", "city": "Kruisberg", "lon": "5.1"}, {"lat": "51.033333", "city": "Kruisheide", "lon": "4.25"}, {"lat": "50.966667", "city": "Kruis", "lon": "4.383333"}, {"lat": "50.816667", "city": "Kumtich", "lon": "4.883333"}, {"lat": "50.833333", "city": "Kuregem", "lon": "4.333333"}, {"lat": "50.933333", "city": "Kutsegem", "lon": "4.533333"}, {"lat": "50.9", "city": "Kwadebrug", "lon": "4.133333"}, {"lat": "50.933333", "city": "Kwadenhoek", "lon": "4.733333"}, {"lat": "50.816667", "city": "Kwade Wegen", "lon": "4.2"}, {"lat": "50.716667", "city": "Kwaetem", "lon": "4"}, {"lat": "50.8", "city": "Kwakenbeek", "lon": "4.116667"}, {"lat": "50.716667", "city": "Kwatem", "lon": "4"}, {"lat": "51", "city": "Laaker Velden", "lon": "4.916667"}, {"lat": "50.75", "city": "Laarheide", "lon": "4.3"}, {"lat": "50.766667", "city": "Laar", "lon": "5.033333"}, {"lat": "50.666667", "city": "La Baraque", "lon": "4.633333"}, {"lat": "50.616667", "city": "La Basse-Fauquez", "lon": "4.25"}, {"lat": "50.633333", "city": "La Basse Hutte", "lon": "4.483333"}, {"lat": "50.666667", "city": "La Bouvr\u00e9e", "lon": "4.35"}, {"lat": "50.7", "city": "La Brire", "lon": "4.483333"}, {"lat": "50.633333", "city": "La Bruy\u00e8re", "lon": "4.466667"}, {"lat": "50.816667", "city": "La Cambre", "lon": "4.366667"}, {"lat": "50.583333", "city": "La Croisette", "lon": "4.483333"}, {"lat": "50.666667", "city": "Lacroix", "lon": "4.583333"}, {"lat": "50.866667", "city": "Laeken", "lon": "4.35"}, {"lat": "50.766667", "city": "Laer", "lon": "5.033333"}, {"lat": "50.6", "city": "La Falise", "lon": "4.483333"}, {"lat": "50.566667", "city": "La Gatte", "lon": "4.666667"}, {"lat": "50.65", "city": "La Genette", "lon": "4.15"}, {"lat": "50.566667", "city": "La Guenette", "lon": "4.316667"}, {"lat": "50.716667", "city": "Lahaie", "lon": "4.783333"}, {"lat": "50.7", "city": "La Haie", "lon": "4.566667"}, {"lat": "50.716667", "city": "Lahaye", "lon": "4.783333"}, {"lat": "50.7", "city": "La Haye", "lon": "4.566667"}, {"lat": "50.566667", "city": "La Houlette", "lon": "4.483333"}, {"lat": "50.733333", "city": "La Hulpe", "lon": "4.483333"}, {"lat": "50.65", "city": "La Hutte", "lon": "4.483333"}, {"lat": "50.666667", "city": "Laid Burgniaux", "lon": "4.65"}, {"lat": "50.666667", "city": "Laid Burniau", "lon": "4.65"}, {"lat": "50.666667", "city": "Laid-Burniaux", "lon": "4.65"}, {"lat": "50.866667", "city": "Laken", "lon": "4.35"}, {"lat": "51", "city": "Laker Velden", "lon": "4.916667"}, {"lat": "50.616667", "city": "Laloux", "lon": "4.516667"}, {"lat": "50.683333", "city": "La Marache", "lon": "4.433333"}, {"lat": "50.75", "city": "Lambais", "lon": "4.683333"}, {"lat": "50.55", "city": "Lambernioux", "lon": "4.5"}, {"lat": "50.55", "city": "Lambernoux", "lon": "4.5"}, {"lat": "50.716667", "city": "Lambert", "lon": "4.85"}, {"lat": "50.55", "city": "Lambiernoux", "lon": "4.5"}, {"lat": "50.8", "city": "La Mis\u00e8re", "lon": "4.766667"}, {"lat": "50.633333", "city": "La Motte", "lon": "4.533333"}, {"lat": "50.75", "city": "Landen", "lon": "5.083333"}, {"lat": "50.683333", "city": "Landuit", "lon": "4.283333"}, {"lat": "51", "city": "Langdorp", "lon": "4.866667"}, {"lat": "51.016667", "city": "Lange Bemden", "lon": "4.883333"}, {"lat": "51", "city": "Langerechte", "lon": "4.716667"}, {"lat": "50.833333", "city": "Langerode", "lon": "4.633333"}, {"lat": "50.916667", "city": "Langestraat", "lon": "4.1"}, {"lat": "50.816667", "city": "Langeveld", "lon": "4.366667"}, {"lat": "50.983333", "city": "Langstraat", "lon": "4.9"}, {"lat": "50.95", "city": "Langveldestraat", "lon": "4.183333"}, {"lat": "50.916667", "city": "Langveld", "lon": "4.733333"}, {"lat": "50.95", "city": "Langveldstraat", "lon": "4.183333"}, {"lat": "50.816667", "city": "La Plaine", "lon": "4.7"}, {"lat": "50.616667", "city": "La Roche", "lon": "4.533333"}, {"lat": "50.816667", "city": "La Ros\u00e9e", "lon": "4.733333"}, {"lat": "50.883333", "city": "La Rose", "lon": "4.766667"}, {"lat": "50.683333", "city": "Lasne-Chapelle-Saint-Lambert", "lon": "4.483333"}, {"lat": "50.716667", "city": "Lathuy", "lon": "4.833333"}, {"lat": "50.866667", "city": "Lat", "lon": "4.8"}, {"lat": "50.75", "city": "La Tombe", "lon": "4.633333"}, {"lat": "50.883333", "city": "Lawijn", "lon": "4.166667"}, {"lat": "50.883333", "city": "Lawyn", "lon": "4.166667"}, {"lat": "51", "city": "Lazarijberg", "lon": "5.05"}, {"lat": "51", "city": "Lazarijeberg", "lon": "5.05"}, {"lat": "51", "city": "Lazarijenberg", "lon": "5.05"}, {"lat": "50.833333", "city": "L\u00e9au", "lon": "5.1"}, {"lat": "50.6", "city": "Le Cerisier", "lon": "4.516667"}, {"lat": "50.816667", "city": "Le Chat", "lon": "4.35"}, {"lat": "50.633333", "city": "Le Chenois", "lon": "4.85"}, {"lat": "50.616667", "city": "Le Chenoy", "lon": "4.6"}, {"lat": "50.6", "city": "Le Ch\u00eate", "lon": "4.533333"}, {"lat": "50.733333", "city": "Le Clo\u00eetre", "lon": "4.033333"}, {"lat": "50.766667", "city": "L'Ecluse", "lon": "4.833333"}, {"lat": "50.583333", "city": "Le Culot", "lon": "4.566667"}, {"lat": "50.833333", "city": "Ledeberg", "lon": "4.083333"}, {"lat": "50.9", "city": "Ledeschevroente", "lon": "5.016667"}, {"lat": "50.9", "city": "Ledesevroente", "lon": "5.016667"}, {"lat": "50.883333", "city": "Ledigheid", "lon": "4.816667"}, {"lat": "50.666667", "city": "Le Doyen", "lon": "4.283333"}, {"lat": "50.85", "city": "Leefdaal", "lon": "4.583333"}, {"lat": "50.85", "city": "Leefdael", "lon": "4.583333"}, {"lat": "50.9", "city": "Leeming Berg", "lon": "4.733333"}, {"lat": "51", "city": "Leemkuilen", "lon": "4.683333"}, {"lat": "51", "city": "Leemkuylen", "lon": "4.683333"}, {"lat": "50.983333", "city": "Leemput", "lon": "4.6"}, {"lat": "50.866667", "city": "Leenhaage", "lon": "5.066667"}, {"lat": "50.866667", "city": "Leenhaag", "lon": "5.066667"}, {"lat": "50.866667", "city": "Leenhaeg", "lon": "5.066667"}, {"lat": "50.733333", "city": "Leenstraat", "lon": "4.05"}, {"lat": "50.766667", "city": "Leerbeek", "lon": "4.116667"}, {"lat": "50.783333", "city": "Leeuw-Saint-Pierre", "lon": "4.233333"}, {"lat": "50.6", "city": "Le Gh\u00eate", "lon": "4.533333"}, {"lat": "50.666667", "city": "Le Haumont", "lon": "4.333333"}, {"lat": "50.666667", "city": "Le Hautmont", "lon": "4.333333"}, {"lat": "50.566667", "city": "Le Hututu", "lon": "4.35"}, {"lat": "50.933333", "city": "Lelle", "lon": "4.533333"}, {"lat": "50.8", "city": "Le Logis", "lon": "4.4"}, {"lat": "50.7", "city": "Le Manil", "lon": "4.583333"}, {"lat": "50.75", "city": "Lembais", "lon": "4.683333"}, {"lat": "50.716667", "city": "Lembecq", "lon": "4.216667"}, {"lat": "50.716667", "city": "Lembeek", "lon": "4.216667"}, {"lat": "50.9", "city": "Lemingberg", "lon": "4.733333"}, {"lat": "50.9", "city": "Lemingsberg", "lon": "4.733333"}, {"lat": "50.916667", "city": "Lemmeken", "lon": "4.533333"}, {"lat": "50.616667", "city": "Le Mont", "lon": "4.816667"}, {"lat": "50.8", "city": "Lennick-Saint-Martin", "lon": "4.15"}, {"lat": "50.8", "city": "Lennick-Saint-Quentin", "lon": "4.15"}, {"lat": "50.8", "city": "Lennik", "lon": "4.15"}, {"lat": "50.6", "city": "Le Panier", "lon": "4.45"}, {"lat": "50.7", "city": "L'Epine", "lon": "4.133333"}, {"lat": "50.716667", "city": "Le Point du Jour", "lon": "4.583333"}, {"lat": "50.666667", "city": "Le Renard", "lon": "4.183333"}, {"lat": "50.633333", "city": "Lerinnes", "lon": "4.733333"}, {"lat": "50.666667", "city": "L'Ermitage", "lon": "4.283333"}, {"lat": "50.716667", "city": "L'Ermite", "lon": "4.35"}, {"lat": "50.65", "city": "Le Rossignol", "lon": "4.2"}, {"lat": "50.65", "city": "Le Ry", "lon": "4.133333"}, {"lat": "50.666667", "city": "Le Sacrement", "lon": "4.3"}, {"lat": "50.666667", "city": "Le Sacremont", "lon": "4.3"}, {"lat": "50.65", "city": "Le Sart", "lon": "4.233333"}, {"lat": "50.6", "city": "Les Baraques", "lon": "4.366667"}, {"lat": "50.65", "city": "Les Belles Pierres", "lon": "4.35"}, {"lat": "50.666667", "city": "Les Boign\u00e9es", "lon": "4.3"}, {"lat": "50.566667", "city": "Les Bois", "lon": "4.366667"}, {"lat": "50.683333", "city": "Les Bruy\u00e8res", "lon": "4.7"}, {"lat": "50.783333", "city": "Les Burettes", "lon": "4.783333"}, {"lat": "50.7", "city": "Les Chemins", "lon": "4.616667"}, {"lat": "50.6", "city": "Les Cinq \u00c9toiles", "lon": "4.75"}, {"lat": "50.566667", "city": "Les Communes", "lon": "4.6"}, {"lat": "50.666667", "city": "Les Cullus", "lon": "4.25"}, {"lat": "50.65", "city": "Les Culots", "lon": "4.333333"}, {"lat": "50.633333", "city": "Les dix Bonniers", "lon": "4.1"}, {"lat": "50.683333", "city": "Les \u00c9tats", "lon": "4.816667"}, {"lat": "50.6", "city": "Les \u00c9toiles", "lon": "4.75"}, {"lat": "50.65", "city": "Les Flamandes", "lon": "4.433333"}, {"lat": "50.75", "city": "Les Grands Pr\u00e9s", "lon": "4.65"}, {"lat": "50.633333", "city": "Les Haiettes", "lon": "4.666667"}, {"lat": "50.633333", "city": "Les Hayettes", "lon": "4.666667"}, {"lat": "50.683333", "city": "Les Manettes", "lon": "4.25"}, {"lat": "50.683333", "city": "Les Monts", "lon": "4.25"}, {"lat": "50.566667", "city": "Les Quatre Bras", "lon": "4.45"}, {"lat": "50.666667", "city": "Le Try", "lon": "4.533333"}, {"lat": "50.8", "city": "Letterbeek", "lon": "4.083333"}, {"lat": "50.85", "city": "Leutsberg", "lon": "4.733333"}, {"lat": "50.633333", "city": "Le Warichet", "lon": "4.833333"}, {"lat": "50.65", "city": "Libersart", "lon": "4.716667"}, {"lat": "50.733333", "city": "Libertange", "lon": "4.966667"}, {"lat": "50.866667", "city": "Liedekerke", "lon": "4.083333"}, {"lat": "50.65", "city": "Lillois-Witterz\u00e9e", "lon": "4.366667"}, {"lat": "50.7", "city": "Limal", "lon": "4.583333"}, {"lat": "50.65", "city": "Limauges", "lon": "4.533333"}, {"lat": "50.95", "city": "Limbosch", "lon": "4.35"}, {"lat": "50.95", "city": "Limbos", "lon": "4.35"}, {"lat": "50.683333", "city": "Limelette", "lon": "4.566667"}, {"lat": "50.65", "city": "Limoges", "lon": "4.533333"}, {"lat": "51", "city": "Linde", "lon": "4.283333"}, {"lat": "50.9", "city": "Linden", "lon": "4.766667"}, {"lat": "50.766667", "city": "Linkebeek", "lon": "4.333333"}, {"lat": "50.733333", "city": "Linsmeau", "lon": "5"}, {"lat": "50.733333", "city": "Linsmeel", "lon": "5"}, {"lat": "50.95", "city": "Linthout", "lon": "4.266667"}, {"lat": "50.95", "city": "Lint", "lon": "4.4"}, {"lat": "50.966667", "city": "Lipseveld", "lon": "4.65"}, {"lat": "50.933333", "city": "List", "lon": "4.55"}, {"lat": "50.883333", "city": "Lobergen", "lon": "4.75"}, {"lat": "50.833333", "city": "Loddershoek", "lon": "4.15"}, {"lat": "50.883333", "city": "Lo", "lon": "4.75"}, {"lat": "50.866667", "city": "Lombeek-Sainte-Catherine", "lon": "4.15"}, {"lat": "50.816667", "city": "Lombeke-Sainte-Marie", "lon": "4.1"}, {"lat": "50.583333", "city": "Lonc\u00e9e", "lon": "4.433333"}, {"lat": "51", "city": "Londerzeel", "lon": "4.3"}, {"lat": "50.733333", "city": "Long Tienne", "lon": "4.716667"}, {"lat": "50.7", "city": "Longueville", "lon": "4.733333"}, {"lat": "50.883333", "city": "Loo Bergen", "lon": "4.75"}, {"lat": "50.883333", "city": "Loo", "lon": "4.75"}, {"lat": "50.816667", "city": "Loonbeek", "lon": "4.6"}, {"lat": "50.933333", "city": "Loozen Hoek", "lon": "4.833333"}, {"lat": "51.016667", "city": "Loozenhoek", "lon": "4.7"}, {"lat": "50.766667", "city": "Loth", "lon": "4.266667"}, {"lat": "50.766667", "city": "Lot", "lon": "4.266667"}, {"lat": "50.6", "city": "Loupoigne", "lon": "4.433333"}, {"lat": "50.683333", "city": "Louvain-la-Neuve", "lon": "4.616667"}, {"lat": "50.7", "city": "Louvrange", "lon": "4.633333"}, {"lat": "50.883333", "city": "Louwijn", "lon": "4.166667"}, {"lat": "50.85", "city": "Lovenjoel", "lon": "4.783333"}, {"lat": "50.85", "city": "Lovenjoul", "lon": "4.783333"}, {"lat": "50.933333", "city": "Lozen Hoek", "lon": "4.833333"}, {"lat": "51.016667", "city": "Lozenhoek", "lon": "4.7"}, {"lat": "50.883333", "city": "Lubbeek", "lon": "4.833333"}, {"lat": "50.75", "city": "Lumay", "lon": "4.883333"}, {"lat": "50.966667", "city": "Luyk", "lon": "4.15"}, {"lat": "50.7", "city": "Maasdal", "lon": "4.25"}, {"lat": "50.916667", "city": "Machelen", "lon": "4.433333"}, {"lat": "50.75", "city": "Maison du Bois", "lon": "4.816667"}, {"lat": "50.65", "city": "Maison du Roi", "lon": "4.416667"}, {"lat": "50.75", "city": "Malaise", "lon": "4.516667"}, {"lat": "51.016667", "city": "Malderen", "lon": "4.25"}, {"lat": "50.75", "city": "Maleize", "lon": "4.516667"}, {"lat": "50.75", "city": "Maleizen", "lon": "4.516667"}, {"lat": "50.866667", "city": "Malendries", "lon": "4.85"}, {"lat": "50.733333", "city": "Malen", "lon": "4.833333"}, {"lat": "50.65", "city": "Mal\u00e8ves", "lon": "4.783333"}, {"lat": "50.65", "city": "Mal\u00e8ves-Sainte-Marie-Wastines", "lon": "4.783333"}, {"lat": "50.7", "city": "Malheide", "lon": "4.233333"}, {"lat": "50.7", "city": "Malheyde", "lon": "4.233333"}, {"lat": "50.633333", "city": "Malplaqu\u00e9e", "lon": "4.383333"}, {"lat": "50.7", "city": "Manil", "lon": "4.583333"}, {"lat": "50.983333", "city": "Mannenberg", "lon": "4.933333"}, {"lat": "50.95", "city": "Mansteen", "lon": "4.2"}, {"lat": "50.666667", "city": "Maransart", "lon": "4.45"}, {"lat": "50.55", "city": "Marbais", "lon": "4.516667"}, {"lat": "50.55", "city": "Marbias", "lon": "4.516667"}, {"lat": "50.716667", "city": "Maret", "lon": "5"}, {"lat": "50.7", "city": "Marilles", "lon": "4.95"}, {"lat": "50.6", "city": "Masville", "lon": "4.266667"}, {"lat": "51.016667", "city": "Mattestraat", "lon": "4.233333"}, {"lat": "50.716667", "city": "Maubreux", "lon": "4.5"}, {"lat": "50.716667", "city": "Maubroux", "lon": "4.5"}, {"lat": "50.666667", "city": "Maugras", "lon": "4.133333"}, {"lat": "50.95", "city": "Maxenzeel", "lon": "4.166667"}, {"lat": "50.95", "city": "Mazenzele", "lon": "4.166667"}, {"lat": "50.916667", "city": "Mazits", "lon": "4.1"}, {"lat": "50.9", "city": "Meensel-Kieseghem", "lon": "4.933333"}, {"lat": "50.9", "city": "Meensel-Kiezegem", "lon": "4.933333"}, {"lat": "50.9", "city": "Meensel", "lon": "4.933333"}, {"lat": "50.883333", "city": "Meerbeek", "lon": "4.6"}, {"lat": "50.966667", "city": "Meerbeeksche Hoek", "lon": "4.566667"}, {"lat": "50.966667", "city": "Meerbeeksehoek", "lon": "4.566667"}, {"lat": "50.75", "city": "Meerdorp", "lon": "4.266667"}, {"lat": "50.833333", "city": "Meeren", "lon": "4.75"}, {"lat": "50.9", "city": "Meerlenest", "lon": "4.95"}, {"lat": "50.9", "city": "Meerlennest", "lon": "4.95"}, {"lat": "50.783333", "city": "Meer", "lon": "4.816667"}, {"lat": "50.85", "city": "Meerschen", "lon": "4.066667"}, {"lat": "50.85", "city": "Meersen", "lon": "4.066667"}, {"lat": "51.016667", "city": "Meerstraat", "lon": "4.316667"}, {"lat": "50.916667", "city": "Meesberg", "lon": "4.75"}, {"lat": "50.75", "city": "Meigemheide", "lon": "4.316667"}, {"lat": "50.816667", "city": "Meilemeers", "lon": "4.266667"}, {"lat": "50.816667", "city": "Meilemersch", "lon": "4.266667"}, {"lat": "50.816667", "city": "Meilemers", "lon": "4.266667"}, {"lat": "50.933333", "city": "Meise", "lon": "4.333333"}, {"lat": "50.766667", "city": "Mekingen", "lon": "4.233333"}, {"lat": "50.816667", "city": "Melckweser", "lon": "5.066667"}, {"lat": "50.783333", "city": "Meldert", "lon": "4.833333"}, {"lat": "50.733333", "city": "M\u00e9lin", "lon": "4.833333"}, {"lat": "50.816667", "city": "Melkwezer", "lon": "5.066667"}, {"lat": "50.583333", "city": "Mellery", "lon": "4.566667"}, {"lat": "50.916667", "city": "Melsbroeck", "lon": "4.483333"}, {"lat": "50.916667", "city": "Melsbroek", "lon": "4.483333"}, {"lat": "50.683333", "city": "M\u00e9nil", "lon": "4.383333"}, {"lat": "50.833333", "city": "Merbeek", "lon": "4.766667"}, {"lat": "50.683333", "city": "Merbraine", "lon": "4.383333"}, {"lat": "50.966667", "city": "Merchtem", "lon": "4.233333"}, {"lat": "50.833333", "city": "Meren", "lon": "4.75"}, {"lat": "50.9", "city": "Merlenest", "lon": "4.95"}, {"lat": "50.833333", "city": "Merrbeek", "lon": "4.766667"}, {"lat": "50.833333", "city": "Merrebeek", "lon": "4.766667"}, {"lat": "51", "city": "Messelbroeck", "lon": "4.933333"}, {"lat": "51", "city": "Messelbroek", "lon": "4.933333"}, {"lat": "50.9", "city": "Meulen-Cauter", "lon": "4.233333"}, {"lat": "50.9", "city": "Meulenkouter", "lon": "4.233333"}, {"lat": "50.95", "city": "Meusegem", "lon": "4.283333"}, {"lat": "50.95", "city": "Meuseghem", "lon": "4.283333"}, {"lat": "50.933333", "city": "Meysse", "lon": "4.333333"}, {"lat": "51.016667", "city": "Middelbroek", "lon": "4.983333"}, {"lat": "50.75", "city": "Middeleers", "lon": "4.016667"}, {"lat": "50.75", "city": "Midden Hut", "lon": "4.383333"}, {"lat": "50.8", "city": "Mille", "lon": "4.75"}, {"lat": "50.733333", "city": "Minche", "lon": "4.883333"}, {"lat": "50.733333", "city": "Minge", "lon": "4.883333"}, {"lat": "50.9", "city": "Miscom", "lon": "5.016667"}, {"lat": "50.9", "city": "Miscum", "lon": "5.016667"}, {"lat": "50.9", "city": "Miskom", "lon": "5.016667"}, {"lat": "50.7", "city": "Molembais Saint-Josse", "lon": "4.883333"}, {"lat": "50.7", "city": "Molembais Saint-Pierre", "lon": "4.9"}, {"lat": "50.85", "city": "Molenbeek-Saint-Jean", "lon": "4.316667"}, {"lat": "50.916667", "city": "Molenbeek-Wersbeek", "lon": "4.95"}, {"lat": "50.766667", "city": "Molenberg", "lon": "4.466667"}, {"lat": "50.816667", "city": "Molendaal", "lon": "4.766667"}, {"lat": "50.816667", "city": "Molendael", "lon": "4.766667"}, {"lat": "51.016667", "city": "Molenhoek", "lon": "4.333333"}, {"lat": "50.933333", "city": "Molenkouter", "lon": "4.333333"}, {"lat": "50.95", "city": "Molen", "lon": "4.7"}, {"lat": "51", "city": "Molenstedebroek", "lon": "5"}, {"lat": "51", "city": "Molenstede", "lon": "5.016667"}, {"lat": "50.816667", "city": "Molensteen", "lon": "4.8"}, {"lat": "50.933333", "city": "Molhem", "lon": "4.233333"}, {"lat": "50.933333", "city": "Mollem", "lon": "4.233333"}, {"lat": "50.816667", "city": "Mollendaal", "lon": "4.766667"}, {"lat": "50.816667", "city": "Mollendel", "lon": "4.766667"}, {"lat": "50.533333", "city": "Monceau de Berger", "lon": "4.516667"}, {"lat": "50.533333", "city": "Monceau du Berger", "lon": "4.516667"}, {"lat": "50.633333", "city": "Monplaisir", "lon": "4.216667"}, {"lat": "50.6", "city": "Monstreux", "lon": "4.283333"}, {"lat": "50.983333", "city": "Montaigu", "lon": "4.983333"}, {"lat": "50.75", "city": "Mont \u00e0 Lumay", "lon": "4.883333"}, {"lat": "50.966667", "city": "Montenaaken", "lon": "4.916667"}, {"lat": "50.966667", "city": "Montenaken", "lon": "4.916667"}, {"lat": "50.9", "city": "Montil", "lon": "4.133333"}, {"lat": "50.633333", "city": "Mont Plaisir", "lon": "4.216667"}, {"lat": "50.716667", "city": "Montplaisir", "lon": "4.116667"}, {"lat": "50.65", "city": "Mont-Saint-Andr\u00e9", "lon": "4.866667"}, {"lat": "50.633333", "city": "Mont-Saint-Guibert", "lon": "4.616667"}, {"lat": "50.683333", "city": "Mont Saint-Jean", "lon": "4.4"}, {"lat": "50.866667", "city": "Mont-Saint-Martin", "lon": "4.833333"}, {"lat": "50.7", "city": "Mont Saint-Pierre", "lon": "4.85"}, {"lat": "50.7", "city": "Mont Saint-Pont", "lon": "4.366667"}, {"lat": "51.016667", "city": "Moorhoek", "lon": "4.283333"}, {"lat": "50.85", "city": "Moorsel", "lon": "4.533333"}, {"lat": "51", "city": "Moorsem", "lon": "4.783333"}, {"lat": "51", "city": "Moorsom", "lon": "4.783333"}, {"lat": "50.85", "city": "Moortebeek", "lon": "4.283333"}, {"lat": "50.716667", "city": "Morsain", "lon": "4.7"}, {"lat": "50.716667", "city": "Morsaint", "lon": "4.7"}, {"lat": "50.95", "city": "Mortels Rot", "lon": "4.816667"}, {"lat": "51", "city": "Mosvenne", "lon": "4.666667"}, {"lat": "50.916667", "city": "Motbroek", "lon": "4.883333"}, {"lat": "50.916667", "city": "Mothoek", "lon": "4.883333"}, {"lat": "50.95", "city": "Mot", "lon": "4.433333"}, {"lat": "50.983333", "city": "Motte", "lon": "4.866667"}, {"lat": "50.666667", "city": "Mousty", "lon": "4.55"}, {"lat": "50.9", "city": "Moutil", "lon": "4.133333"}, {"lat": "50.916667", "city": "Muggenberg", "lon": "4.95"}, {"lat": "50.733333", "city": "Muilebeek", "lon": "3.983333"}, {"lat": "51", "city": "Muisenstraat", "lon": "4.5"}, {"lat": "51.016667", "city": "Muizen", "lon": "4.516667"}, {"lat": "51", "city": "Muizenstraat", "lon": "4.5"}, {"lat": "50.716667", "city": "Mussain", "lon": "4.15"}, {"lat": "50.9", "city": "Mutsaard", "lon": "4.366667"}, {"lat": "51.016667", "city": "Muysen", "lon": "4.516667"}, {"lat": "50.683333", "city": "Naarmonts", "lon": "4.2"}, {"lat": "50.733333", "city": "Nachtegaal", "lon": "4.266667"}, {"lat": "50.966667", "city": "Nanove", "lon": "4.2"}, {"lat": "50.683333", "city": "Narmonts", "lon": "4.2"}, {"lat": "50.716667", "city": "Nattendries", "lon": "4.05"}, {"lat": "50.683333", "city": "Nederand", "lon": "4.233333"}, {"lat": "50.9", "city": "Nederheembeek", "lon": "4.383333"}, {"lat": "50.916667", "city": "Neder-Ockerzeel", "lon": "4.566667"}, {"lat": "50.916667", "city": "Nederokkerzeel", "lon": "4.566667"}, {"lat": "50.9", "city": "Neder-Over-Heembeek", "lon": "4.383333"}, {"lat": "50.9", "city": "Neder-Over-Hembeek", "lon": "4.383333"}, {"lat": "50.883333", "city": "Neeralfene", "lon": "4.183333"}, {"lat": "50.8", "city": "Neerbuesinghen", "lon": "4.133333"}, {"lat": "50.8", "city": "Neerbuizingen", "lon": "4.133333"}, {"lat": "50.85", "city": "Neerbutsel", "lon": "4.866667"}, {"lat": "50.75", "city": "Neerdorp", "lon": "4.266667"}, {"lat": "50.883333", "city": "Neerhalfen", "lon": "4.183333"}, {"lat": "51.033333", "city": "Neerhavert", "lon": "4.3"}, {"lat": "50.8", "city": "Neerhespen", "lon": "5.05"}, {"lat": "50.75", "city": "Neerheylissem", "lon": "4.983333"}, {"lat": "50.816667", "city": "Neerijsche", "lon": "4.616667"}, {"lat": "50.816667", "city": "Neerijse", "lon": "4.616667"}, {"lat": "50.783333", "city": "Neerlanden", "lon": "5.083333"}, {"lat": "50.833333", "city": "Neerlinter", "lon": "5.033333"}, {"lat": "50.816667", "city": "Neerpede", "lon": "4.266667"}, {"lat": "50.766667", "city": "Neerpoorten", "lon": "4.6"}, {"lat": "50.8", "city": "Neerstalle", "lon": "4.3"}, {"lat": "50.816667", "city": "Neervelp", "lon": "4.816667"}, {"lat": "50.766667", "city": "Neerwinden", "lon": "5.05"}, {"lat": "50.816667", "city": "Neeryssche", "lon": "4.616667"}, {"lat": "50.883333", "city": "Neer-Zellick", "lon": "4.283333"}, {"lat": "50.883333", "city": "Neer Zellik", "lon": "4.283333"}, {"lat": "50.75", "city": "Nemerkendries", "lon": "4"}, {"lat": "50.683333", "city": "Nen Sart", "lon": "4.633333"}, {"lat": "50.883333", "city": "Nerhalfen", "lon": "4.183333"}, {"lat": "50.95", "city": "Neringe", "lon": "4.866667"}, {"lat": "50.95", "city": "Neringhe", "lon": "4.866667"}, {"lat": "50.766667", "city": "Nering", "lon": "4.3"}, {"lat": "50.766667", "city": "Nerm", "lon": "4.866667"}, {"lat": "50.983333", "city": "Nerom", "lon": "4.333333"}, {"lat": "50.9", "city": "Netelzeep", "lon": "4.966667"}, {"lat": "50.783333", "city": "Nethen", "lon": "4.683333"}, {"lat": "50.683333", "city": "Neuf Sart", "lon": "4.633333"}, {"lat": "50.683333", "city": "Neuville", "lon": "4.366667"}, {"lat": "50.683333", "city": "Nid\u00e9rand", "lon": "4.233333"}, {"lat": "50.683333", "city": "Nid\u00e9rant", "lon": "4.233333"}, {"lat": "50.683333", "city": "Niderhand", "lon": "4.233333"}, {"lat": "50.9", "city": "Nieuwdorp", "lon": "5.1"}, {"lat": "50.983333", "city": "Nieuwenrode", "lon": "4.35"}, {"lat": "50.983333", "city": "Nieuwland", "lon": "4.8"}, {"lat": "50.95", "city": "Nieuwrhode", "lon": "4.833333"}, {"lat": "50.95", "city": "Nieuwrode", "lon": "4.833333"}, {"lat": "50.6", "city": "Nijvel", "lon": "4.333333"}, {"lat": "50.966667", "city": "Nijverzeel", "lon": "4.166667"}, {"lat": "50.633333", "city": "Nil Abbesse", "lon": "4.666667"}, {"lat": "50.633333", "city": "Nil Pierreux", "lon": "4.65"}, {"lat": "50.65", "city": "Nil Saint-Martin", "lon": "4.683333"}, {"lat": "50.65", "city": "Nil Saint-Vincent", "lon": "4.683333"}, {"lat": "50.65", "city": "Nil-Saint-Vincent", "lon": "4.683333"}, {"lat": "50.65", "city": "Nil-Saint-Vincent-Saint-Martin", "lon": "4.683333"}, {"lat": "50.816667", "city": "Ninave", "lon": "4.783333"}, {"lat": "51", "city": "Ninde", "lon": "4.683333"}, {"lat": "50.6", "city": "Nivelles", "lon": "4.333333"}, {"lat": "50.766667", "city": "Nodebais", "lon": "4.733333"}, {"lat": "50.7", "city": "Nodrenge", "lon": "4.933333"}, {"lat": "50.733333", "city": "Noduwez", "lon": "4.966667"}, {"lat": "50.633333", "city": "Noirhat", "lon": "4.533333"}, {"lat": "50.6", "city": "Noirmont", "lon": "4.65"}, {"lat": "50.983333", "city": "Nopstal", "lon": "4.866667"}, {"lat": "50.883333", "city": "Nossegem", "lon": "4.5"}, {"lat": "50.883333", "city": "Nosseghem", "lon": "4.5"}, {"lat": "50.8", "city": "Notre-Dame au Bois", "lon": "4.466667"}, {"lat": "50.616667", "city": "Noville-sur-M\u00e9haigne", "lon": "4.9"}, {"lat": "50.683333", "city": "Ocqui\u00e8re", "lon": "4.666667"}, {"lat": "50.7", "city": "Odeghien", "lon": "4.333333"}, {"lat": "50.7", "city": "Odrimont", "lon": "4.466667"}, {"lat": "50.766667", "city": "Oetingen", "lon": "4.066667"}, {"lat": "50.766667", "city": "Oetinghen", "lon": "4.066667"}, {"lat": "50.65", "city": "Offus", "lon": "4.916667"}, {"lat": "50.7", "city": "Ohain", "lon": "4.466667"}, {"lat": "50.8", "city": "Oirbeek", "lon": "4.9"}, {"lat": "50.666667", "city": "Oisquercq", "lon": "4.216667"}, {"lat": "51", "city": "Oksdonk", "lon": "4.366667"}, {"lat": "51.033333", "city": "Okselaar", "lon": "5"}, {"lat": "50.916667", "city": "Olmenhoek", "lon": "4.583333"}, {"lat": "50.816667", "city": "Onze-Lieve-Vrouw-Lombeek", "lon": "4.1"}, {"lat": "50.8", "city": "Oorbeek", "lon": "4.9"}, {"lat": "50.866667", "city": "Oosthoek", "lon": "4.2"}, {"lat": "50.666667", "city": "Oostkerk", "lon": "4.216667"}, {"lat": "50.8", "city": "Opbeek", "lon": "4.216667"}, {"lat": "50.7", "city": "Opgeldenaken", "lon": "4.85"}, {"lat": "50.666667", "city": "Ophain-Bois-Seigneur-Isaac", "lon": "4.35"}, {"lat": "50.666667", "city": "Ophain", "lon": "4.35"}, {"lat": "50.866667", "city": "Ophalfen", "lon": "4.2"}, {"lat": "50.833333", "city": "Ophem", "lon": "4.483333"}, {"lat": "50.75", "city": "Opheylissem", "lon": "4.983333"}, {"lat": "50.766667", "city": "Op Linkebeek", "lon": "4.35"}, {"lat": "50.833333", "city": "Oplinter", "lon": "4.983333"}, {"lat": "50.8", "city": "Oplombeek", "lon": "4.116667"}, {"lat": "50.833333", "city": "Oppem", "lon": "4.483333"}, {"lat": "50.816667", "city": "Opperbuesinghen", "lon": "4.133333"}, {"lat": "50.816667", "city": "Opperbuizingen", "lon": "4.133333"}, {"lat": "50.816667", "city": "Opperbuzingen", "lon": "4.133333"}, {"lat": "50.866667", "city": "Opperstraat", "lon": "4.1"}, {"lat": "50.683333", "city": "Opprebais", "lon": "4.8"}, {"lat": "50.816667", "city": "Opvelp", "lon": "4.8"}, {"lat": "50.966667", "city": "Opwijk", "lon": "4.183333"}, {"lat": "50.966667", "city": "Opwyck", "lon": "4.183333"}, {"lat": "50.633333", "city": "Orbais", "lon": "4.766667"}, {"lat": "50.7", "city": "Orp-le-Grand", "lon": "5"}, {"lat": "50.7", "city": "Orp-le-Petit", "lon": "4.983333"}, {"lat": "50.8", "city": "Orsmaal-Gussenhoven", "lon": "5.066667"}, {"lat": "50.8", "city": "Orsmaal", "lon": "5.066667"}, {"lat": "50.8", "city": "Orsmael-Gussenhoven", "lon": "5.066667"}, {"lat": "50.6", "city": "Osage", "lon": "4.416667"}, {"lat": "50.85", "city": "Ossegem", "lon": "4.3"}, {"lat": "50.85", "city": "Osseghem", "lon": "4.3"}, {"lat": "50.916667", "city": "Ossel", "lon": "4.283333"}, {"lat": "50.95", "city": "Ossenberg", "lon": "4.933333"}, {"lat": "50.85", "city": "Ossenweg", "lon": "5.133333"}, {"lat": "50.75", "city": "Ottenbourg", "lon": "4.616667"}, {"lat": "50.75", "city": "Ottenburg", "lon": "4.616667"}, {"lat": "50.666667", "city": "Ottignies", "lon": "4.566667"}, {"lat": "50.866667", "city": "Oude Baan", "lon": "4.5"}, {"lat": "50.783333", "city": "Oudenaken", "lon": "4.2"}, {"lat": "50.966667", "city": "Oudenbosch", "lon": "4.9"}, {"lat": "50.966667", "city": "Ouden Bos", "lon": "4.9"}, {"lat": "51", "city": "Oudenstok", "lon": "4.9"}, {"lat": "50.966667", "city": "Ouden Wippendries", "lon": "4.5"}, {"lat": "50.783333", "city": "Oude Plaats", "lon": "4.083333"}, {"lat": "50.833333", "city": "Oud-Heverlee", "lon": "4.666667"}, {"lat": "50.766667", "city": "Outgaarden", "lon": "4.916667"}, {"lat": "50.883333", "city": "Ouwijk", "lon": "4.133333"}, {"lat": "50.883333", "city": "Overbeek", "lon": "5.1"}, {"lat": "50.983333", "city": "Over de Beek", "lon": "4.283333"}, {"lat": "50.966667", "city": "Over de Vaart", "lon": "4.6"}, {"lat": "50.866667", "city": "Overdorp", "lon": "4.133333"}, {"lat": "50.9", "city": "Overheembeek", "lon": "4.366667"}, {"lat": "50.8", "city": "Overhespen", "lon": "5.033333"}, {"lat": "50.766667", "city": "Overijase", "lon": "4.533333"}, {"lat": "50.766667", "city": "Overijsche", "lon": "4.533333"}, {"lat": "50.766667", "city": "Overijse", "lon": "4.533333"}, {"lat": "50.783333", "city": "Overlaar", "lon": "4.916667"}, {"lat": "50.783333", "city": "Overlaer", "lon": "4.916667"}, {"lat": "50.883333", "city": "Overnellen", "lon": "4.15"}, {"lat": "50.883333", "city": "Overnelle", "lon": "4.15"}, {"lat": "50.75", "city": "Overwinden", "lon": "5.05"}, {"lat": "50.766667", "city": "Overyssche", "lon": "4.533333"}, {"lat": "51", "city": "Oxdonck", "lon": "4.366667"}, {"lat": "51", "city": "Oxdonk", "lon": "4.366667"}, {"lat": "51.033333", "city": "Oxelaer", "lon": "5"}, {"lat": "50.983333", "city": "Paar", "lon": "4.716667"}, {"lat": "50.716667", "city": "Pachy", "lon": "4.383333"}, {"lat": "50.933333", "city": "Paddebroeken", "lon": "4.2"}, {"lat": "50.633333", "city": "Pallandt", "lon": "4.516667"}, {"lat": "50.833333", "city": "Pamel", "lon": "4.066667"}, {"lat": "50.85", "city": "Pamelsche", "lon": "4.066667"}, {"lat": "50.85", "city": "Pamelse", "lon": "4.066667"}, {"lat": "50.6", "city": "Panier", "lon": "4.45"}, {"lat": "50.866667", "city": "Panisborne", "lon": "5.066667"}, {"lat": "50.95", "city": "Papenbroek", "lon": "5.05"}, {"lat": "50.683333", "city": "Paradis", "lon": "4.366667"}, {"lat": "50.866667", "city": "Parck", "lon": "4.7"}, {"lat": "50.866667", "city": "Parc", "lon": "4.7"}, {"lat": "50.866667", "city": "Parcq", "lon": "4.7"}, {"lat": "50.966667", "city": "Parelsberg", "lon": "5.05"}, {"lat": "50.866667", "city": "Park", "lon": "4.7"}, {"lat": "50.75", "city": "Patatestraat", "lon": "4.116667"}, {"lat": "50.7", "city": "Paudure", "lon": "4.316667"}, {"lat": "50.55", "city": "Pav\u00e9", "lon": "4.483333"}, {"lat": "50.666667", "city": "Payot", "lon": "4.45"}, {"lat": "50.766667", "city": "Pecrot Chauss\u00e9e", "lon": "4.65"}, {"lat": "50.783333", "city": "Pecrot", "lon": "4.65"}, {"lat": "50.833333", "city": "Pede-Sainte-Anne", "lon": "4.233333"}, {"lat": "50.833333", "city": "Pede-Sainte-Gertrude", "lon": "4.2"}, {"lat": "50.983333", "city": "Peervenshoek", "lon": "4.65"}, {"lat": "50.983333", "city": "Peisegem", "lon": "4.233333"}, {"lat": "50.866667", "city": "Pellenberg", "lon": "4.8"}, {"lat": "50.983333", "city": "Peltheide", "lon": "4.633333"}, {"lat": "50.75", "city": "Pepingen", "lon": "4.15"}, {"lat": "50.75", "city": "Pepinghen", "lon": "4.15"}, {"lat": "50.85", "city": "Pepinisfort", "lon": "4.966667"}, {"lat": "50.85", "city": "Pepinusfort", "lon": "4.966667"}, {"lat": "50.6", "city": "Perbais", "lon": "4.666667"}, {"lat": "50.933333", "city": "Perck", "lon": "4.5"}, {"lat": "50.933333", "city": "Perk", "lon": "4.5"}, {"lat": "50.616667", "city": "Perwez", "lon": "4.816667"}, {"lat": "50.616667", "city": "Perwijs", "lon": "4.816667"}, {"lat": "50.8", "city": "Petit-Bigard", "lon": "4.283333"}, {"lat": "50.616667", "city": "Petit Chenoy", "lon": "4.583333"}, {"lat": "50.766667", "city": "Petite Espinette", "lon": "4.366667"}, {"lat": "50.766667", "city": "Petit-Overlaer", "lon": "4.9"}, {"lat": "50.716667", "city": "Petit Paris", "lon": "4.4"}, {"lat": "50.65", "city": "Petit Rosi\u00e8re", "lon": "4.866667"}, {"lat": "50.733333", "city": "Petrem", "lon": "4.916667"}, {"lat": "50.933333", "city": "Peuthy", "lon": "4.45"}, {"lat": "50.933333", "city": "Peutie", "lon": "4.45"}, {"lat": "50.65", "city": "Pierreux", "lon": "4.116667"}, {"lat": "50.666667", "city": "Pierroy", "lon": "4.916667"}, {"lat": "50.866667", "city": "Pietersberg", "lon": "4.733333"}, {"lat": "50.733333", "city": "Pi\u00e9train", "lon": "4.916667"}, {"lat": "50.733333", "city": "Pi\u00e9trebais", "lon": "4.75"}, {"lat": "50.733333", "city": "Pi\u00e9tremau", "lon": "4.933333"}, {"lat": "50.733333", "city": "Pi\u00e9tremeau", "lon": "4.933333"}, {"lat": "50.866667", "city": "Pijnegem", "lon": "4.083333"}, {"lat": "50.683333", "city": "Pinchart", "lon": "4.533333"}, {"lat": "50.55", "city": "Piraumont", "lon": "4.466667"}, {"lat": "50.55", "city": "Pireaumont", "lon": "4.466667"}, {"lat": "50.666667", "city": "Plancenoit", "lon": "4.433333"}, {"lat": "50.683333", "city": "Planche au P\u00eacheur", "lon": "4.366667"}, {"lat": "51.033333", "city": "Plankebrug", "lon": "4.8"}, {"lat": "50.85", "city": "Planken", "lon": "4.2"}, {"lat": "50.95", "city": "Plantbosch", "lon": "5.016667"}, {"lat": "50.95", "city": "Plantbos", "lon": "5.016667"}, {"lat": "50.966667", "city": "Plas Bosch", "lon": "4.933333"}, {"lat": "50.966667", "city": "Plas Bos", "lon": "4.933333"}, {"lat": "50.883333", "city": "Pleyn", "lon": "4.8"}, {"lat": "51", "city": "Pluimenest", "lon": "4.283333"}, {"lat": "51", "city": "Pluimennest", "lon": "4.283333"}, {"lat": "50.75", "city": "Plutsingen", "lon": "4.116667"}, {"lat": "50.833333", "city": "Poelk", "lon": "4.083333"}, {"lat": "50.9", "city": "Poel", "lon": "4.233333"}, {"lat": "50.716667", "city": "Point du Jour", "lon": "4.583333"}, {"lat": "50.616667", "city": "Ponceau", "lon": "4.766667"}, {"lat": "50.95", "city": "Pont-Br\u00fbl\u00e9", "lon": "4.416667"}, {"lat": "50.833333", "city": "Poulck", "lon": "4.083333"}, {"lat": "50.833333", "city": "Poulek", "lon": "4.083333"}, {"lat": "50.833333", "city": "Poulk", "lon": "4.083333"}, {"lat": "50.816667", "city": "Praeghe", "lon": "4.683333"}, {"lat": "50.816667", "city": "Prage", "lon": "4.683333"}, {"lat": "50.866667", "city": "Predikheeren Berg", "lon": "4.733333"}, {"lat": "50.866667", "city": "Predikherenberg", "lon": "4.733333"}, {"lat": "50.7", "city": "Profondsart", "lon": "4.55"}, {"lat": "50.7", "city": "Profonsart", "lon": "4.55"}, {"lat": "50.616667", "city": "Promelles", "lon": "4.4"}, {"lat": "50.666667", "city": "Puces", "lon": "4.533333"}, {"lat": "50.65", "city": "Puhain", "lon": "4.133333"}, {"lat": "50.9", "city": "Pulleweide", "lon": "4.133333"}, {"lat": "50.9", "city": "Pullewijde", "lon": "4.133333"}, {"lat": "50.933333", "city": "Putkapel", "lon": "4.716667"}, {"lat": "50.983333", "city": "Puttekomheide", "lon": "4.616667"}, {"lat": "50.833333", "city": "Puttenberg", "lon": "4.066667"}, {"lat": "50.866667", "city": "Pynegem", "lon": "4.083333"}, {"lat": "50.8", "city": "Quakenbeek", "lon": "4.116667"}, {"lat": "50.7", "city": "Quarante Bonniers", "lon": "4.283333"}, {"lat": "50.666667", "city": "Quenast", "lon": "4.15"}, {"lat": "50.683333", "city": "Quenestine", "lon": "4.15"}, {"lat": "50.7", "city": "Radoux", "lon": "4.116667"}, {"lat": "50.833333", "city": "Rafelberg", "lon": "4.6"}, {"lat": "50.833333", "city": "Raffelberg", "lon": "4.6"}, {"lat": "50.633333", "city": "Ramillies-Offus", "lon": "4.916667"}, {"lat": "51.016667", "city": "Ramsdonck", "lon": "4.333333"}, {"lat": "51.016667", "city": "Ramsdonk", "lon": "4.333333"}, {"lat": "50.7", "city": "Ransb\u00eache", "lon": "4.433333"}, {"lat": "50.883333", "city": "Ransberg", "lon": "5.05"}, {"lat": "50.9", "city": "Rasselhoek", "lon": "4.283333"}, {"lat": "50.833333", "city": "Ratelberg", "lon": "4.6"}, {"lat": "50.8", "city": "Rattenberg", "lon": "4.583333"}, {"lat": "50.8", "city": "Rattendaal", "lon": "4.25"}, {"lat": "50.8", "city": "Rattendael", "lon": "4.25"}, {"lat": "50.85", "city": "Rattendriesch", "lon": "4.116667"}, {"lat": "50.85", "city": "Rattendries", "lon": "4.116667"}, {"lat": "50.666667", "city": "Rebecq-Rognon", "lon": "4.133333"}, {"lat": "50.816667", "city": "Redingen", "lon": "4.833333"}, {"lat": "50.9", "city": "Reiserenvroente", "lon": "5.033333"}, {"lat": "50.9", "city": "Relegem", "lon": "4.283333"}, {"lat": "50.9", "city": "Releghem", "lon": "4.283333"}, {"lat": "50.95", "city": "Relst", "lon": "4.583333"}, {"lat": "50.666667", "city": "Renard", "lon": "4.183333"}, {"lat": "50.683333", "city": "Renaux Foss\u00e9", "lon": "4.95"}, {"lat": "50.716667", "city": "Rendries", "lon": "4.016667"}, {"lat": "50.683333", "city": "Reneau-Foss\u00e9", "lon": "4.95"}, {"lat": "50.7", "city": "Renipont", "lon": "4.5"}, {"lat": "50.683333", "city": "Renival", "lon": "4.483333"}, {"lat": "50.683333", "city": "Renivaux", "lon": "4.483333"}, {"lat": "50.95", "city": "Rest", "lon": "4.916667"}, {"lat": "50.75", "city": "Reutenbeek", "lon": "4.533333"}, {"lat": "50.9", "city": "Reyserenvroente", "lon": "5.033333"}, {"lat": "50.883333", "city": "Rhode", "lon": "4.933333"}, {"lat": "50.966667", "city": "Rhode-Saint-Brice", "lon": "4.333333"}, {"lat": "50.966667", "city": "Rhode-Saint-Brixhe", "lon": "4.333333"}, {"lat": "50.783333", "city": "Rhode-Sainte-Agathe", "lon": "4.633333"}, {"lat": "50.75", "city": "Rhode-Saint-Gen\u00e8se", "lon": "4.35"}, {"lat": "50.933333", "city": "Rhode-Saint-Pierre", "lon": "4.816667"}, {"lat": "50.583333", "city": "Ri d'Hez", "lon": "4.5"}, {"lat": "50.916667", "city": "Rigel", "lon": "5.066667"}, {"lat": "50.566667", "city": "Rigen\u00e9e", "lon": "4.516667"}, {"lat": "50.566667", "city": "Rigene", "lon": "4.516667"}, {"lat": "50.966667", "city": "Rijkenhoek", "lon": "4.433333"}, {"lat": "50.883333", "city": "Rijmelgem", "lon": "4.45"}, {"lat": "50.933333", "city": "Rijnrode", "lon": "5.033333"}, {"lat": "50.966667", "city": "Rillaar", "lon": "4.9"}, {"lat": "50.966667", "city": "Rillaer", "lon": "4.9"}, {"lat": "50.716667", "city": "Rilroheide", "lon": "4.3"}, {"lat": "50.683333", "city": "Ripain", "lon": "4.183333"}, {"lat": "50.716667", "city": "Rixensart", "lon": "4.533333"}, {"lat": "50.583333", "city": "Riz d'Hez", "lon": "4.5"}, {"lat": "50.933333", "city": "Robbesrode", "lon": "4.95"}, {"lat": "50.85", "city": "Rodebeek", "lon": "4.433333"}, {"lat": "51.016667", "city": "Rodeberg", "lon": "4.95"},