{"BH": {"02": [{"lat": "26.2172222", "city": "Al `Adliyah", "lon": "50.5405556"}, {"lat": "26.2105556", "city": "Al-Djufayr", "lon": "50.6116667"}, {"lat": "26.2230556", "city": "Al Jabalah", "lon": "50.5497222"}, {"lat": "26.2105556", "city": "Al Jufayr", "lon": "50.6116667"}, {"lat": "26.2361111", "city": "Al Manama", "lon": "50.5830556"}, {"lat": "26.2361111", "city": "Al Manamah", "lon": "50.5830556"}, {"lat": "26.2155556", "city": "As Salihiyah", "lon": "50.55"}, {"lat": "26.2152778", "city": "Az Zinj", "lon": "50.5641667"}, {"lat": "26.2116667", "city": "Bilad al-Kadim", "lon": "50.5619444"}, {"lat": "26.2116667", "city": "Bilad al Qadim", "lon": "50.5619444"}, {"lat": "26.2077778", "city": "Bu Ashira", "lon": "50.5772222"}, {"lat": "26.2077778", "city": "Bu `Ashirah", "lon": "50.5772222"}, {"lat": "26.1513889", "city": "Buri", "lon": "50.4975"}, {"lat": "26.2230556", "city": "Jabalah", "lon": "50.5497222"}, {"lat": "26.2230556", "city": "Jabala", "lon": "50.5497222"}, {"lat": "26.2230556", "city": "Jabalat al Burhamah", "lon": "50.5497222"}, {"lat": "26.2105556", "city": "Jafair", "lon": "50.6116667"}, {"lat": "26.1791667", "city": "Jidd `Ali", "lon": "50.5602778"}, {"lat": "26.1791667", "city": "Judd Ali", "lon": "50.5602778"}, {"lat": "26.2105556", "city": "Jufair", "lon": "50.6116667"}, {"lat": "26.1833333", "city": "Kaflan", "lon": "50.5833333"}, {"lat": "26.1833333", "city": "Kaflar", "lon": "50.5833333"}, {"lat": "26.1833333", "city": "Kawarah", "lon": "50.5666667"}, {"lat": "26.1833333", "city": "Kawrah", "lon": "50.5666667"}, {"lat": "26.2361111", "city": "Manama", "lon": "50.5830556"}, {"lat": "26.2361111", "city": "Manameh", "lon": "50.5830556"}, {"lat": "26.2166667", "city": "Mani", "lon": "50.55"}, {"lat": "26.2361111", "city": "Menama", "lon": "50.5830556"}, {"lat": "26.2025", "city": "Umm al Hassam", "lon": "50.5919444"}, {"lat": "26.2025", "city": "Umm al-Hassam", "lon": "50.5919444"}, {"lat": "26.2166667", "city": "Umm ash Shalum", "lon": "50.5833333"}, {"lat": "26.2166667", "city": "Umm ash Sha`um", "lon": "50.5833333"}, {"lat": "26.2166667", "city": "Umm ash Sholum", "lon": "50.5833333"}, {"lat": "26.2152778", "city": "Zinj", "lon": "50.5641667"}], "03": [{"lat": "26.2444444", "city": "Abu Mahir", "lon": "50.6191667"}, {"lat": "26.2841667", "city": "Ad Dayr", "lon": "50.6236111"}, {"lat": "26.2694444", "city": "Al Busaytin", "lon": "50.6077778"}, {"lat": "26.2122222", "city": "Al Mahuz", "lon": "50.5888889"}, {"lat": "26.2572222", "city": "Al-Muharrak", "lon": "50.6119444"}, {"lat": "26.2572222", "city": "Al Muharraq", "lon": "50.6119444"}, {"lat": "26.2561111", "city": "`Arad", "lon": "50.6322222"}, {"lat": "26.2694444", "city": "Basatin", "lon": "50.6077778"}, {"lat": "26.2694444", "city": "Busaitin", "lon": "50.6077778"}, {"lat": "26.2841667", "city": "Dair-ar-Rahib", "lon": "50.6236111"}, {"lat": "26.2841667", "city": "Dair", "lon": "50.6236111"}, {"lat": "26.2841667", "city": "Dayr ar Rahib", "lon": "50.6236111"}, {"lat": "26.2733333", "city": "Galali", "lon": "50.6502778"}, {"lat": "26.2444444", "city": "Halat Abu Mahir", "lon": "50.6191667"}, {"lat": "26.2444444", "city": "Halat Abu Mahur", "lon": "50.6191667"}, {"lat": "26.25", "city": "Halat-al-Khalaifat", "lon": "50.6333333"}, {"lat": "26.25", "city": "Halat al Khulayfat", "lon": "50.6333333"}, {"lat": "26.25", "city": "Halat-at-Khulaifat", "lon": "50.6333333"}, {"lat": "26.25", "city": "Halat", "lon": "50.6333333"}, {"lat": "26.2733333", "city": "Kalali", "lon": "50.6502778"}, {"lat": "26.25", "city": "Khulaffat", "lon": "50.6333333"}, {"lat": "26.2122222", "city": "Mahuz", "lon": "50.5888889"}, {"lat": "26.2572222", "city": "Moharek", "lon": "50.6119444"}, {"lat": "26.2572222", "city": "Muharrak", "lon": "50.6119444"}, {"lat": "26.2572222", "city": "Muharraq", "lon": "50.6119444"}, {"lat": "26.2572222", "city": "Muharraq Town", "lon": "50.6119444"}, {"lat": "26.2572222", "city": "Muhurraq", "lon": "50.6119444"}, {"lat": "26.2733333", "city": "Qalali", "lon": "50.6502778"}, {"lat": "26.2733333", "city": "Qalani", "lon": "50.6502778"}, {"lat": "26.2833333", "city": "Raiya", "lon": "50.6333333"}, {"lat": "26.2833333", "city": "Rayya", "lon": "50.6333333"}, {"lat": "26.28", "city": "Samahidj", "lon": "50.635"}, {"lat": "26.28", "city": "Samahij", "lon": "50.635"}, {"lat": "26.2561111", "city": "Sar", "lon": "50.6322222"}, {"lat": "26.28", "city": "Simahij", "lon": "50.635"}], "13": [{"lat": "26.1152778", "city": "Hamad Town", "lon": "50.5069444"}, {"lat": "26.1152778", "city": "Madinat Hamad", "lon": "50.5069444"}], "09": [{"lat": "26.2077778", "city": "Al Ghurayfah", "lon": "50.6025"}, {"lat": "26.2077778", "city": "Gharaifa", "lon": "50.6025"}, {"lat": "26.2077778", "city": "Ghuraifa", "lon": "50.6025"}, {"lat": "26.2077778", "city": "Ghuraifah", "lon": "50.6025"}, {"lat": "26.2077778", "city": "Ghurayfah", "lon": "50.6025"}], "06": [{"lat": "26.1430556", "city": "Al `Akr", "lon": "50.6102778"}, {"lat": "26.1430556", "city": "Al `Akur", "lon": "50.6102778"}, {"lat": "26.1430556", "city": "Al `Aqr", "lon": "50.6102778"}, {"lat": "26.1430556", "city": "Al `Aqur", "lon": "50.6102778"}, {"lat": "26.1636111", "city": "Al-Kharidjiyya", "lon": "50.6047222"}, {"lat": "26.1636111", "city": "Al Kharijiyah", "lon": "50.6047222"}, {"lat": "26.1333333", "city": "Al Ma`amir", "lon": "50.6086111"}, {"lat": "26.1722222", "city": "Al Qaryah", "lon": "50.6105556"}, {"lat": "26.1347222", "city": "An Nuwaydirat", "lon": "50.5975"}, {"lat": "26.1430556", "city": "'Aqur", "lon": "50.6102778"}, {"lat": "26.1733333", "city": "Halah", "lon": "50.6213889"}, {"lat": "26.1166667", "city": "Halat As-Saud", "lon": "50.6333333"}, {"lat": "26.1733333", "city": "Halat", "lon": "50.6213889"}, {"lat": "26.1166667", "city": "Halat Umm al Baidh", "lon": "50.6333333"}, {"lat": "26.1166667", "city": "Halat Umm al Bayd", "lon": "50.6333333"}, {"lat": "26.1430556", "city": "Ikur", "lon": "50.6102778"}, {"lat": "26.1827778", "city": "Kariya", "lon": "50.5836111"}, {"lat": "26.1636111", "city": "Kharijiyah", "lon": "50.6047222"}, {"lat": "26.1636111", "city": "Kharijiya", "lon": "50.6047222"}, {"lat": "26.1722222", "city": "Kuriya", "lon": "50.6105556"}, {"lat": "26.1333333", "city": "Ma'amir", "lon": "50.6086111"}, {"lat": "26.1694444", "city": "Mahazzah", "lon": "50.6261111"}, {"lat": "26.1641667", "city": "Markuban", "lon": "50.6183333"}, {"lat": "26.1641667", "city": "Marquban", "lon": "50.6183333"}, {"lat": "26.1694444", "city": "Muhazza", "lon": "50.6261111"}, {"lat": "26.1347222", "city": "Nuwaidirat", "lon": "50.5975"}, {"lat": "26.1347222", "city": "Nuwaidrat", "lon": "50.5975"}, {"lat": "26.1347222", "city": "Nuwaydirat", "lon": "50.5975"}, {"lat": "26.1827778", "city": "Qariya", "lon": "50.5836111"}, {"lat": "26.1827778", "city": "Qaryah", "lon": "50.5836111"}, {"lat": "26.1827778", "city": "Qarya", "lon": "50.5836111"}, {"lat": "26.1827778", "city": "Qurayyah", "lon": "50.5836111"}, {"lat": "26.1827778", "city": "Quryah", "lon": "50.5836111"}, {"lat": "26.1547222", "city": "Sitrah", "lon": "50.6205556"}, {"lat": "26.1547222", "city": "Sitra", "lon": "50.6205556"}, {"lat": "26.1627778", "city": "Sufalah", "lon": "50.6255556"}, {"lat": "26.1627778", "city": "Sufala", "lon": "50.6255556"}, {"lat": "26.1166667", "city": "Um al-Baidh", "lon": "50.6333333"}, {"lat": "26.1591667", "city": "Wadiyah", "lon": "50.6111111"}, {"lat": "26.1591667", "city": "Wadiyan", "lon": "50.6111111"}], "07": [{"lat": "25.9786111", "city": "Ad Dur", "lon": "50.615"}, {"lat": "25.9883333", "city": "Al `Amar", "lon": "50.5283333"}, {"lat": "26.0572222", "city": "Al `Askar", "lon": "50.6163889"}, {"lat": "26.0844444", "city": "Al `Awali", "lon": "50.5505556"}, {"lat": "26.0844444", "city": "Al Chirabia", "lon": "50.5505556"}, {"lat": "26.0844444", "city": "Al Ghiraibat", "lon": "50.5505556"}, {"lat": "25.9808333", "city": "Al Qal`ah", "lon": "50.5305556"}, {"lat": "26.1327778", "city": "Al-Rifa` al Gharbi", "lon": "50.5202778"}, {"lat": "26.1375", "city": "Al-Rifa` al-Shamali", "lon": "50.5511111"}, {"lat": "26.1238889", "city": "Al-Rifa` al-Sharki", "lon": "50.5736111"}, {"lat": "25.9238889", "city": "Al-Rumaytha'", "lon": "50.5530556"}, {"lat": "25.9883333", "city": "Amar", "lon": "50.5283333"}, {"lat": "25.9883333", "city": "`Amur", "lon": "50.5283333"}, {"lat": "26.1327778", "city": "Ar Rifa` al Gharbi", "lon": "50.5202778"}, {"lat": "26.13", "city": "Ar Rifa`", "lon": "50.555"}, {"lat": "26.13", "city": "Ar Rifa", "lon": "50.555"}, {"lat": "26.1375", "city": "Ar Rifa` ash Shamali", "lon": "50.5511111"}, {"lat": "26.1238889", "city": "Ar Rifa` ash Sharqi", "lon": "50.5736111"}, {"lat": "25.9238889", "city": "Ar Rumaytha", "lon": "50.5530556"}, {"lat": "25.9238889", "city": "Ar Rumaythah", "lon": "50.5530556"}, {"lat": "26.0572222", "city": "`Askar", "lon": "50.6163889"}, {"lat": "26.0625", "city": "As Sakhir", "lon": "50.5272222"}, {"lat": "26.0844444", "city": "`Awali", "lon": "50.5505556"}, {"lat": "26.0844444", "city": "Bapco", "lon": "50.5505556"}, {"lat": "25.9786111", "city": "Dar al Manadil", "lon": "50.615"}, {"lat": "25.9986111", "city": "Djaww", "lon": "50.6166667"}, {"lat": "25.9786111", "city": "Dur", "lon": "50.615"}, {"lat": "25.8833333", "city": "Jasairah", "lon": "50.6"}, {"lat": "25.8833333", "city": "Jasaira", "lon": "50.6"}, {"lat": "25.9986111", "city": "Jau", "lon": "50.6166667"}, {"lat": "25.9986111", "city": "Jaw", "lon": "50.6166667"}, {"lat": "25.9986111", "city": "Jaww", "lon": "50.6166667"}, {"lat": "25.8833333", "city": "Jusayrah", "lon": "50.6"}, {"lat": "26.0844444", "city": "Kirabad", "lon": "50.5505556"}, {"lat": "26.1375", "city": "North Rifa`", "lon": "50.5511111"}, {"lat": "26.0844444", "city": "Oil City", "lon": "50.5505556"}, {"lat": "26.1327778", "city": "Rifaa Al Gharbi", "lon": "50.5202778"}, {"lat": "26.1375", "city": "Rifa'a Ash Shamal", "lon": "50.5511111"}, {"lat": "26.1238889", "city": "Rifa`a Ash Sharqi", "lon": "50.5736111"}, {"lat": "26.1327778", "city": "Rifa` al Gharbi", "lon": "50.5202778"}, {"lat": "26.1327778", "city": "Rifa` al Qibli", "lon": "50.5202778"}, {"lat": "26.1375", "city": "Rifa` ash Shamal", "lon": "50.5511111"}, {"lat": "26.1238889", "city": "Rifa' Ash Sharqi", "lon": "50.5736111"}, {"lat": "25.9238889", "city": "Rumaidhah", "lon": "50.5530556"}, {"lat": "25.9238889", "city": "Rumaidha", "lon": "50.5530556"}, {"lat": "25.9238889", "city": "Rumaithah", "lon": "50.5530556"}, {"lat": "25.9238889", "city": "Rumaitha", "lon": "50.5530556"}, {"lat": "25.9238889", "city": "Rumayz\u00cc\u00a7ah", "lon": "50.5530556"}, {"lat": "26.105", "city": "Safiah", "lon": "50.5386111"}, {"lat": "26.105", "city": "Safirah", "lon": "50.5386111"}, {"lat": "26.105", "city": "Safrah", "lon": "50.5386111"}, {"lat": "26.0625", "city": "Sakhir", "lon": "50.5272222"}, {"lat": "26.0111111", "city": "Umm Jidr", "lon": "50.5261111"}, {"lat": "26.1327778", "city": "West Rifa`", "lon": "50.5202778"}], "10": [{"lat": "26.2175", "city": "Abu Saibi'", "lon": "50.5069444"}, {"lat": "26.2175", "city": "Abu Saybi`", "lon": "50.5069444"}, {"lat": "26.2180556", "city": "Ad Diraz", "lon": "50.4705556"}, {"lat": "26.2130556", "city": "Al Buday`", "lon": "50.45"}, {"lat": "26.2130556", "city": "Al Budayyi`", "lon": "50.45"}, {"lat": "26.1619444", "city": "`Ali", "lon": "50.5163889"}, {"lat": "26.19", "city": "Al Janabiyah", "lon": "50.4677778"}, {"lat": "26.2102778", "city": "Al Markh", "lon": "50.4733333"}, {"lat": "26.1972222", "city": "Al Qurayyah", "lon": "50.4627778"}, {"lat": "26.2333333", "city": "Ar Ruq`ah", "lon": "50.5"}, {"lat": "26.2130556", "city": "Badaiya`a", "lon": "50.45"}, {"lat": "26.2097222", "city": "Bani Jamrah", "lon": "50.4597222"}, {"lat": "26.2294444", "city": "Barbar", "lon": "50.4808333"}, {"lat": "26.2130556", "city": "Budaia", "lon": "50.45"}, {"lat": "26.2130556", "city": "Budaiya", "lon": "50.45"}, {"lat": "26.2130556", "city": "Buday`ah", "lon": "50.45"}, {"lat": "26.2130556", "city": "Budayya`", "lon": "50.45"}, {"lat": "26.2180556", "city": "Diraz", "lon": "50.4705556"}, {"lat": "26.2305556", "city": "Djannusan", "lon": "50.4947222"}, {"lat": "26.2333333", "city": "Harbadiyah", "lon": "50.5"}, {"lat": "26.2097222", "city": "Jamrah", "lon": "50.4597222"}, {"lat": "26.2097222", "city": "Jamra", "lon": "50.4597222"}, {"lat": "26.19", "city": "Janabiyah", "lon": "50.4677778"}, {"lat": "26.19", "city": "Janabiya", "lon": "50.4677778"}, {"lat": "26.2305556", "city": "Jannusan", "lon": "50.4947222"}, {"lat": "26.2333333", "city": "Jidd al Hajj", "lon": "50.5"}, {"lat": "26.1972222", "city": "Kuraiya", "lon": "50.4627778"}, {"lat": "26.1972222", "city": "Kuriya", "lon": "50.4627778"}, {"lat": "26.2108333", "city": "Makaba", "lon": "50.4875"}, {"lat": "26.2108333", "city": "Maqaba", "lon": "50.4875"}, {"lat": "26.2102778", "city": "Markh", "lon": "50.4733333"}, {"lat": "26.2333333", "city": "Nur Juruft", "lon": "50.5"}, {"lat": "26.1972222", "city": "Quraiyah", "lon": "50.4627778"}, {"lat": "26.1972222", "city": "Qurayyah", "lon": "50.4627778"}, {"lat": "26.2333333", "city": "Ruka'a", "lon": "50.5"}, {"lat": "26.2333333", "city": "Ruqa'ah", "lon": "50.5"}, {"lat": "26.2333333", "city": "Ruq`ah", "lon": "50.5"}, {"lat": "26.1941667", "city": "Sar", "lon": "50.4819444"}], "08": [{"lat": "26.1622222", "city": "Al-Djasra", "lon": "50.4491667"}, {"lat": "26.1433333", "city": "Al Hamalah", "lon": "50.4594444"}, {"lat": "26.1433333", "city": "Al-Hamla", "lon": "50.4594444"}, {"lat": "26.1622222", "city": "Al Jasrah", "lon": "50.4491667"}, {"lat": "26.0980556", "city": "Al Malikiyah", "lon": "50.4866667"}, {"lat": "26.0980556", "city": "Al-Malikiyya", "lon": "50.4866667"}, {"lat": "25.9241667", "city": "Al Mamtalah", "lon": "50.5194444"}, {"lat": "25.9241667", "city": "Al Matallah", "lon": "50.5194444"}, {"lat": "25.9241667", "city": "Al M'ttalah", "lon": "50.5194444"}, {"lat": "25.9241667", "city": "Al Mumattalah", "lon": "50.5194444"}, {"lat": "25.9241667", "city": "Al Mutallah", "lon": "50.5194444"}, {"lat": "26.0211111", "city": "Al Wasmiyah", "lon": "50.475"}, {"lat": "26.0475", "city": "Al-Zallak", "lon": "50.4863889"}, {"lat": "26.0475", "city": "Az Zallaq", "lon": "50.4863889"}, {"lat": "26.0686111", "city": "Dar Chulaib", "lon": "50.5038889"}, {"lat": "26.0686111", "city": "Dar Kulaib", "lon": "50.5038889"}, {"lat": "26.0686111", "city": "Dar Kulayb", "lon": "50.5038889"}, {"lat": "26.1263889", "city": "Dumistan", "lon": "50.4811111"}, {"lat": "26.1433333", "city": "Hamala", "lon": "50.4594444"}, {"lat": "26.1433333", "city": "Hamalah", "lon": "50.4594444"}, {"lat": "26.1622222", "city": "Jasrah", "lon": "50.4491667"}, {"lat": "26.1622222", "city": "Jasra", "lon": "50.4491667"}, {"lat": "26.1622222", "city": "Jesera", "lon": "50.4491667"}, {"lat": "26.1155556", "city": "Karrzakkan", "lon": "50.4819444"}, {"lat": "26.1155556", "city": "Karzakkan", "lon": "50.4819444"}, {"lat": "26.0980556", "city": "Malichiya", "lon": "50.4866667"}, {"lat": "26.0980556", "city": "Malikiyah", "lon": "50.4866667"}, {"lat": "25.9241667", "city": "Mattala", "lon": "50.5194444"}, {"lat": "25.9241667", "city": "Mutallah", "lon": "50.5194444"}, {"lat": "26.0827778", "city": "Sadad", "lon": "50.4897222"}, {"lat": "26.0752778", "city": "Shaharakkan", "lon": "50.5013889"}, {"lat": "26.0752778", "city": "Shahrakkan", "lon": "50.5013889"}, {"lat": "26.0211111", "city": "Wasmiyah", "lon": "50.475"}, {"lat": "26.0211111", "city": "Wasmiya", "lon": "50.475"}, {"lat": "26.0475", "city": "Zallaq", "lon": "50.4863889"}, {"lat": "26.0475", "city": "Zellaq", "lon": "50.4863889"}, {"lat": "26.0475", "city": "Zelzaq", "lon": "50.4863889"}], "05": [{"lat": "26.2075", "city": "Abu Baham", "lon": "50.5441667"}, {"lat": "26.2166667", "city": "'Ain-ad-Dar", "lon": "50.5333333"}, {"lat": "26.2166667", "city": "Ain al-Dar", "lon": "50.5333333"}, {"lat": "26.2252778", "city": "Al Bid`ah", "lon": "50.5372222"}, {"lat": "26.2111111", "city": "Al Hajar", "lon": "50.5138889"}, {"lat": "26.2197222", "city": "Al Muqsha`", "lon": "50.5230556"}, {"lat": "26.2122222", "city": "Al Musalla", "lon": "50.5372222"}, {"lat": "26.2066667", "city": "Al Muwaylighah", "lon": "50.5588889"}, {"lat": "26.2155556", "city": "Al Qadam", "lon": "50.5191667"}, {"lat": "26.2147222", "city": "Al-Shakhura", "lon": "50.5069444"}, {"lat": "26.2166667", "city": "`An ad Dar", "lon": "50.5333333"}, {"lat": "26.2147222", "city": "Ash Shakhurah", "lon": "50.5069444"}, {"lat": "26.2055556", "city": "As Sahlah al Fawqiyah", "lon": "50.5305556"}, {"lat": "26.2016667", "city": "As Sahlat al Hadriyah", "lon": "50.5358333"}, {"lat": "26.2272222", "city": "As Sanabis", "lon": "50.5508333"}, {"lat": "26.2166667", "city": "`Ayn ad Dar", "lon": "50.5333333"}, {"lat": "26.2252778", "city": "Bid`ah", "lon": "50.5372222"}, {"lat": "26.2047222", "city": "Bukuwa", "lon": "50.52"}, {"lat": "26.2047222", "city": "Bu Quwah", "lon": "50.52"}, {"lat": "26.2047222", "city": "Bu Quwwah", "lon": "50.52"}, {"lat": "26.2186111", "city": "Djidd Hafs", "lon": "50.5477778"}, {"lat": "26.2111111", "city": "Hajar", "lon": "50.5138889"}, {"lat": "26.2213889", "city": "Hillah", "lon": "50.5166667"}, {"lat": "26.2213889", "city": "Hillat `Abd as Salih", "lon": "50.5166667"}, {"lat": "26.2", "city": "Hillat as Suq", "lon": "50.55"}, {"lat": "26.2213889", "city": "Hillat", "lon": "50.5166667"}, {"lat": "26.2172222", "city": "Jabalat Habashi", "lon": "50.5275"}, {"lat": "26.2172222", "city": "Jabalat Habshi", "lon": "50.5275"}, {"lat": "26.2186111", "city": "Jadd Hafs", "lon": "50.5477778"}, {"lat": "26.2", "city": "Jamalah", "lon": "50.55"}, {"lat": "26.2", "city": "Jamala", "lon": "50.55"}, {"lat": "26.2186111", "city": "Jidd Hafs", "lon": "50.5477778"}, {"lat": "26.2186111", "city": "Jid Hafs", "lon": "50.5477778"}, {"lat": "26.2186111", "city": "Judd Hafs", "lon": "50.5477778"}, {"lat": "26.2", "city": "Jumaylat", "lon": "50.55"}, {"lat": "26.2291667", "city": "Karanah", "lon": "50.5094444"}, {"lat": "26.2302778", "city": "Karbabad", "lon": "50.5294444"}, {"lat": "26.2291667", "city": "Karramah", "lon": "50.5094444"}, {"lat": "26.2291667", "city": "Karrama", "lon": "50.5094444"}, {"lat": "26.2291667", "city": "Karranah", "lon": "50.5094444"}, {"lat": "26.2", "city": "Kubait", "lon": "50.5166667"}, {"lat": "26.2197222", "city": "Magsha", "lon": "50.5230556"}, {"lat": "26.2213889", "city": "Marwazan", "lon": "50.5438889"}, {"lat": "26.2197222", "city": "Muqsha'", "lon": "50.5230556"}, {"lat": "26.2122222", "city": "Musalla", "lon": "50.5372222"}, {"lat": "26.2066667", "city": "Muwailaha", "lon": "50.5588889"}, {"lat": "26.2066667", "city": "Muwailghah", "lon": "50.5588889"}, {"lat": "26.2155556", "city": "Qadam", "lon": "50.5191667"}, {"lat": "26.2", "city": "Qubayt", "lon": "50.5166667"}, {"lat": "26.2016667", "city": "Sahlat-al-`Audah", "lon": "50.5358333"}, {"lat": "26.2016667", "city": "Sahlat al `Awdah", "lon": "50.5358333"}, {"lat": "26.2055556", "city": "Sahlat al Fuqiyah", "lon": "50.5305556"}, {"lat": "26.2016667", "city": "Sahlat al Hadriyah", "lon": "50.5358333"}, {"lat": "26.2016667", "city": "Sahlat-as-Saghirah", "lon": "50.5358333"}, {"lat": "26.2272222", "city": "Sanabis", "lon": "50.5508333"}, {"lat": "26.2147222", "city": "Shakhurah", "lon": "50.5069444"}, {"lat": "26.2147222", "city": "Shakhura", "lon": "50.5069444"}, {"lat": "26.2147222", "city": "Shakhurq", "lon": "50.5069444"}, {"lat": "26.2055556", "city": "Sihlatal Fukiya", "lon": "50.5305556"}, {"lat": "26.2016667", "city": "Sihlatal Hadriya", "lon": "50.5358333"}, {"lat": "26.2113889", "city": "Tashshan", "lon": "50.5461111"}], "01": [{"lat": "26.2455556", "city": "Al Hadd", "lon": "50.6541667"}, {"lat": "26.2455556", "city": "Al Hidd", "lon": "50.6541667"}, {"lat": "26.2552778", "city": "Az Zimmah", "lon": "50.6469444"}, {"lat": "26.2455556", "city": "Hadd", "lon": "50.6541667"}, {"lat": "26.2388889", "city": "Halat al Naim", "lon": "50.6352778"}, {"lat": "26.2427778", "city": "Halat al-Salata", "lon": "50.6386111"}, {"lat": "26.2388889", "city": "Halat an Na`im", "lon": "50.6352778"}, {"lat": "26.2427778", "city": "Halat as Sultah", "lon": "50.6386111"}, {"lat": "26.2427778", "city": "Halat As Suluta", "lon": "50.6386111"}, {"lat": "26.2388889", "city": "Halat Nu`aym", "lon": "50.6352778"}, {"lat": "26.2455556", "city": "Hidd", "lon": "50.6541667"}, {"lat": "26.2388889", "city": "Naim", "lon": "50.6352778"}, {"lat": "26.2283333", "city": "Um el Shajar", "lon": "50.6558333"}, {"lat": "26.2283333", "city": "Umm ash Shahin", "lon": "50.6558333"}, {"lat": "26.2283333", "city": "Umm ash Shajar", "lon": "50.6558333"}, {"lat": "26.2283333", "city": "Umm ash Shanin", "lon": "50.6558333"}, {"lat": "26.2552778", "city": "Zimmah", "lon": "50.6469444"}, {"lat": "26.2552778", "city": "Zimma", "lon": "50.6469444"}], "11": [{"lat": "26.1833333", "city": "Al Hujayr", "lon": "50.55"}, {"lat": "26.1819444", "city": "Al Jubaylat", "lon": "50.5533333"}, {"lat": "26.1833333", "city": "Hujair", "lon": "50.55"}, {"lat": "26.1833333", "city": "Husair", "lon": "50.55"}, {"lat": "26.1666667", "city": "Huwais", "lon": "50.5"}, {"lat": "26.1819444", "city": "Jabailat", "lon": "50.5533333"}, {"lat": "26.1819444", "city": "Jubailat", "lon": "50.5533333"}, {"lat": "26.1666667", "city": "Khuwais", "lon": "50.5"}, {"lat": "26.1666667", "city": "Khuways", "lon": "50.5"}, {"lat": "26.1830556", "city": "Salambad", "lon": "50.5247222"}, {"lat": "26.1830556", "city": "Salmabad", "lon": "50.5247222"}, {"lat": "26.1502778", "city": "Sanad", "lon": "50.5819444"}, {"lat": "26.1869444", "city": "Tubli", "lon": "50.5494444"}], "12": [{"lat": "26.1736111", "city": "Isa", "lon": "50.5477778"}, {"lat": "26.1736111", "city": "Isa Town", "lon": "50.5477778"}, {"lat": "26.1694444", "city": "Jurdab", "lon": "50.5752778"}, {"lat": "26.1694444", "city": "Jurdah", "lon": "50.5752778"}, {"lat": "26.1736111", "city": "Madinat `Isa", "lon": "50.5477778"}, {"lat": "26.1736111", "city": "Medinat Isa", "lon": "50.5477778"}]}}