{"BJ": {"11": [{"lat": "8.05", "city": "Abala", "lon": "1.6666667"}, {"lat": "8.0333333", "city": "Ab\u00e9okouta", "lon": "1.6833333"}, {"lat": "8.1", "city": "Abidzi", "lon": "1.8833333"}, {"lat": "7.9833333", "city": "Adanhoue", "lon": "1.8"}, {"lat": "7.8", "city": "Adioti", "lon": "1.7833333"}, {"lat": "7.8166667", "city": "Adjafa", "lon": "1.85"}, {"lat": "7.7833333", "city": "Adjakokou", "lon": "1.7333333"}, {"lat": "8.4", "city": "Adjant\u00e9", "lon": "1.9"}, {"lat": "8.15", "city": "Adjigo", "lon": "1.9666667"}, {"lat": "7.8833333", "city": "Adjoya", "lon": "1.7333333"}, {"lat": "8.0166667", "city": "Agan", "lon": "1.6833333"}, {"lat": "8.2833333", "city": "Agaoua", "lon": "1.9666667"}, {"lat": "7.85", "city": "Agbanou", "lon": "1.9"}, {"lat": "7.8", "city": "Agbaton", "lon": "1.7166667"}, {"lat": "7.8166667", "city": "Agbatou", "lon": "1.7"}, {"lat": "8.0", "city": "Agbodranfo", "lon": "1.9"}, {"lat": "8.45", "city": "Agborro", "lon": "2.5833333"}, {"lat": "7.8", "city": "Aghozongo", "lon": "1.85"}, {"lat": "7.8", "city": "Agniok\u00e9", "lon": "1.65"}, {"lat": "7.9333333", "city": "Agom\u00e9", "lon": "1.9"}, {"lat": "8.15", "city": "Agon", "lon": "1.9666667"}, {"lat": "8.2833333", "city": "Agoua", "lon": "1.9666667"}, {"lat": "7.9833333", "city": "Agouagon", "lon": "2.3"}, {"lat": "7.9833333", "city": "Agouagou", "lon": "2.3"}, {"lat": "7.5666667", "city": "Agouna", "lon": "1.7"}, {"lat": "7.5666667", "city": "Agouna-Gaga", "lon": "1.7"}, {"lat": "7.9666667", "city": "Agramidjodji", "lon": "1.8666667"}, {"lat": "8.2833333", "city": "Agua", "lon": "1.9666667"}, {"lat": "7.5666667", "city": "Aguna", "lon": "1.7"}, {"lat": "8.2833333", "city": "Agwa", "lon": "1.9666667"}, {"lat": "7.9833333", "city": "Agwagon", "lon": "2.3"}, {"lat": "7.8666667", "city": "Akakadoho", "lon": "1.8166667"}, {"lat": "7.65", "city": "Akbakota", "lon": "1.8833333"}, {"lat": "7.9833333", "city": "Akete", "lon": "1.8833333"}, {"lat": "7.6", "city": "Aklam\u00e9", "lon": "1.6833333"}, {"lat": "8.2166667", "city": "Aklampa", "lon": "2.1833333"}, {"lat": "8.2166667", "city": "Aklanpa", "lon": "2.1833333"}, {"lat": "7.6", "city": "Akleim\u00e9", "lon": "1.6833333"}, {"lat": "7.6", "city": "Akl\u00e9m\u00e9", "lon": "1.6833333"}, {"lat": "8.1", "city": "Akoumokoumo", "lon": "1.6833333"}, {"lat": "7.7833333", "city": "Akpakourou", "lon": "1.7333333"}, {"lat": "8.4333333", "city": "Akpassi", "lon": "1.8833333"}, {"lat": "7.6", "city": "Akpinhiadji", "lon": "1.9666667"}, {"lat": "8.3166667", "city": "Akpouati", "lon": "1.9"}, {"lat": "8.2", "city": "Alafia", "lon": "2.6333333"}, {"lat": "8.1166667", "city": "Al\u00e9kpo", "lon": "1.6833333"}, {"lat": "8.15", "city": "Aloba", "lon": "1.9"}, {"lat": "7.8833333", "city": "Amazon", "lon": "1.85"}, {"lat": "8.0666667", "city": "Amou", "lon": "1.7833333"}, {"lat": "7.6333333", "city": "Anfin", "lon": "1.7333333"}, {"lat": "8.0", "city": "Aouniakam\u00e9", "lon": "2.0666667"}, {"lat": "8.0833333", "city": "Apaki", "lon": "1.6333333"}, {"lat": "8.15", "city": "Assamb\u00e9", "lon": "2.25"}, {"lat": "8.15", "city": "Assanb\u00e9", "lon": "2.25"}, {"lat": "8.15", "city": "Assanoe", "lon": "2.25"}, {"lat": "8.15", "city": "Assant\u00e9", "lon": "2.25"}, {"lat": "8.15", "city": "Assanti", "lon": "2.25"}, {"lat": "8.3833333", "city": "Assava", "lon": "1.9833333"}, {"lat": "7.9", "city": "Assonga\u00efssa", "lon": "1.8666667"}, {"lat": "8.35", "city": "Atak\u00e9", "lon": "1.9333333"}, {"lat": "8.3", "city": "Atakou", "lon": "1.9"}, {"lat": "8.0166667", "city": "Atchapa", "lon": "2.4"}, {"lat": "7.5666667", "city": "Atchengbe", "lon": "2.05"}, {"lat": "7.5666667", "city": "Atch\u00e9rib\u00e9", "lon": "2.05"}, {"lat": "7.5666667", "city": "Atch\u00e9rigb\u00e9", "lon": "2.05"}, {"lat": "7.5666667", "city": "Atch\u00e9rigt\u00e9", "lon": "2.05"}, {"lat": "8.2", "city": "Atess\u00e9", "lon": "2.6333333"}, {"lat": "8.1666667", "city": "Atokolib\u00e9", "lon": "1.95"}, {"lat": "8.1666667", "city": "Atokolob\u00e9", "lon": "1.95"}, {"lat": "8.1666667", "city": "Atokoloto", "lon": "1.95"}, {"lat": "8.3", "city": "Atokou", "lon": "1.9"}, {"lat": "8.4666667", "city": "Attata", "lon": "2.4666667"}, {"lat": "8.1666667", "city": "Atukobi", "lon": "1.95"}, {"lat": "7.7166667", "city": "Awidji", "lon": "1.9333333"}, {"lat": "8.4833333", "city": "Ay\u00e9kol\u00e9lo", "lon": "1.7833333"}, {"lat": "7.5833333", "city": "Azeleledji", "lon": "1.8333333"}, {"lat": "8.0166667", "city": "Azokangoudo", "lon": "1.9166667"}, {"lat": "7.95", "city": "Badji", "lon": "1.9833333"}, {"lat": "7.8", "city": "Bagu\u00e9", "lon": "1.6333333"}, {"lat": "8.2333333", "city": "Bako", "lon": "2.7"}, {"lat": "7.8666667", "city": "Bango", "lon": "1.6666667"}, {"lat": "8.5", "city": "Banon", "lon": "1.9"}, {"lat": "8.4166667", "city": "Bant\u00e9", "lon": "1.8833333"}, {"lat": "7.7166667", "city": "Batedji", "lon": "1.9666667"}, {"lat": "8.0333333", "city": "B\u00e9h\u00e9", "lon": "2.5833333"}, {"lat": "8.0", "city": "B\u00e9tel", "lon": "2.3666667"}, {"lat": "7.8666667", "city": "Bikoro", "lon": "1.6666667"}, {"lat": "8.4166667", "city": "Bob\u00e9", "lon": "1.9833333"}, {"lat": "7.8666667", "city": "Boguidji", "lon": "1.8"}, {"lat": "7.6166667", "city": "Bo\u00efbablin", "lon": "1.8833333"}, {"lat": "8.4166667", "city": "Bomb\u00e9", "lon": "1.9833333"}, {"lat": "8.3833333", "city": "Boti", "lon": "2.5666667"}, {"lat": "8.0166667", "city": "Boubou", "lon": "2.2333333"}, {"lat": "8.3", "city": "Bouboul\u00e9", "lon": "1.7833333"}, {"lat": "8.0333333", "city": "Chabe", "lon": "2.5"}, {"lat": "8.4", "city": "Chalagoye", "lon": "2.5833333"}, {"lat": "7.8333333", "city": "Chetti", "lon": "1.6666667"}, {"lat": "7.9166667", "city": "Cossa-Kam\u00e9", "lon": "2.2333333"}, {"lat": "7.9166667", "city": "Cosso-Kame", "lon": "2.2333333"}, {"lat": "7.8166667", "city": "Dassa-Gledji", "lon": "1.95"}, {"lat": "7.75", "city": "Dassa-Zoum\u00e9", "lon": "2.1833333"}, {"lat": "7.75", "city": "Dassa Zume", "lon": "2.1833333"}, {"lat": "7.9666667", "city": "Dato", "lon": "1.7166667"}, {"lat": "7.7666667", "city": "D\u00e9com\u00e8", "lon": "1.7833333"}, {"lat": "7.85", "city": "Degladono", "lon": "1.7666667"}, {"lat": "8.0", "city": "Deissa", "lon": "1.9833333"}, {"lat": "7.8166667", "city": "D\u00e9kamp\u00e9", "lon": "1.6833333"}, {"lat": "8.0833333", "city": "Dhio", "lon": "2.5166667"}, {"lat": "7.7333333", "city": "Diallucu", "lon": "1.7833333"}, {"lat": "8.0833333", "city": "Diho", "lon": "2.5166667"}, {"lat": "7.9", "city": "Djabata", "lon": "2.6666667"}, {"lat": "8.4333333", "city": "Djagbalo", "lon": "2.0333333"}, {"lat": "7.7333333", "city": "Djalloukou", "lon": "1.7833333"}, {"lat": "7.7333333", "city": "Djalokou", "lon": "1.7833333"}, {"lat": "7.7333333", "city": "Djaloukou", "lon": "1.7833333"}, {"lat": "8.3", "city": "Dj\u00e8gb\u00e9-Kanfangoudo", "lon": "2.4"}, {"lat": "8.2833333", "city": "Dj\u00e8gb\u00e9-Vidout\u00e9", "lon": "2.3833333"}, {"lat": "7.6", "city": "Dj\u00e9g\u00e9kpodji", "lon": "1.7833333"}, {"lat": "7.7166667", "city": "Djema", "lon": "1.7833333"}, {"lat": "7.7", "city": "Djina", "lon": "1.7833333"}, {"lat": "8.0", "city": "Do\u00efssa", "lon": "1.9833333"}, {"lat": "8.05", "city": "Dokoundji", "lon": "2.3"}, {"lat": "8.5", "city": "Dougba", "lon": "2.4"}, {"lat": "8.0166667", "city": "Doum\u00e9", "lon": "1.65"}, {"lat": "8.0166667", "city": "Dume", "lon": "1.65"}, {"lat": "8.0666667", "city": "Ehw\u00e9", "lon": "2.5333333"}, {"lat": "8.0", "city": "Ekpa", "lon": "1.6833333"}, {"lat": "8.0", "city": "Ekpaogan", "lon": "1.7"}, {"lat": "7.75", "city": "Eouih\u00e9ra", "lon": "1.6666667"}, {"lat": "7.9833333", "city": "Essaignon", "lon": "1.8166667"}, {"lat": "8.4", "city": "Fa\u00efmb\u00e9", "lon": "1.65"}, {"lat": "8.1", "city": "Galata", "lon": "1.95"}, {"lat": "8.5", "city": "Gbanhi", "lon": "2.3666667"}, {"lat": "7.65", "city": "Gbati", "lon": "1.7"}, {"lat": "8.1666667", "city": "Gb\u00e9d\u00e9", "lon": "1.9"}, {"lat": "8.5", "city": "Gbeme", "lon": "2.4333333"}, {"lat": "7.9666667", "city": "Glasou\u00e9", "lon": "2.3"}, {"lat": "7.9666667", "city": "Glazou\u00e9", "lon": "2.3"}, {"lat": "7.5666667", "city": "Glodjogon", "lon": "1.8833333"}, {"lat": "7.8166667", "city": "Gobada", "lon": "2.05"}, {"lat": "8.2833333", "city": "Gogoro", "lon": "2.65"}, {"lat": "8.1333333", "city": "Gouka", "lon": "1.9666667"}, {"lat": "8.2", "city": "Halafia", "lon": "2.6333333"}, {"lat": "7.6333333", "city": "Hebenogon", "lon": "1.9333333"}, {"lat": "7.8166667", "city": "Hedjanamonou", "lon": "1.9333333"}, {"lat": "7.85", "city": "Henhim\u00e9", "lon": "2.2333333"}, {"lat": "8.0666667", "city": "Hoko", "lon": "2.2666667"}, {"lat": "8.1333333", "city": "Houin", "lon": "2.2666667"}, {"lat": "8.0", "city": "Houla", "lon": "2.2"}, {"lat": "7.6333333", "city": "Iaiadji", "lon": "1.9333333"}, {"lat": "8.4333333", "city": "Idouya", "lon": "2.5833333"}, {"lat": "7.9", "city": "Iton", "lon": "1.7333333"}, {"lat": "7.9", "city": "Jabeta", "lon": "2.6666667"}, {"lat": "8.25", "city": "Kaboua", "lon": "2.6833333"}, {"lat": "8.1333333", "city": "Kafingb\u00e9", "lon": "1.8833333"}, {"lat": "7.9833333", "city": "Kanaoun", "lon": "1.65"}, {"lat": "7.9833333", "city": "Kanau", "lon": "1.65"}, {"lat": "7.9833333", "city": "Kanaun", "lon": "1.65"}, {"lat": "8.45", "city": "Kanbon", "lon": "2.5833333"}, {"lat": "7.9833333", "city": "Kanoun", "lon": "1.65"}, {"lat": "7.6833333", "city": "Kbati", "lon": "1.6666667"}, {"lat": "8.0333333", "city": "Kboba", "lon": "2.1833333"}, {"lat": "8.3", "city": "K\u00e9on", "lon": "1.9166667"}, {"lat": "7.7333333", "city": "K\u00e9tikpli", "lon": "1.6666667"}, {"lat": "7.5833333", "city": "Kiandjo", "lon": "1.65"}, {"lat": "8.25", "city": "Kikon", "lon": "1.85"}, {"lat": "8.0666667", "city": "Kodji", "lon": "1.9833333"}, {"lat": "7.9833333", "city": "Kof\u00e9ogboni", "lon": "1.6833333"}, {"lat": "8.3666667", "city": "Koffaye", "lon": "1.9833333"}, {"lat": "7.5666667", "city": "Kohou", "lon": "1.9"}, {"lat": "7.7", "city": "Kok\u00e9ro", "lon": "1.6666667"}, {"lat": "8.3666667", "city": "Koko", "lon": "1.8333333"}, {"lat": "8.4", "city": "Kokoro", "lon": "2.6166667"}, {"lat": "7.5666667", "city": "Kolobi", "lon": "1.7833333"}, {"lat": "8.45", "city": "Kon\u00e9n\u00e9", "lon": "1.7833333"}, {"lat": "8.1", "city": "Konfouda", "lon": "1.8833333"}, {"lat": "7.7166667", "city": "Konkon", "lon": "1.8666667"}, {"lat": "7.9166667", "city": "Kossa-Kam\u00e9", "lon": "2.2333333"}, {"lat": "7.9166667", "city": "Kosso-Kam\u00e9", "lon": "2.2333333"}, {"lat": "7.9166667", "city": "Kossokam", "lon": "2.2333333"}, {"lat": "7.75", "city": "Kouffo", "lon": "1.6833333"}, {"lat": "8.05", "city": "Koutago", "lon": "1.9833333"}, {"lat": "7.95", "city": "Kovedji", "lon": "1.9833333"}, {"lat": "7.8", "city": "Kpapakri", "lon": "1.8"}, {"lat": "7.9166667", "city": "Kpapassa", "lon": "1.8666667"}, {"lat": "7.8333333", "city": "Ladjou", "lon": "1.7833333"}, {"lat": "8.0833333", "city": "L\u00e9kpa", "lon": "1.6666667"}, {"lat": "7.6166667", "city": "L\u00e8kp\u00e9", "lon": "1.7666667"}, {"lat": "8.3", "city": "L\u00e9ro", "lon": "1.8333333"}, {"lat": "8.05", "city": "Lodji", "lon": "1.9666667"}, {"lat": "7.9333333", "city": "Logbo", "lon": "1.9833333"}, {"lat": "8.0666667", "city": "Losi", "lon": "1.9833333"}, {"lat": "8.3833333", "city": "Louba", "lon": "1.7833333"}, {"lat": "7.5833333", "city": "Loubeta", "lon": "1.8833333"}, {"lat": "8.3833333", "city": "Lougba", "lon": "1.7833333"}, {"lat": "8.3833333", "city": "Lougbao", "lon": "1.7833333"}, {"lat": "8.0", "city": "Loukou", "lon": "1.75"}, {"lat": "7.8166667", "city": "Loukpodji", "lon": "1.95"}, {"lat": "8.4166667", "city": "Loya", "lon": "1.6666667"}, {"lat": "8.0666667", "city": "Lozi", "lon": "1.9833333"}, {"lat": "8.3833333", "city": "Luba", "lon": "1.7833333"}, {"lat": "8.1833333", "city": "Malomi", "lon": "1.9"}, {"lat": "8.2", "city": "Mateo", "lon": "2.6"}, {"lat": "8.1333333", "city": "Mayamon", "lon": "1.95"}, {"lat": "8.0666667", "city": "Miniki", "lon": "1.9333333"}, {"lat": "8.0166667", "city": "Moka", "lon": "2.7"}, {"lat": "7.6166667", "city": "Moloukou", "lon": "1.85"}, {"lat": "8.0666667", "city": "Mondji", "lon": "1.9833333"}, {"lat": "8.2", "city": "Mot\u00e9o", "lon": "2.6"}, {"lat": "8.1", "city": "Moumoutiok\u00e9", "lon": "1.9666667"}, {"lat": "7.9833333", "city": "Moussonogi", "lon": "1.9166667"}, {"lat": "7.7333333", "city": "Movio", "lon": "1.7333333"}, {"lat": "8.3", "city": "No\u00efamo", "lon": "1.9"}, {"lat": "8.0166667", "city": "Ogu\u00e9ni", "lon": "2.2166667"}, {"lat": "8.05", "city": "Okio", "lon": "2.7"}, {"lat": "8.0666667", "city": "Oko", "lon": "2.2666667"}, {"lat": "8.0666667", "city": "Okoo", "lon": "2.2666667"}, {"lat": "8.3166667", "city": "Okounfo", "lon": "2.6333333"}, {"lat": "8.4833333", "city": "Okpassa", "lon": "2.4166667"}, {"lat": "8.2166667", "city": "Okp\u00e9di\u00e9", "lon": "1.8666667"}, {"lat": "8.15", "city": "Otala", "lon": "1.65"}, {"lat": "8.15", "city": "Otola", "lon": "1.65"}, {"lat": "8.1166667", "city": "Ouagui", "lon": "2.5666667"}, {"lat": "8.1166667", "city": "Ouao", "lon": "2.5666667"}, {"lat": "7.6666667", "city": "Oudou", "lon": "1.65"}, {"lat": "8.4833333", "city": "Ou\u00e9c\u00e9", "lon": "2.4333333"}, {"lat": "7.9333333", "city": "Ou\u00e9ss\u00e9", "lon": "1.9666667"}, {"lat": "7.7166667", "city": "Ouhouniago", "lon": "1.7333333"}, {"lat": "7.6833333", "city": "Ouikladji", "lon": "1.9666667"}, {"lat": "7.8166667", "city": "Oukouroukoukou", "lon": "1.7333333"}, {"lat": "8.5", "city": "Ounb\u00e8kuido", "lon": "2.4166667"}, {"lat": "7.95", "city": "Oungbehan", "lon": "1.9833333"}, {"lat": "7.6666667", "city": "Ounto", "lon": "1.65"}, {"lat": "8.1166667", "city": "Ouogui", "lon": "2.5666667"}, {"lat": "7.6666667", "city": "Paougnan", "lon": "2.1833333"}, {"lat": "7.6666667", "city": "Paouignan", "lon": "2.1833333"}, {"lat": "7.6666667", "city": "Pawignan", "lon": "2.1833333"}, {"lat": "8.3166667", "city": "P\u00e9l\u00e9", "lon": "1.8166667"}, {"lat": "8.1166667", "city": "P\u00e9p\u00e9lou", "lon": "1.6833333"}, {"lat": "8.5", "city": "Pira", "lon": "1.7333333"}, {"lat": "8.0166667", "city": "Sabalagban", "lon": "2.2"}, {"lat": "8.0166667", "city": "Sabalouagba", "lon": "2.1833333"}, {"lat": "8.1333333", "city": "Sako", "lon": "1.9333333"}, {"lat": "8.1166667", "city": "Sand\u00e9ou", "lon": "2.7166667"}, {"lat": "7.6333333", "city": "San", "lon": "1.7166667"}, {"lat": "7.9333333", "city": "Savalou", "lon": "1.9666667"}, {"lat": "7.9333333", "city": "Savalu", "lon": "1.9666667"}, {"lat": "8.0333333", "city": "Sav\u00e9", "lon": "2.4833333"}, {"lat": "7.8333333", "city": "Sawo", "lon": "1.8"}, {"lat": "8.0166667", "city": "So\u00e9dji", "lon": "1.85"}, {"lat": "7.85", "city": "Sogo", "lon": "1.9"}, {"lat": "7.6833333", "city": "Soklogbo", "lon": "2.25"}, {"lat": "7.9", "city": "Sokponta", "lon": "2.2"}, {"lat": "7.7833333", "city": "Soukouhon", "lon": "1.95"}, {"lat": "8.0666667", "city": "Tak\u00e9t\u00e9", "lon": "1.65"}, {"lat": "7.5666667", "city": "Tcherigb\u00e9", "lon": "2.05"}, {"lat": "7.8333333", "city": "Tchetti-L\u00e9ma", "lon": "1.6666667"}, {"lat": "7.8333333", "city": "Tchetti", "lon": "1.6666667"}, {"lat": "8.3833333", "city": "Tchokobo", "lon": "1.85"}, {"lat": "7.8666667", "city": "Tchokoladjou", "lon": "1.7333333"}, {"lat": "7.8166667", "city": "Tchoukou", "lon": "1.7666667"}, {"lat": "8.5", "city": "Tokuidoho", "lon": "2.4"}, {"lat": "8.5", "city": "Tosso", "lon": "2.35"}, {"lat": "7.8833333", "city": "Tov\u00e9dogho", "lon": "1.8833333"}, {"lat": "7.6333333", "city": "Vivi", "lon": "1.7"}, {"lat": "8.5", "city": "Vossa", "lon": "2.35"}, {"lat": "8.0166667", "city": "W\u00e9d\u00e9m\u00e9", "lon": "2.1666667"}, {"lat": "8.4833333", "city": "Wesse", "lon": "2.4333333"}, {"lat": "8.4833333", "city": "Wessi", "lon": "2.4333333"}, {"lat": "8.1166667", "city": "Wogi", "lon": "2.5666667"}, {"lat": "8.1166667", "city": "Wogui", "lon": "2.5666667"}, {"lat": "8.0833333", "city": "Yagbo", "lon": "2.1166667"}, {"lat": "8.4833333", "city": "Yakoko", "lon": "2.4333333"}, {"lat": "8.4833333", "city": "Yawi", "lon": "2.6166667"}, {"lat": "8.0333333", "city": "You\u00e9", "lon": "2.5666667"}, {"lat": "8.0", "city": "Zomakizi", "lon": "2.0833333"}, {"lat": "7.8666667", "city": "Zoudji", "lon": "1.8166667"}, {"lat": "7.8666667", "city": "Zougu\u00e9m\u00e9", "lon": "1.8333333"}], "02": [{"lat": "6.8166667", "city": "Abotagon", "lon": "2.2"}, {"lat": "6.45", "city": "Acadjama", "lon": "2.1833333"}, {"lat": "6.45", "city": "Acadjam\u00e9", "lon": "2.1833333"}, {"lat": "6.6166667", "city": "Adimal\u00e9", "lon": "2.2"}, {"lat": "6.4", "city": "Adjara", "lon": "2.2"}, {"lat": "6.4", "city": "Adjarra", "lon": "2.2"}, {"lat": "6.7", "city": "Adjian", "lon": "2.3"}, {"lat": "6.35", "city": "Agbanzin", "lon": "2.2166667"}, {"lat": "6.35", "city": "Agbanzinkpota", "lon": "2.2166667"}, {"lat": "6.8166667", "city": "Agbotagon", "lon": "2.2"}, {"lat": "6.85", "city": "Agon", "lon": "2.2166667"}, {"lat": "6.35", "city": "Ahogb\u00e9", "lon": "2.1833333"}, {"lat": "6.3333333", "city": "Aholobou\u00e9", "lon": "2.2333333"}, {"lat": "6.3833333", "city": "Ahozon", "lon": "2.1833333"}, {"lat": "6.4", "city": "Ajara", "lon": "2.2"}, {"lat": "6.65", "city": "Allada", "lon": "2.15"}, {"lat": "6.3333333", "city": "Alohov\u00e8", "lon": "2.2333333"}, {"lat": "6.3333333", "city": "Amer blanchi", "lon": "2.2166667"}, {"lat": "6.7166667", "city": "Attogon", "lon": "2.15"}, {"lat": "6.5", "city": "Avam\u00e9", "lon": "2.2166667"}, {"lat": "6.35", "city": "Avl\u00e9k\u00e9t\u00e9", "lon": "2.2"}, {"lat": "6.3333333", "city": "Avl\u00e9k\u00e9t\u00e9-Plage", "lon": "2.2166667"}, {"lat": "6.35", "city": "Avr\u00e9k\u00e9t\u00e9", "lon": "2.2"}, {"lat": "6.3333333", "city": "Avrekete Beach", "lon": "2.2166667"}, {"lat": "6.3333333", "city": "Avr\u00e9k\u00e9t\u00e9-Plage", "lon": "2.2166667"}, {"lat": "6.5666667", "city": "Azohou\u00e8-Ahiho", "lon": "2.1333333"}, {"lat": "6.5666667", "city": "Azohou\u00e9-Hiho", "lon": "2.1333333"}, {"lat": "6.7166667", "city": "Dahou\u00e9", "lon": "2.2166667"}, {"lat": "6.7166667", "city": "Dessa", "lon": "2.2"}, {"lat": "6.6666667", "city": "Dodji-Bata", "lon": "2.2833333"}, {"lat": "6.7166667", "city": "Dom\u00e9", "lon": "2.2333333"}, {"lat": "6.5833333", "city": "Dondjo", "lon": "2.3"}, {"lat": "6.5666667", "city": "Gbebodji", "lon": "2.3"}, {"lat": "6.5666667", "city": "Gl\u00e9bodji", "lon": "2.3"}, {"lat": "6.6666667", "city": "Govi\u00e9", "lon": "2.2"}, {"lat": "6.3833333", "city": "Hacrozon", "lon": "2.1833333"}, {"lat": "6.7666667", "city": "Henvi", "lon": "2.1666667"}, {"lat": "6.4166667", "city": "H\u00e9vi\u00e9", "lon": "2.25"}, {"lat": "6.7666667", "city": "Hinvi", "lon": "2.1666667"}, {"lat": "6.7666667", "city": "Koundakpo\u00e9", "lon": "2.2666667"}, {"lat": "6.8", "city": "Ouagbo-Aliho", "lon": "2.1666667"}, {"lat": "6.8", "city": "Ouagbo", "lon": "2.1666667"}, {"lat": "6.7", "city": "Ouali", "lon": "2.2333333"}, {"lat": "6.6833333", "city": "Ouancon", "lon": "2.3"}, {"lat": "6.6166667", "city": "Ouaouata", "lon": "2.3"}, {"lat": "6.45", "city": "Ou\u00e9do", "lon": "2.2666667"}, {"lat": "6.65", "city": "Ou\u00e9zoum\u00e9", "lon": "2.25"}, {"lat": "6.7", "city": "Pachagon", "lon": "2.2166667"}, {"lat": "6.3833333", "city": "Pahou", "lon": "2.2166667"}, {"lat": "6.3833333", "city": "Pahu", "lon": "2.2166667"}, {"lat": "6.6166667", "city": "S\u00e9gou", "lon": "2.2166667"}, {"lat": "6.6166667", "city": "S\u00e9kkou", "lon": "2.2166667"}, {"lat": "6.6166667", "city": "S\u00e9kou", "lon": "2.2166667"}, {"lat": "6.3833333", "city": "Soglocodji", "lon": "2.2166667"}, {"lat": "6.3833333", "city": "Sogolocodji", "lon": "2.2166667"}, {"lat": "6.6", "city": "Tangbo", "lon": "2.3"}, {"lat": "6.6833333", "city": "Tanta", "lon": "2.2333333"}, {"lat": "6.5", "city": "Tanto", "lon": "2.2666667"}, {"lat": "6.3833333", "city": "Tchakp\u00e9condji", "lon": "2.1666667"}, {"lat": "6.3833333", "city": "Tchiap\u00e9codji", "lon": "2.1666667"}, {"lat": "6.65", "city": "Togbodo", "lon": "2.1666667"}, {"lat": "6.65", "city": "Togodo", "lon": "2.1666667"}, {"lat": "6.65", "city": "Togoudo", "lon": "2.1666667"}, {"lat": "6.5", "city": "Toki", "lon": "2.15"}, {"lat": "6.45", "city": "Tokoli", "lon": "2.1833333"}, {"lat": "6.5", "city": "Tori-Bossito", "lon": "2.15"}, {"lat": "6.55", "city": "Tori-Cada", "lon": "2.2"}, {"lat": "6.55", "city": "Tori-Kada", "lon": "2.2"}, {"lat": "6.5", "city": "Tori", "lon": "2.15"}, {"lat": "6.55", "city": "Torricada", "lon": "2.2"}, {"lat": "6.8", "city": "Wagbo", "lon": "2.1666667"}, {"lat": "6.65", "city": "Wazume", "lon": "2.25"}, {"lat": "6.7833333", "city": "Z\u00e9", "lon": "2.3"}, {"lat": "6.3833333", "city": "Zougodo", "lon": "2.2333333"}, {"lat": "6.3833333", "city": "Zougoudo", "lon": "2.2333333"}, {"lat": "6.7333333", "city": "Zoumbodji", "lon": "2.1833333"}], "13": [{"lat": "9.6833333", "city": "Afatalanga", "lon": "1.75"}, {"lat": "9.6833333", "city": "Ajetalanga", "lon": "1.75"}, {"lat": "9.6833333", "city": "Babadjimba", "lon": "1.7166667"}, {"lat": "9.7666667", "city": "Bassooussar", "lon": "1.7"}, {"lat": "9.7666667", "city": "Bassoza", "lon": "1.7"}, {"lat": "9.6166667", "city": "Borha", "lon": "1.6666667"}, {"lat": "9.7333333", "city": "Boroukpalrh", "lon": "1.7"}, {"lat": "9.6666667", "city": "Bouloum", "lon": "1.6833333"}, {"lat": "9.6166667", "city": "Boura", "lon": "1.6666667"}, {"lat": "9.6666667", "city": "Bulum", "lon": "1.6833333"}, {"lat": "9.7", "city": "D\u00e9d\u00e9nndeu", "lon": "1.7333333"}, {"lat": "9.7166667", "city": "D\u00e9d\u00e9ra", "lon": "1.75"}, {"lat": "9.7333333", "city": "Dendourhou", "lon": "1.7333333"}, {"lat": "9.6666667", "city": "D\u00e9wa", "lon": "1.6833333"}, {"lat": "9.6166667", "city": "Diapesskoura", "lon": "1.6833333"}, {"lat": "9.705", "city": "Djougou", "lon": "1.6669444"}, {"lat": "9.6833333", "city": "Founga", "lon": "1.5833333"}, {"lat": "9.7333333", "city": "G\u00e2", "lon": "1.75"}, {"lat": "9.6666667", "city": "Gaho", "lon": "1.65"}, {"lat": "9.6666667", "city": "Goumboussa", "lon": "1.7"}, {"lat": "9.6666667", "city": "Goumboussar", "lon": "1.7"}, {"lat": "9.705", "city": "Jugu", "lon": "1.6669444"}, {"lat": "9.6333333", "city": "Kamradour", "lon": "1.6166667"}, {"lat": "9.7", "city": "Kilir", "lon": "1.65"}, {"lat": "9.65", "city": "Kokorobatchori", "lon": "1.75"}, {"lat": "9.65", "city": "Kokorombatiouri", "lon": "1.75"}, {"lat": "9.65", "city": "Koourho", "lon": "1.6666667"}, {"lat": "9.65", "city": "Kourou", "lon": "1.6666667"}, {"lat": "9.75", "city": "Koussount\u00e9", "lon": "1.7166667"}, {"lat": "9.75", "city": "Kpamalangou", "lon": "1.7"}, {"lat": "9.7166667", "city": "Meundostiouri", "lon": "1.65"}, {"lat": "9.7", "city": "Mindielrha", "lon": "1.7333333"}, {"lat": "9.65", "city": "Nangatchori", "lon": "1.7333333"}, {"lat": "9.65", "city": "Nangatiouri", "lon": "1.7333333"}, {"lat": "9.6666667", "city": "Neubrand\u00e9", "lon": "1.6"}, {"lat": "9.7", "city": "Neumbakoulra", "lon": "1.65"}, {"lat": "9.6666667", "city": "Nobrand\u00e9", "lon": "1.6"}, {"lat": "9.6166667", "city": "Palarhou", "lon": "1.65"}, {"lat": "9.75", "city": "Pambalao", "lon": "1.7"}, {"lat": "9.6666667", "city": "Panienandou", "lon": "1.65"}, {"lat": "9.6666667", "city": "Passar", "lon": "1.6333333"}, {"lat": "9.6666667", "city": "Sakalanga", "lon": "1.75"}, {"lat": "9.6333333", "city": "Saoutiouri", "lon": "1.65"}, {"lat": "9.6666667", "city": "Sapaga", "lon": "1.6333333"}, {"lat": "9.6333333", "city": "S\u00e8kolrho", "lon": "1.7333333"}, {"lat": "9.75", "city": "S\u00e9r\u00e8tiouri", "lon": "1.65"}, {"lat": "9.6666667", "city": "S\u00e9rholrhou", "lon": "1.6166667"}, {"lat": "9.7166667", "city": "Seriv\u00e8ri", "lon": "1.7333333"}, {"lat": "9.6666667", "city": "Soubroukou", "lon": "1.6333333"}, {"lat": "9.7", "city": "Tamass\u00e9ka", "lon": "1.65"}, {"lat": "9.6166667", "city": "Tandsara", "lon": "1.65"}, {"lat": "9.6166667", "city": "Tangsara", "lon": "1.65"}, {"lat": "9.6166667", "city": "Tchankou\u00e9gou", "lon": "1.7"}, {"lat": "9.7666667", "city": "Tiadj\u00e8ri", "lon": "1.65"}, {"lat": "9.75", "city": "Tiafoouri", "lon": "1.6833333"}, {"lat": "9.6166667", "city": "Tiankp\u00e8kou", "lon": "1.7"}, {"lat": "9.6666667", "city": "Tieu\u00e9lra", "lon": "1.65"}, {"lat": "9.7", "city": "Tioutioulrho", "lon": "1.65"}, {"lat": "9.7166667", "city": "Tossaou", "lon": "1.75"}, {"lat": "9.7", "city": "Tyilirha", "lon": "1.65"}, {"lat": "9.6333333", "city": "Wavalrha", "lon": "1.7333333"}, {"lat": "9.6833333", "city": "Wawalrha", "lon": "1.7166667"}], "01": [{"lat": "9.1333333", "city": "Ab\u00e9okouta", "lon": "2.15"}, {"lat": "9.6333333", "city": "Abintanga", "lon": "1.9666667"}, {"lat": "9.6333333", "city": "Abitanga", "lon": "1.9666667"}, {"lat": "9.7666667", "city": "Adanion", "lon": "1.7833333"}, {"lat": "9.4166667", "city": "Ad\u00e9d\u00e9wo", "lon": "1.45"}, {"lat": "9.2833333", "city": "Ad\u00e8li", "lon": "1.5"}, {"lat": "9.6", "city": "Adiaida", "lon": "1.3833333"}, {"lat": "9.6", "city": "Adia\u00efd\u00e8", "lon": "1.3833333"}, {"lat": "9.6", "city": "Adiamadiang", "lon": "1.5666667"}, {"lat": "9.5833333", "city": "Afabeusse", "lon": "1.7333333"}, {"lat": "9.6166667", "city": "Afakpara", "lon": "1.7833333"}, {"lat": "9.7488889", "city": "Affon", "lon": "2.0886111"}, {"lat": "9.95", "city": "Affonor", "lon": "1.85"}, {"lat": "9.1", "city": "Afodiobo", "lon": "1.6166667"}, {"lat": "9.7488889", "city": "Afon", "lon": "2.0886111"}, {"lat": "9.7", "city": "Agalad\u00e9", "lon": "1.4"}, {"lat": "9.55", "city": "Agango", "lon": "1.6"}, {"lat": "9.6833333", "city": "Agbalid\u00e8", "lon": "1.4333333"}, {"lat": "9.5666667", "city": "Agbanboulou", "lon": "1.4833333"}, {"lat": "9.4666667", "city": "Agbandab\u00e9", "lon": "1.45"}, {"lat": "9.4666667", "city": "Agbandari", "lon": "1.45"}, {"lat": "10.2", "city": "Agbanson", "lon": "1.7333333"}, {"lat": "9.95", "city": "Agbasson", "lon": "1.7666667"}, {"lat": "9.5833333", "city": "Agnoulako", "lon": "1.4"}, {"lat": "9.3833333", "city": "Agougou", "lon": "1.45"}, {"lat": "9.2", "city": "Agrabansou", "lon": "2.2333333"}, {"lat": "9.5666667", "city": "Agueouda", "lon": "1.5333333"}, {"lat": "9.5666667", "city": "A\u00efwad\u00e8", "lon": "1.5"}, {"lat": "9.35", "city": "Akarad\u00e8", "lon": "1.4166667"}, {"lat": "9.7333333", "city": "Ak\u00e9k\u00e9rou", "lon": "1.9833333"}, {"lat": "8.5833333", "city": "Akoutaoss\u00e9", "lon": "1.7"}, {"lat": "9.4833333", "city": "Akpalodo", "lon": "1.45"}, {"lat": "9.55", "city": "Akp\u00e9a", "lon": "1.6"}, {"lat": "10.1333333", "city": "Akp\u00e9kou", "lon": "1.9666667"}, {"lat": "10.2833333", "city": "Alafiakrou", "lon": "1.9333333"}, {"lat": "10.2833333", "city": "Alafiarou", "lon": "1.9333333"}, {"lat": "9.6", "city": "Alan", "lon": "1.4833333"}, {"lat": "9.35", "city": "Aledjo", "lon": "1.45"}, {"lat": "9.35", "city": "Aledjo-Koura", "lon": "1.45"}, {"lat": "9.35", "city": "Alejo-Kura", "lon": "1.45"}, {"lat": "9.0333333", "city": "Al\u00e9toutou", "lon": "1.8333333"}, {"lat": "9.6166667", "city": "Alfakpara", "lon": "1.7833333"}, {"lat": "9.75", "city": "Alitokoum", "lon": "1.3833333"}, {"lat": "9.2833333", "city": "Alori", "lon": "1.5"}, {"lat": "9.7", "city": "Anair\u00e9", "lon": "1.9"}, {"lat": "9.9552778", "city": "Anandana", "lon": "1.3888889"}, {"lat": "9.7166667", "city": "Ananinga", "lon": "1.9"}, {"lat": "9.7166667", "city": "Angara", "lon": "1.9166667"}, {"lat": "10.0", "city": "Anima", "lon": "1.4"}, {"lat": "9.5333333", "city": "Anira", "lon": "1.3666667"}, {"lat": "9.7166667", "city": "Anoun", "lon": "1.5"}, {"lat": "10.1333333", "city": "Ap\u00e9kou", "lon": "1.9666667"}, {"lat": "9.6833333", "city": "Assara", "lon": "1.3666667"}, {"lat": "9.6833333", "city": "Assarad\u00e8", "lon": "1.3666667"}, {"lat": "8.6166667", "city": "Assion", "lon": "1.6833333"}, {"lat": "9.6166667", "city": "Assod\u00e8 Kandia", "lon": "1.4833333"}, {"lat": "9.6166667", "city": "Asso Kandia", "lon": "1.4833333"}, {"lat": "9.5333333", "city": "Assoumanda", "lon": "1.4666667"}, {"lat": "9.6", "city": "Atad\u00e8", "lon": "1.4666667"}, {"lat": "9.7", "city": "Atahoussar", "lon": "1.5166667"}, {"lat": "9.7166667", "city": "Atakon", "lon": "1.45"}, {"lat": "9.7166667", "city": "Atakouzar", "lon": "1.5166667"}, {"lat": "9.5666667", "city": "Atiakitam", "lon": "1.45"}, {"lat": "9.5", "city": "Atianpakouda", "lon": "1.4833333"}, {"lat": "9.3166667", "city": "Aw\u00e9", "lon": "1.5833333"}, {"lat": "9.5333333", "city": "Aw\u00e9t\u00e9bi", "lon": "1.4833333"}, {"lat": "8.8333333", "city": "Aworo", "lon": "1.65"}, {"lat": "9.5666667", "city": "Awoula", "lon": "1.45"}, {"lat": "9.5833333", "city": "Ayarade", "lon": "1.45"}, {"lat": "10.5833333", "city": "Bababa", "lon": "2.0833333"}, {"lat": "9.75", "city": "Babanzaour\u00e9", "lon": "1.55"}, {"lat": "9.7333333", "city": "Babayakou", "lon": "1.5666667"}, {"lat": "9.8833333", "city": "Babiengda", "lon": "1.7166667"}, {"lat": "10.2", "city": "Bacoussou", "lon": "1.7"}, {"lat": "9.95", "city": "Badefoourma", "lon": "1.45"}, {"lat": "9.7183333", "city": "Badjoud\u00e8", "lon": "1.4141667"}, {"lat": "9.8833333", "city": "Bador\u00e9", "lon": "1.8833333"}, {"lat": "9.8833333", "city": "Badori", "lon": "1.8833333"}, {"lat": "10.5333333", "city": "Bagapodi", "lon": "1.05"}, {"lat": "10.3666667", "city": "Bah\u00f4", "lon": "2.0666667"}, {"lat": "10.7833333", "city": "Bahoumsinou", "lon": "0.95"}, {"lat": "9.0166667", "city": "Bakana-Kari", "lon": "1.65"}, {"lat": "9.4333333", "city": "Bakou", "lon": "2.0666667"}, {"lat": "10.2", "city": "Bakousson", "lon": "1.7"}, {"lat": "9.4166667", "city": "Bakp\u00e9rou", "lon": "1.7333333"}, {"lat": "9.7333333", "city": "Baladjira", "lon": "1.55"}, {"lat": "9.55", "city": "Balma", "lon": "1.5333333"}, {"lat": "9.6833333", "city": "Bambreu", "lon": "1.5"}, {"lat": "9.9", "city": "Bamisso", "lon": "1.7166667"}, {"lat": "10.6833333", "city": "Bamouaga", "lon": "0.85"}, {"lat": "10.1666667", "city": "Bana", "lon": "2.0833333"}, {"lat": "9.75", "city": "Band\u00e9lour\u00e9", "lon": "1.5833333"}, {"lat": "9.7", "city": "Band\u00e9ssar", "lon": "1.55"}, {"lat": "10.4333333", "city": "Bangr\u00e9tamou", "lon": "1.55"}, {"lat": "10.4333333", "city": "Banguiritamou", "lon": "1.55"}, {"lat": "9.4166667", "city": "Baningli", "lon": "1.75"}, {"lat": "9.4666667", "city": "Bankabia", "lon": "1.4666667"}, {"lat": "10.45", "city": "Bansal\u00e9", "lon": "0.8166667"}, {"lat": "10.5833333", "city": "Bantoukou", "lon": "1.4166667"}, {"lat": "10.9", "city": "Baoureu", "lon": "2.1666667"}, {"lat": "10.6166667", "city": "Baratolo", "lon": "1.1833333"}, {"lat": "9.95", "city": "Bar\u00e9", "lon": "1.9666667"}, {"lat": "9.6833333", "city": "Barei", "lon": "1.5666667"}, {"lat": "9.6833333", "city": "Bar\u00e9l", "lon": "1.5666667"}, {"lat": "8.5833333", "city": "Bariba", "lon": "1.7"}, {"lat": "9.95", "city": "Bari", "lon": "1.9666667"}, {"lat": "9.55", "city": "Barman", "lon": "1.5333333"}, {"lat": "9.4166667", "city": "Barp\u00e9gou", "lon": "1.7333333"}, {"lat": "10.85", "city": "Barti\u00e9kouhou", "lon": "0.9166667"}, {"lat": "9.5833333", "city": "Bassaoutiouri", "lon": "1.6166667"}, {"lat": "9.0166667", "city": "Bassila", "lon": "1.6666667"}, {"lat": "10.6166667", "city": "Bassini", "lon": "1.9833333"}, {"lat": "9.65", "city": "Bassoroko", "lon": "1.9"}, {"lat": "9.8333333", "city": "Batak\u00e9ssi", "lon": "1.3833333"}, {"lat": "10.9058333", "city": "Batia", "lon": "1.4897222"}, {"lat": "9.5166667", "city": "Batiaboto", "lon": "1.6166667"}, {"lat": "10.3333333", "city": "Batino", "lon": "2.1"}, {"lat": "9.4666667", "city": "Batiowo", "lon": "1.4666667"}, {"lat": "9.7183333", "city": "Batloud\u00e9", "lon": "1.4141667"}, {"lat": "9.35", "city": "Bayakou", "lon": "1.75"}, {"lat": "10.5666667", "city": "Bazikou", "lon": "1.4833333"}, {"lat": "10.5666667", "city": "B\u00e9atougou", "lon": "1.3333333"}, {"lat": "9.6166667", "city": "B\u00e8hawal\u00e8", "lon": "1.3666667"}, {"lat": "10.1166667", "city": "B\u00e9hokou", "lon": "1.7"}, {"lat": "10.25", "city": "B\u00e9k\u00e9", "lon": "1.9833333"}, {"lat": "10.3", "city": "B\u00e9k\u00e9-Bouram\u00e9", "lon": "1.75"}, {"lat": "10.3", "city": "Beket", "lon": "1.75"}, {"lat": "9.5333333", "city": "Belendiou", "lon": "1.4"}, {"lat": "9.8166667", "city": "Belfoungou", "lon": "1.7166667"}, {"lat": "9.8166667", "city": "Bell\u00e9foungou", "lon": "1.7166667"}, {"lat": "9.8166667", "city": "Bemrha Gonanga", "lon": "1.75"}, {"lat": "9.7333333", "city": "B\u00e8n\u00e8di\u00e8sse", "lon": "1.55"}, {"lat": "10.4166667", "city": "Benntanko", "lon": "1.0666667"}, {"lat": "10.2333333", "city": "B\u00e9rasson", "lon": "1.9833333"}, {"lat": "10.1666667", "city": "Beregnamno", "lon": "1.95"}, {"lat": "10.7", "city": "B\u00e9r\u00e9kossou", "lon": "2.0833333"}, {"lat": "9.5833333", "city": "Berhou", "lon": "1.5166667"}, {"lat": "10.3666667", "city": "B\u00e9ria", "lon": "1.9333333"}, {"lat": "10.1666667", "city": "Berognama", "lon": "1.95"}, {"lat": "10.1666667", "city": "B\u00e9rognamno", "lon": "1.95"}, {"lat": "10.1666667", "city": "Berognanino", "lon": "1.95"}, {"lat": "9.6", "city": "Beumb\u00e8", "lon": "1.4166667"}, {"lat": "9.5833333", "city": "Beumvar", "lon": "1.75"}, {"lat": "9.9", "city": "B\u00e9warangu\u00e9", "lon": "1.6666667"}, {"lat": "10.5833333", "city": "Biakou", "lon": "1.2333333"}, {"lat": "10.3833333", "city": "Biangb\u00e9bou", "lon": "1.9833333"}, {"lat": "9.7833333", "city": "Bidaod\u00e8", "lon": "1.4"}, {"lat": "9.9333333", "city": "Bi\u00e8-Beuss\u00e8nnrha", "lon": "1.4666667"}, {"lat": "9.5833333", "city": "Bignigolrou", "lon": "1.7666667"}, {"lat": "8.7333333", "city": "Biguina", "lon": "1.6333333"}, {"lat": "10.0", "city": "Bilfoourha-Kpasingreu", "lon": "1.4333333"}, {"lat": "9.9", "city": "Bilkolrha", "lon": "1.4166667"}, {"lat": "9.45", "city": "Biniane", "lon": "1.8666667"}, {"lat": "9.45", "city": "Bini\u00e9ra", "lon": "1.8666667"}, {"lat": "10.5833333", "city": "Binon-Inti\u00e9ga", "lon": "1.0"}, {"lat": "9.5833333", "city": "Binyikoulrhou", "lon": "1.7666667"}, {"lat": "9.6", "city": "Bira", "lon": "1.3833333"}, {"lat": "9.9", "city": "Birdjinanga", "lon": "1.75"}, {"lat": "9.75", "city": "Birimanga", "lon": "1.5833333"}, {"lat": "9.9947222", "city": "Birni", "lon": "1.5272222"}, {"lat": "8.9833333", "city": "Bl\u00e9", "lon": "1.95"}, {"lat": "10.6166667", "city": "Boanna", "lon": "1.3833333"}, {"lat": "9.3833333", "city": "Bodi", "lon": "1.5666667"}, {"lat": "9.6333333", "city": "Bodom", "lon": "1.4666667"}, {"lat": "10.85", "city": "Bogolori-Kapahoun", "lon": "0.9666667"}, {"lat": "9.7166667", "city": "Bohoumkoara", "lon": "1.4"}, {"lat": "10.25", "city": "Bok\u00e9r\u00e9rou", "lon": "2.0666667"}, {"lat": "9.0", "city": "Bomako", "lon": "1.8333333"}, {"lat": "10.05", "city": "Bongourou", "lon": "2.05"}, {"lat": "9.5", "city": "Boni-Korokou", "lon": "1.9"}, {"lat": "10.8", "city": "Bonipotoko", "lon": "2.1"}, {"lat": "10.0", "city": "Bonkorou", "lon": "1.5833333"}, {"lat": "9.7", "city": "Booumoo", "lon": "1.4166667"}, {"lat": "10.3833333", "city": "Bor\u00e9", "lon": "1.6833333"}, {"lat": "10.2833333", "city": "Boressinkou", "lon": "1.7"}, {"lat": "10.4", "city": "Bor\u00e9y\u00e8nd\u00e9", "lon": "1.6333333"}, {"lat": "10.6333333", "city": "Bori", "lon": "0.9333333"}, {"lat": "9.1833333", "city": "Borko", "lon": "1.75"}, {"lat": "10.7166667", "city": "Boro", "lon": "1.8166667"}, {"lat": "10.4833333", "city": "Borogou", "lon": "1.55"}, {"lat": "10.6166667", "city": "Boro\u00efendi", "lon": "1.5833333"}, {"lat": "10.3333333", "city": "Borokou", "lon": "1.65"}, {"lat": "10.2833333", "city": "Borosincou", "lon": "1.7"}, {"lat": "10.4", "city": "Boroyende", "lon": "1.6333333"}, {"lat": "9.8", "city": "Bortoko", "lon": "1.9"}, {"lat": "10.2166667", "city": "Bouatani", "lon": "1.2666667"}, {"lat": "10.6", "city": "Boucoussourou", "lon": "1.75"}, {"lat": "9.7833333", "city": "Boudaa", "lon": "1.3833333"}, {"lat": "10.1666667", "city": "Bou\u00e9rou-Bankrannou", "lon": "1.95"}, {"lat": "10.1666667", "city": "Bou\u00e9rou-Gourou", "lon": "1.95"}, {"lat": "10.2166667", "city": "Bouessinakourou", "lon": "1.75"}, {"lat": "10.0", "city": "Bougou", "lon": "1.4666667"}, {"lat": "10.1766667", "city": "Boukomb\u00e9", "lon": "1.1061111"}, {"lat": "10.1766667", "city": "Boukomo\u00e9", "lon": "1.1061111"}, {"lat": "10.1825", "city": "Boukonmb\u00e9-Zongo", "lon": "1.0983333"}, {"lat": "10.9666667", "city": "Boukoubrou", "lon": "2.2166667"}, {"lat": "10.1766667", "city": "Boukoumb\u00e9", "lon": "1.1061111"}, {"lat": "10.65", "city": "Bouloumizak\u00e9", "lon": "1.1666667"}, {"lat": "10.75", "city": "Bouloupouya", "lon": "1.35"}, {"lat": "10.7", "city": "Boulout\u00e9k\u00e9", "lon": "0.9166667"}, {"lat": "10.1", "city": "Bound\u00e9", "lon": "2.0333333"}, {"lat": "10.0", "city": "Boungou", "lon": "1.4666667"}, {"lat": "10.6", "city": "Bounkossorou", "lon": "1.75"}, {"lat": "10.6166667", "city": "Bounta", "lon": "1.35"}, {"lat": "10.4333333", "city": "Bouranga", "lon": "1.5833333"}, {"lat": "10.1666667", "city": "Bourass\u00e9rou", "lon": "2.0333333"}, {"lat": "10.5166667", "city": "Bourbansifa", "lon": "1.2833333"}, {"lat": "9.65", "city": "Bourdour", "lon": "1.8333333"}, {"lat": "9.65", "city": "Bourdourha", "lon": "1.8333333"}, {"lat": "10.7", "city": "Bourfa-Bourfa", "lon": "1.75"}, {"lat": "10.4666667", "city": "Bourogourou", "lon": "2.0333333"}, {"lat": "10.8166667", "city": "Bourouyor\u00e9", "lon": "1.0333333"}, {"lat": "10.2", "city": "Boussasambou", "lon": "1.4333333"}, {"lat": "10.1833333", "city": "Boussinkouarou", "lon": "2.2333333"}, {"lat": "9.4166667", "city": "Boutou", "lon": "1.5166667"}, {"lat": "10.75", "city": "Boutouhoum", "lon": "0.8666667"}, {"lat": "9.4166667", "city": "Boutoum", "lon": "1.5166667"}, {"lat": "9.9", "city": "Breudjinanga", "lon": "1.75"}, {"lat": "10.75", "city": "Briniamaro", "lon": "2.0833333"}, {"lat": "10.1766667", "city": "Bukombe", "lon": "1.1061111"}, {"lat": "9.4166667", "city": "Butum", "lon": "1.5166667"}, {"lat": "10.4666667", "city": "Cabare", "lon": "1.7"}, {"lat": "10.4", "city": "Campouya", "lon": "1.6166667"}, {"lat": "10.4", "city": "C\u00e9ra", "lon": "1.7666667"}, {"lat": "10.0", "city": "Chabi-Kouma", "lon": "1.4666667"}, {"lat": "10.3166667", "city": "Chiakanoukon\u00e9", "lon": "2.1166667"}, {"lat": "9.3666667", "city": "Choparacha", "lon": "1.4166667"}, {"lat": "9.8375", "city": "Copargo", "lon": "1.5480556"}, {"lat": "10.4666667", "city": "Couba", "lon": "1.6333333"}, {"lat": "9.8333333", "city": "Dableurha", "lon": "1.45"}, {"lat": "10.9333333", "city": "Dabogohoun", "lon": "1.0"}, {"lat": "9.4166667", "city": "Dabogou", "lon": "1.9166667"}, {"lat": "10.7166667", "city": "Daboka", "lon": "1.0166667"}, {"lat": "9.95", "city": "Dabonkou", "lon": "1.5833333"}, {"lat": "8.5666667", "city": "Dadjo", "lon": "2.2333333"}, {"lat": "10.1166667", "city": "Dagui", "lon": "1.8666667"}, {"lat": "8.5666667", "city": "Dajo", "lon": "2.2333333"}, {"lat": "10.2166667", "city": "Dak\u00e9r\u00e9rou", "lon": "2.15"}, {"lat": "10.5166667", "city": "Dakou", "lon": "1.7"}, {"lat": "10.9", "city": "Dalaboiga", "lon": "1.0166667"}, {"lat": "9.95", "city": "Dalrakparou-Satieukeu", "lon": "1.7333333"}, {"lat": "10.6333333", "city": "Dammbouti", "lon": "1.7833333"}, {"lat": "10.6833333", "city": "Damon", "lon": "1.0333333"}, {"lat": "10.3333333", "city": "Dangar\u00e9", "lon": "1.55"}, {"lat": "9.3333333", "city": "Dangou", "lon": "1.75"}, {"lat": "9.6833333", "city": "Dangoussar", "lon": "1.55"}, {"lat": "9.3333333", "city": "Dangu", "lon": "1.75"}, {"lat": "10.5166667", "city": "Danguimapiga", "lon": "1.3333333"}, {"lat": "10.4166667", "city": "Danr\u00e9", "lon": "1.6833333"}, {"lat": "10.4166667", "city": "Danri", "lon": "1.6833333"}, {"lat": "9.7666667", "city": "Dapiendi", "lon": "1.6333333"}, {"lat": "9.45", "city": "Daringa", "lon": "2.0333333"}, {"lat": "9.8666667", "city": "Darninga", "lon": "1.6"}, {"lat": "10.5666667", "city": "Daro-Tempobr\u00e9", "lon": "1.55"}, {"lat": "10.4166667", "city": "Darou-Irou", "lon": "1.7333333"}, {"lat": "9.85", "city": "Daroun", "lon": "1.55"}, {"lat": "10.4166667", "city": "Daro-Wirou", "lon": "1.7333333"}, {"lat": "10.8158333", "city": "Dassari", "lon": "1.1405556"}, {"lat": "10.2166667", "city": "Dasso", "lon": "2.05"}, {"lat": "10.8158333", "city": "Dassori", "lon": "1.1405556"}, {"lat": "10.4016667", "city": "Datori", "lon": "0.7827778"}, {"lat": "10.4333333", "city": "Datori-Ganganba", "lon": "0.8"}, {"lat": "10.4016667", "city": "Datori-Tiokossi", "lon": "0.7827778"}, {"lat": "9.5666667", "city": "De\u00efnga", "lon": "1.7166667"}, {"lat": "9.3333333", "city": "Deingou", "lon": "1.75"}, {"lat": "10.2333333", "city": "D\u00e8k\u00e8rou", "lon": "1.6833333"}, {"lat": "9.3333333", "city": "Demgo", "lon": "1.75"}, {"lat": "9.3333333", "city": "Demou", "lon": "1.75"}, {"lat": "9.7666667", "city": "Dempage Ti\u00e9n\u00e9", "lon": "1.6166667"}, {"lat": "9.6", "city": "D\u00e8msirou", "lon": "1.9166667"}, {"lat": "9.5666667", "city": "Denga", "lon": "1.7166667"}, {"lat": "9.3333333", "city": "Dengu", "lon": "1.75"}, {"lat": "10.05", "city": "D\u00e9r\u00e9", "lon": "1.9833333"}, {"lat": "9.65", "city": "Derhirha", "lon": "1.5"}, {"lat": "10.4", "city": "D\u00e9rou", "lon": "1.7166667"}, {"lat": "9.8", "city": "Diapengou", "lon": "1.6833333"}, {"lat": "10.5333333", "city": "Diboiri", "lon": "1.0333333"}, {"lat": "9.7666667", "city": "Didinga", "lon": "1.8166667"}, {"lat": "9.7333333", "city": "Di\u00e8nendonanga", "lon": "1.8333333"}, {"lat": "9.3333333", "city": "Diengou", "lon": "1.75"}, {"lat": "9.5833333", "city": "Dierhou Bare\u00ef", "lon": "1.55"}, {"lat": "9.6166667", "city": "Di\u00e8rhou", "lon": "1.6"}, {"lat": "10.1666667", "city": "Dikiatipouri", "lon": "1.4166667"}, {"lat": "10.3833333", "city": "Dikinmbouni", "lon": "1.3"}, {"lat": "10.4333333", "city": "Dikokor\u00e9", "lon": "1.3333333"}, {"lat": "10.3166667", "city": "Dikongun\u00e9", "lon": "1.0666667"}, {"lat": "10.3333333", "city": "Dimatadoni", "lon": "1.1166667"}, {"lat": "10.05", "city": "Dinoun-Kouani", "lon": "1.45"}, {"lat": "10.3833333", "city": "Dipenntakouani", "lon": "1.0666667"}, {"lat": "10.3", "city": "Dipoko", "lon": "1.1"}, {"lat": "10.05", "city": "Dir\u00e9pouro", "lon": "1.55"}, {"lat": "10.45", "city": "Dissioul\u00e9", "lon": "0.8833333"}, {"lat": "10.1333333", "city": "Ditapenndi\u00e9ri", "lon": "1.45"}, {"lat": "9.8", "city": "Djakpengou", "lon": "1.6833333"}, {"lat": "9.45", "city": "Djenk\u00e8me", "lon": "1.45"}, {"lat": "10.0", "city": "Dj\u00e9ss\u00e9kou-Sinngreu", "lon": "1.65"}, {"lat": "9.4333333", "city": "Djigoro", "lon": "1.8833333"}, {"lat": "9.6166667", "city": "Djou\u00e9", "lon": "1.4666667"}, {"lat": "10.3333333", "city": "D\u00f4", "lon": "1.9333333"}, {"lat": "10.4833333", "city": "Dogomass\u00e9ri", "lon": "1.3333333"}, {"lat": "9.1", "city": "Dogu\u00e9", "lon": "1.9333333"}, {"lat": "10.3333333", "city": "Doh", "lon": "1.9333333"}, {"lat": "10.6833333", "city": "Dololi", "lon": "0.9666667"}, {"lat": "10.7833333", "city": "Dom\u00e9zeka", "lon": "1.1333333"}, {"lat": "9.7183333", "city": "Dompago", "lon": "1.4141667"}, {"lat": "9.9333333", "city": "Donenga", "lon": "1.4166667"}, {"lat": "9.9833333", "city": "Donfoourha-Tarhou", "lon": "1.4166667"}, {"lat": "9.7097222", "city": "Donga", "lon": "1.9525"}, {"lat": "9.7166667", "city": "Dongatouap\u00e8roun", "lon": "1.5833333"}, {"lat": "9.7097222", "city": "Dongo", "lon": "1.9525"}, {"lat": "9.9166667", "city": "Doningri", "lon": "1.4333333"}, {"lat": "10.4", "city": "Dontou", "lon": "0.95"}, {"lat": "9.6166667", "city": "Dooungl\u00e9", "lon": "1.45"}, {"lat": "9.8666667", "city": "Dor", "lon": "1.5"}, {"lat": "9.7097222", "city": "Dorgo", "lon": "1.9525"}, {"lat": "9.75", "city": "Dori", "lon": "1.55"}, {"lat": "10.1333333", "city": "Douanni", "lon": "1.4"}, {"lat": "9.5333333", "city": "Doubranoua", "lon": "1.95"}, {"lat": "10.6", "city": "Dougoussi", "lon": "0.9333333"}, {"lat": "10.3", "city": "Doukoud\u00e9rou", "lon": "2.0833333"}, {"lat": "9.5333333", "city": "Doukoundri", "lon": "1.4333333"}, {"lat": "10.1833333", "city": "Doundakoro", "lon": "1.7666667"}, {"lat": "9.5333333", "city": "Dourap\u00e9roun", "lon": "1.95"}, {"lat": "9.6", "city": "Dovalrha", "lon": "1.75"}, {"lat": "9.6", "city": "Dowali", "lon": "1.9666667"}, {"lat": "10.4", "city": "Doyakou", "lon": "1.35"}, {"lat": "10.25", "city": "Dozo", "lon": "0.9833333"}, {"lat": "10.3166667", "city": "Dukointonmbini", "lon": "1.2666667"}, {"lat": "10.4666667", "city": "Dukond\u00e9", "lon": "0.7833333"}, {"lat": "9.6333333", "city": "Edjiridji", "lon": "1.4333333"}, {"lat": "10.3666667", "city": "Ekanikl\u00e9", "lon": "0.9833333"}, {"lat": "9.5", "city": "Ekp\u00e9l\u00e9gnou", "lon": "1.4166667"}, {"lat": "9.55", "city": "Elaou", "lon": "1.45"}, {"lat": "9.5380556", "city": "Eratio", "lon": "1.5494444"}, {"lat": "10.0333333", "city": "Fabasofa", "lon": "1.3833333"}, {"lat": "10.1166667", "city": "Fafa", "lon": "1.3"}, {"lat": "10.2333333", "city": "Fakou\u00e8tif\u00e9", "lon": "1.4833333"}, {"lat": "10.6166667", "city": "Fanaborfa", "lon": "1.3833333"}, {"lat": "9.5", "city": "Farou", "lon": "1.6166667"}, {"lat": "10.0333333", "city": "Fassoboufa", "lon": "1.3833333"}, {"lat": "9.9666667", "city": "Fay\u00e8lro", "lon": "1.6333333"}, {"lat": "10.3666667", "city": "Fayour\u00e9", "lon": "1.5166667"}, {"lat": "10.5833333", "city": "F\u00e9hindoukou", "lon": "1.1833333"}, {"lat": "10.7", "city": "F\u00e9houn", "lon": "0.9333333"}, {"lat": "9.75", "city": "F\u00e8ne", "lon": "1.45"}, {"lat": "10.5", "city": "F\u00e9niagoubout\u00e9", "lon": "1.4833333"}, {"lat": "9.9333333", "city": "Ferme de Ps\u00e9an", "lon": "1.4666667"}, {"lat": "10.8", "city": "F\u00e9t\u00e9kou", "lon": "2.1833333"}, {"lat": "10.85", "city": "Firihoum", "lon": "1.05"}, {"lat": "10.85", "city": "Firohoun", "lon": "1.05"}, {"lat": "10.9191667", "city": "Firou", "lon": "1.9386111"}, {"lat": "10.9191667", "city": "Firu", "lon": "1.9386111"}, {"lat": "10.4666667", "city": "Fitiparakou", "lon": "1.3"}, {"lat": "10.4166667", "city": "Fititamon", "lon": "1.3166667"}, {"lat": "10.3666667", "city": "F\u00f4-F\u00e9birou", "lon": "1.6666667"}, {"lat": "10.4166667", "city": "F\u00f4", "lon": "1.6833333"}, {"lat": "10.8333333", "city": "Fohoma", "lon": "1.8333333"}, {"lat": "10.2333333", "city": "Fokouat\u00e9f\u00e9", "lon": "1.4833333"}, {"lat": "10.2166667", "city": "Fokounfa", "lon": "1.3"}, {"lat": "9.7", "city": "Fokpar\u00e8\u00ef", "lon": "1.9"}, {"lat": "10.1666667", "city": "Fonboko", "lon": "1.7833333"}, {"lat": "9.9666667", "city": "Foopsoulrha", "lon": "1.5666667"}, {"lat": "9.95", "city": "Foopt\u00e8lrha", "lon": "1.4666667"}, {"lat": "10.4166667", "city": "Fo-P\u00e9biou", "lon": "1.6833333"}, {"lat": "9.65", "city": "Forparanga", "lon": "1.8166667"}, {"lat": "9.65", "city": "Forpar\u00e9", "lon": "1.8166667"}, {"lat": "10.4833333", "city": "Fotid\u00e9", "lon": "1.4166667"}, {"lat": "10.4833333", "city": "Fotir\u00e9", "lon": "1.4166667"}, {"lat": "9.9166667", "city": "Foumb\u00e9rha", "lon": "1.7833333"}, {"lat": "9.45", "city": "Foungbeusse", "lon": "1.65"}, {"lat": "9.9833333", "city": "Foungou", "lon": "1.3833333"}, {"lat": "9.8", "city": "Foungpelrha", "lon": "1.75"}, {"lat": "9.5666667", "city": "Fourayaka", "lon": "1.7666667"}, {"lat": "9.9", "city": "Fowa", "lon": "1.55"}, {"lat": "10.3666667", "city": "Gabori", "lon": "0.8166667"}, {"lat": "10.0333333", "city": "Gah\u00f4", "lon": "2.0"}, {"lat": "10.9833333", "city": "Galini", "lon": "1.9833333"}, {"lat": "10.9", "city": "Gambor\u00e9", "lon": "2.1666667"}, {"lat": "10.4833333", "city": "Gamboudarou", "lon": "1.6833333"}, {"lat": "10.9", "city": "Gambou\u00e9", "lon": "2.1666667"}, {"lat": "10.9", "city": "Gambure", "lon": "2.1666667"}, {"lat": "10.9", "city": "Ganbor\u00e9", "lon": "2.1666667"}, {"lat": "10.1833333", "city": "Gando", "lon": "1.6166667"}, {"lat": "9.85", "city": "Gangamou", "lon": "1.85"}, {"lat": "9.8333333", "city": "Gangassi", "lon": "1.6833333"}, {"lat": "10.3166667", "city": "Ganikp\u00e9rou", "lon": "1.6333333"}, {"lat": "10.3166667", "city": "Ganiperou", "lon": "1.6333333"}, {"lat": "10.4833333", "city": "Ganmbodanrou", "lon": "1.6833333"}, {"lat": "10.8833333", "city": "Gantodo", "lon": "2.1666667"}, {"lat": "9.65", "city": "Gaoudyira", "lon": "1.4833333"}, {"lat": "9.45", "city": "Gaougado", "lon": "1.5"}, {"lat": "9.9833333", "city": "Garakoursi", "lon": "1.6833333"}, {"lat": "9.3", "city": "Gassagadi", "lon": "1.6"}, {"lat": "9.25", "city": "Gatakpal", "lon": "1.5833333"}, {"lat": "9.3", "city": "Gazagadi", "lon": "1.6"}, {"lat": "9.5166667", "city": "Gbangbandjalefintam", "lon": "1.45"}, {"lat": "9.9833333", "city": "Gbangbanrou", "lon": "1.7666667"}, {"lat": "9.9833333", "city": "Gbangbar-P\u00e9roun", "lon": "1.7666667"}, {"lat": "10.2", "city": "Gbari", "lon": "2.1166667"}, {"lat": "9.65", "city": "Gbasso", "lon": "1.9"}, {"lat": "9.9833333", "city": "Gberniki", "lon": "1.4833333"}, {"lat": "9.4666667", "city": "Gbessou", "lon": "1.6166667"}, {"lat": "10.35", "city": "Gbirikorou", "lon": "1.7"}, {"lat": "9.55", "city": "Gboudia", "lon": "1.6"}, {"lat": "10.2333333", "city": "Gbouiba", "lon": "1.8833333"}, {"lat": "9.85", "city": "Gboumgboum", "lon": "1.65"}, {"lat": "9.6833333", "city": "Gogorofiyenga", "lon": "1.9333333"}, {"lat": "9.7333333", "city": "Gogossi", "lon": "1.9833333"}, {"lat": "9.5833333", "city": "Gongoninga", "lon": "1.5833333"}, {"lat": "10.25", "city": "Goni", "lon": "2.05"}, {"lat": "9.7333333", "city": "Gonnde\u00efzar", "lon": "1.5166667"}, {"lat": "9.6166667", "city": "Goound\u00e9", "lon": "1.5666667"}, {"lat": "9.4833333", "city": "Goounkpa", "lon": "1.8166667"}, {"lat": "9.8833333", "city": "Gorap\u00e8roun", "lon": "1.6166667"}, {"lat": "10.1166667", "city": "Gorgoba", "lon": "1.5833333"}, {"lat": "10.8833333", "city": "Gori", "lon": "1.8666667"}, {"lat": "9.75", "city": "Gorosso", "lon": "2.05"}, {"lat": "10.7827778", "city": "Gouand\u00e9", "lon": "0.9186111"}, {"lat": "10.3666667", "city": "Gouboko", "lon": "1.8"}, {"lat": "10.3", "city": "Gouelgoulgoula", "lon": "2.1333333"}, {"lat": "10.2333333", "city": "Goulalou", "lon": "1.9833333"}, {"lat": "9.5833333", "city": "Goumbako", "lon": "1.5833333"}, {"lat": "9.55", "city": "Goumbakou", "lon": "1.6333333"}, {"lat": "9.4833333", "city": "Goumbiyako", "lon": "1.8333333"}, {"lat": "9.9333333", "city": "Goumourhou-Gpandolou", "lon": "1.5833333"}, {"lat": "9.9833333", "city": "Goumourhou-Sinngreu", "lon": "1.6"}, {"lat": "10.0", "city": "Gounandi", "lon": "1.7166667"}, {"lat": "10.7833333", "city": "Gouni\u00e9nou", "lon": "2.1"}, {"lat": "10.45", "city": "Gounobin\u00e9", "lon": "1.8"}, {"lat": "10.2", "city": "Gountia", "lon": "2.1"}, {"lat": "10.0", "city": "Gourandi", "lon": "1.7166667"}, {"lat": "10.0333333", "city": "Goussonbouya", "lon": "1.6333333"}, {"lat": "10.3666667", "city": "Gout\u00e9r\u00e9", "lon": "1.7666667"}, {"lat": "10.3666667", "city": "Gouti\u00e9r\u00e9", "lon": "1.7666667"}, {"lat": "9.2666667", "city": "Goutoungadoni", "lon": "1.5"}, {"lat": "10.0", "city": "Gozina", "lon": "1.8"}, {"lat": "9.05", "city": "Guiguiso", "lon": "1.6833333"}, {"lat": "9.05", "city": "Guiguizo", "lon": "1.6833333"}, {"lat": "10.5658333", "city": "Guilmaro", "lon": "1.7244444"}, {"lat": "10.25", "city": "Guinb\u00e9r\u00e9rou", "lon": "2.1333333"}, {"lat": "10.7827778", "city": "Gwande", "lon": "0.9186111"}, {"lat": "10.5727778", "city": "Holli", "lon": "0.9886111"}, {"lat": "9.9833333", "city": "Hongon", "lon": "1.55"}, {"lat": "9.0833333", "city": "Iboumakoro", "lon": "1.9"}, {"lat": "8.9833333", "city": "Igb\u00e9r\u00e9", "lon": "1.95"}, {"lat": "9.0833333", "city": "Igbomakoro", "lon": "1.9"}, {"lat": "8.9833333", "city": "Igbr\u00e9", "lon": "1.95"}, {"lat": "9.5", "city": "Ikp\u00e9l\u00e8nion", "lon": "1.4166667"}, {"lat": "8.8", "city": "Il\u00e9", "lon": "2.2666667"}, {"lat": "10.4", "city": "Imafot\u00e9", "lon": "1.2333333"}, {"lat": "10.3166667", "city": "Inadiponi", "lon": "1.1166667"}, {"lat": "10.4", "city": "Inafonnt\u00e9", "lon": "1.2333333"}, {"lat": "9.2333333", "city": "Inkoloni\u00e9", "lon": "1.4833333"}, {"lat": "10.5166667", "city": "Itorotiw\u00e9", "lon": "0.8166667"}, {"lat": "10.5666667", "city": "Itouad\u00e9", "lon": "0.8666667"}, {"lat": "9.3666667", "city": "Iyo", "lon": "1.5166667"}, {"lat": "10.2", "city": "Kabagourou", "lon": "1.6333333"}, {"lat": "10.4666667", "city": "Kabar\u00e9", "lon": "1.7"}, {"lat": "10.0166667", "city": "Kabatjar\u00e9", "lon": "1.4166667"}, {"lat": "10.3", "city": "Kabiti\u00e9ni", "lon": "0.8833333"}, {"lat": "9.5833333", "city": "Kabiya", "lon": "1.3833333"}, {"lat": "9.4833333", "city": "Kadabida", "lon": "1.4833333"}, {"lat": "10.35", "city": "Kadian\u00e9", "lon": "0.8833333"}, {"lat": "9.3666667", "city": "Kadjimani", "lon": "1.5333333"}, {"lat": "9.7333333", "city": "Kadolassi", "lon": "1.3833333"}, {"lat": "10.5833333", "city": "Kadouaga", "lon": "0.8166667"}, {"lat": "10.5", "city": "Kagafa", "lon": "1.5833333"}, {"lat": "9.5", "city": "Kakandoni", "lon": "1.6333333"}, {"lat": "9.5", "city": "Kakeudoni", "lon": "1.6333333"}, {"lat": "10.5166667", "city": "Kakouanga", "lon": "0.8833333"}, {"lat": "10.0166667", "city": "Kakou", "lon": "1.4"}, {"lat": "9.9", "city": "Kakpala", "lon": "1.3666667"}, {"lat": "9.7333333", "city": "Kakpalrha", "lon": "1.4333333"}, {"lat": "10.7333333", "city": "Kalabon", "lon": "1.1666667"}, {"lat": "10.7", "city": "Kal\u00e9poihon", "lon": "0.8666667"}, {"lat": "9.6333333", "city": "Kambatiouri", "lon": "1.5666667"}, {"lat": "9.9333333", "city": "Kamorho-Galorha", "lon": "1.6166667"}, {"lat": "9.9333333", "city": "Kamorho-Sinngreu", "lon": "1.55"}, {"lat": "10.65", "city": "Kanbaka", "lon": "0.8333333"}, {"lat": "10.25", "city": "Kanbani", "lon": "2.1333333"}, {"lat": "10.2833333", "city": "Kanbourfa", "lon": "1.5333333"}, {"lat": "9.6333333", "city": "Kandia Koubong", "lon": "1.4833333"}, {"lat": "10.8333333", "city": "Kandjo", "lon": "0.95"}, {"lat": "10.85", "city": "Kandou", "lon": "1.1"}, {"lat": "10.6333333", "city": "Kan\u00e9", "lon": "0.85"}, {"lat": "10.7666667", "city": "Kangourou", "lon": "2.0666667"}, {"lat": "10.65", "city": "Kaniama", "lon": "1.9833333"}, {"lat": "9.5666667", "city": "Kani\u00e8f\u00e8l\u00e8", "lon": "1.3666667"}, {"lat": "8.9666667", "city": "Kani", "lon": "1.7166667"}, {"lat": "10.7166667", "city": "Kaninaranz\u00e9ka", "lon": "1.0666667"}, {"lat": "9.5333333", "city": "Kankalo", "lon": "1.5333333"}, {"lat": "10.0166667", "city": "Kankiakou", "lon": "1.45"}, {"lat": "10.7166667", "city": "Kankini", "lon": "1.0333333"}, {"lat": "10.8", "city": "Kankohoum-Dassari", "lon": "1.15"}, {"lat": "9.9666667", "city": "Kankoulrha-Beuss\u00e8nnrha", "lon": "1.4666667"}, {"lat": "9.9666667", "city": "Kankoulrha", "lon": "1.4333333"}, {"lat": "9.95", "city": "Kankoulrha-Neumrhou", "lon": "1.4833333"}, {"lat": "9.9666667", "city": "Kankoulrha-Sinngreu", "lon": "1.5"}, {"lat": "9.95", "city": "Kankoulzourha", "lon": "1.55"}, {"lat": "10.4", "city": "Kanpouya", "lon": "1.6166667"}, {"lat": "10.2833333", "city": "Kanson", "lon": "1.4833333"}, {"lat": "10.4833333", "city": "Kantanga", "lon": "1.2833333"}, {"lat": "9.45", "city": "Kaout\u00e9", "lon": "1.5333333"}, {"lat": "9.5666667", "city": "Karatialrho", "lon": "1.5"}, {"lat": "9.8166667", "city": "Karlroum-Dorha", "lon": "1.45"}, {"lat": "9.8166667", "city": "Karlroum-Mal\u00e9rhou", "lon": "1.45"}, {"lat": "9.7666667", "city": "Kassad\u00e9", "lon": "1.3666667"}, {"lat": "9.5333333", "city": "Kassalia", "lon": "1.4666667"}, {"lat": "9.9", "city": "Katabam", "lon": "1.5333333"}, {"lat": "10.3", "city": "Kataban", "lon": "1.7"}, {"lat": "9.8", "city": "Katakpalao", "lon": "1.3666667"}, {"lat": "10.6166667", "city": "Katari", "lon": "1.0333333"}, {"lat": "9.4166667", "city": "Katia", "lon": "1.5"}, {"lat": "10.3166667", "city": "Katinga", "lon": "1.1666667"}, {"lat": "10.9166667", "city": "Katiohoun", "lon": "1.0"}, {"lat": "9.45", "city": "Katoulanga", "lon": "1.5833333"}, {"lat": "9.7666667", "city": "Kawado", "lon": "1.4"}, {"lat": "9.4666667", "city": "Kawala", "lon": "1.5166667"}, {"lat": "10.5333333", "city": "Kayod\u00e9", "lon": "0.8666667"}, {"lat": "10.6708333", "city": "K\u00e9b\u00e9rou", "lon": "1.885"}, {"lat": "10.6708333", "city": "K\u00e9d\u00e9kou", "lon": "1.885"}, {"lat": "10.75", "city": "K\u00e9diahon", "lon": "1.15"}, {"lat": "9.55", "city": "K\u00e8k\u00e8l\u00e8ba", "lon": "1.45"}, {"lat": "9.0166667", "city": "K\u00e9k\u00e9l\u00e9", "lon": "1.7333333"}, {"lat": "9.9", "city": "K\u00e8k\u00e8lrha", "lon": "1.5666667"}, {"lat": "9.3166667", "city": "K\u00e9m\u00e9ni", "lon": "1.5833333"}, {"lat": "9.3333333", "city": "K\u00e9m\u00e9tou Alidjo", "lon": "1.5333333"}, {"lat": "9.3166667", "city": "K\u00e9m\u00e9tou P\u00e9n\u00e9zoulou", "lon": "1.5333333"}, {"lat": "10.8166667", "city": "K\u00e9rou Hirou", "lon": "2.1166667"}, {"lat": "10.825", "city": "K\u00e9rou", "lon": "2.1094444"}, {"lat": "10.7333333", "city": "K\u00e9rou Wirou", "lon": "2.15"}, {"lat": "10.7", "city": "Kial\u00e9kounga", "lon": "0.8166667"}, {"lat": "10.4333333", "city": "Kianatatingou", "lon": "1.3666667"}, {"lat": "10.4", "city": "Kiatiko", "lon": "1.2833333"}, {"lat": "10.1666667", "city": "Kiga", "lon": "2.15"}, {"lat": "10.1166667", "city": "Kika", "lon": "2.1"}, {"lat": "9.0166667", "city": "Kik\u00e8l\u00e8", "lon": "1.7333333"}, {"lat": "10.3333333", "city": "Kilibo", "lon": "1.8166667"}, {"lat": "9.6", "city": "Kimkim", "lon": "1.3666667"}, {"lat": "10.4666667", "city": "Kiotoga", "lon": "1.3333333"}, {"lat": "9.6", "city": "Kiranga", "lon": "1.7666667"}, {"lat": "9.0", "city": "Koakoaliki", "lon": "1.8166667"}, {"lat": "10.6166667", "city": "Koamogou", "lon": "1.3666667"}, {"lat": "10.4855556", "city": "Kobli", "lon": "1.0094444"}, {"lat": "9.75", "city": "Kodi\u00e9ri", "lon": "1.55"}, {"lat": "9.6833333", "city": "Kodondi\u00e8re", "lon": "1.8"}, {"lat": "10.45", "city": "Kohbl\u00e9", "lon": "0.85"}, {"lat": "9.9833333", "city": "Kohob\u00e9i", "lon": "1.3666667"}, {"lat": "9.9833333", "city": "Kohob\u00e8", "lon": "1.3666667"}, {"lat": "10.45", "city": "Kokita", "lon": "1.35"}, {"lat": "9.6", "city": "Kokoba", "lon": "1.6166667"}, {"lat": "10.4833333", "city": "Kokobr\u00e9", "lon": "1.4"}, {"lat": "10.75", "city": "Kokogou", "lon": "2.2166667"}, {"lat": "10.65", "city": "Kokoirl\u00e9", "lon": "0.9"}, {"lat": "10.2166667", "city": "Koko", "lon": "1.9333333"}, {"lat": "9.5333333", "city": "Kokokolo", "lon": "1.4166667"}, {"lat": "10.5", "city": "Kokongou", "lon": "1.2166667"}, {"lat": "10.5333333", "city": "Kokontouga", "lon": "0.8833333"}, {"lat": "9.5166667", "city": "Kokoourhou", "lon": "1.5833333"}, {"lat": "9.3", "city": "Kokotchi", "lon": "1.5833333"}, {"lat": "9.3", "city": "Kokotyi", "lon": "1.5833333"}, {"lat": "9.5166667", "city": "Kokourou", "lon": "1.5833333"}, {"lat": "9.3666667", "city": "Kolimisi", "lon": "1.4333333"}, {"lat": "9.8916667", "city": "Kolkond\u00e9", "lon": "1.7813889"}, {"lat": "9.6166667", "city": "Koloband\u00e9", "lon": "1.5"}, {"lat": "9.8916667", "city": "Kolokond\u00e9", "lon": "1.7813889"}, {"lat": "10.5", "city": "Kolondoko", "lon": "1.1666667"}, {"lat": "10.0", "city": "Kolrha", "lon": "1.65"}, {"lat": "9.4", "city": "Komind\u00e8", "lon": "1.4166667"}, {"lat": "10.3", "city": "Komindi", "lon": "1.0"}, {"lat": "9.65", "city": "Komt\u00e8", "lon": "1.4"}, {"lat": "10.3833333", "city": "Konanbougou", "lon": "0.8833333"}, {"lat": "10.75", "city": "Kond\u00e9ga-D\u00e9r\u00e9porga", "lon": "0.9166667"}, {"lat": "10.7833333", "city": "Kondelli", "lon": "1.1"}, {"lat": "10.65", "city": "Kondit\u00e9hon", "lon": "1.2"}, {"lat": "10.7833333", "city": "Kondo", "lon": "0.9"}, {"lat": "10.9333333", "city": "Kon\u00e9handri", "lon": "1.0"}, {"lat": "10.7666667", "city": "Kongourou", "lon": "2.0666667"}, {"lat": "9.7166667", "city": "Koninga", "lon": "1.9166667"}, {"lat": "10.7166667", "city": "Konki\u00e9ri", "lon": "0.8833333"}, {"lat": "10.7666667", "city": "Konkohoum", "lon": "0.9833333"}, {"lat": "10.7666667", "city": "Konpani", "lon": "0.9"}, {"lat": "9.65", "city": "Kooumd\u00e8", "lon": "1.4"}, {"lat": "9.8375", "city": "Kopargo", "lon": "1.5480556"}, {"lat": "10.6166667", "city": "Kora", "lon": "1.1166667"}, {"lat": "10.6", "city": "Korhou", "lon": "0.8333333"}, {"lat": "9.4833333", "city": "Korobani", "lon": "2.0"}, {"lat": "9.65", "city": "Korol", "lon": "1.5166667"}, {"lat": "9.6333333", "city": "Korolongouzir", "lon": "1.8"}, {"lat": "9.6333333", "city": "Korolongzi", "lon": "1.8"}, {"lat": "10.5833333", "city": "Korongkor\u00e9", "lon": "1.3333333"}, {"lat": "10.2713889", "city": "Koronti\u00e8re", "lon": "0.9977778"}, {"lat": "9.7166667", "city": "Kossar Aroum", "lon": "1.5"}, {"lat": "10.1830556", "city": "Kossokouangou", "lon": "1.2008333"}, {"lat": "10.6333333", "city": "Kossou", "lon": "2.0333333"}, {"lat": "10.6333333", "city": "Kossou-Winra", "lon": "2.05"}, {"lat": "10.6333333", "city": "Kossu", "lon": "2.0333333"}, {"lat": "10.6666667", "city": "Kotadi", "lon": "1.05"}, {"lat": "10.6666667", "city": "Kotari", "lon": "1.05"}, {"lat": "10.5833333", "city": "Kotiagou", "lon": "1.3"}, {"lat": "10.9", "city": "Kotiari", "lon": "0.9833333"}, {"lat": "10.9166667", "city": "Kotiohoum", "lon": "1.0"}, {"lat": "9.5666667", "city": "Kotodiera", "lon": "1.5666667"}, {"lat": "10.3088889", "city": "Kotoponga", "lon": "1.5286111"}, {"lat": "10.3088889", "city": "Kotopounga", "lon": "1.5286111"}, {"lat": "10.6833333", "city": "Kotoroukoint\u00e9ga", "lon": "0.95"}, {"lat": "10.25", "city": "Kouaba", "lon": "1.2333333"}, {"lat": "10.4333333", "city": "Kouabili", "lon": "1.0333333"}, {"lat": "10.25", "city": "Kouaha", "lon": "1.2333333"}, {"lat": "9.75", "city": "Koua", "lon": "1.7666667"}, {"lat": "10.8833333", "city": "Koual\u00e9gou", "lon": "1.4833333"}, {"lat": "10.1", "city": "Kouandata", "lon": "1.3333333"}, {"lat": "10.1", "city": "Kouan\u00e9data", "lon": "1.3333333"}, {"lat": "10.4", "city": "Kouan\u00e9yoko", "lon": "1.55"}, {"lat": "10.2333333", "city": "Kouangou", "lon": "1.25"}, {"lat": "10.1666667", "city": "Kouan-Koukouangou", "lon": "1.3"}, {"lat": "10.2833333", "city": "Kouantongou", "lon": "1.1"}, {"lat": "10.4833333", "city": "Kouarfa", "lon": "1.5166667"}, {"lat": "10.4666667", "city": "Kouba", "lon": "1.6333333"}, {"lat": "10.6333333", "city": "Koub\u00e9morhou", "lon": "0.9333333"}, {"lat": "9.9", "city": "Koub\u00e9n\u00e9b\u00e9n\u00e9", "lon": "1.3833333"}, {"lat": "10.7833333", "city": "Koubikondot\u00e9fanga", "lon": "0.9"}, {"lat": "10.2", "city": "Koubirikou", "lon": "1.2333333"}, {"lat": "9.5", "city": "Koubli", "lon": "1.5333333"}, {"lat": "10.05", "city": "Kouboro", "lon": "1.55"}, {"lat": "10.1166667", "city": "Koudan-Mangou", "lon": "1.15"}, {"lat": "10.2833333", "city": "Koudenndongou", "lon": "1.2166667"}, {"lat": "10.2333333", "city": "Kou\u00e9kani", "lon": "1.4666667"}, {"lat": "10.7166667", "city": "Kouforou Pissiga", "lon": "0.9"}, {"lat": "10.1166667", "city": "Kouga", "lon": "1.3666667"}, {"lat": "10.15", "city": "Kougnangou", "lon": "1.1833333"}, {"lat": "10.7666667", "city": "Kougourou", "lon": "2.0666667"}, {"lat": "10.2", "city": "Kouintchourougou", "lon": "1.1166667"}, {"lat": "10.15", "city": "Kouissigou", "lon": "1.2666667"}, {"lat": "9.85", "city": "Koukad\u00e8", "lon": "1.3666667"}, {"lat": "10.2166667", "city": "Koukapou", "lon": "1.3"}, {"lat": "10.3833333", "city": "Koukogou", "lon": "1.05"}, {"lat": "9.5333333", "city": "Koukokolo", "lon": "1.4166667"}, {"lat": "10.15", "city": "Koukomou", "lon": "1.2833333"}, {"lat": "10.25", "city": "Koukouagou", "lon": "1.2666667"}, {"lat": "10.1666667", "city": "Koukouangou", "lon": "1.0666667"}, {"lat": "10.2333333", "city": "Koukouan", "lon": "1.2166667"}, {"lat": "10.4", "city": "Koukouant\u00e9gou", "lon": "1.0833333"}, {"lat": "10.2833333", "city": "Koukouantongou", "lon": "1.1333333"}, {"lat": "9.9833333", "city": "Koukouloub\u00e8nndi", "lon": "1.4"}, {"lat": "10.2333333", "city": "Koukouogou", "lon": "1.2"}, {"lat": "10.4", "city": "Koulabago", "lon": "1.1"}, {"lat": "10.7666667", "city": "Koulkadouri", "lon": "1.4333333"}, {"lat": "9.3666667", "city": "Kouloumizi", "lon": "1.4333333"}, {"lat": "9.2166667", "city": "Koumad\u00e9rou", "lon": "2.25"}, {"lat": "10.2833333", "city": "Koumago", "lon": "1.2333333"}, {"lat": "10.15", "city": "Koumagou", "lon": "1.1166667"}, {"lat": "10.3166667", "city": "Koumankennti\u00e9gou", "lon": "1.05"}, {"lat": "10.2", "city": "Koumantigou", "lon": "1.2"}, {"lat": "9.65", "city": "Koumd\u00e9", "lon": "1.4"}, {"lat": "10.5833333", "city": "Koumouna", "lon": "1.2833333"}, {"lat": "10.7666667", "city": "Koumpehoum", "lon": "1.0666667"}, {"lat": "9.5333333", "city": "Koumpen\u00e9", "lon": "1.5"}, {"lat": "10.1666667", "city": "Kounadogou", "lon": "1.1"}, {"lat": "10.4166667", "city": "Kounadou", "lon": "1.0833333"}, {"lat": "9.5", "city": "Kounakouro", "lon": "1.3833333"}, {"lat": "10.2666667", "city": "Kounaniengou", "lon": "1.15"}, {"lat": "10.65", "city": "Kound\u00e9", "lon": "1.4833333"}, {"lat": "10.0", "city": "Koundjio", "lon": "1.7"}, {"lat": "10.5", "city": "Koungarou", "lon": "2.0333333"}, {"lat": "9.7833333", "city": "Koungmolra", "lon": "1.5666667"}, {"lat": "10.15", "city": "Kouniangou", "lon": "1.1833333"}, {"lat": "10.3166667", "city": "Kouniguenngou", "lon": "1.2"}, {"lat": "10.2166667", "city": "Kounokogou", "lon": "1.15"}, {"lat": "10.05", "city": "Kounounko", "lon": "1.4833333"}, {"lat": "10.2", "city": "Kountchougou", "lon": "1.0833333"}, {"lat": "10.9166667", "city": "Kountiago", "lon": "1.1"}, {"lat": "10.4", "city": "Kountonri", "lon": "0.9166667"}, {"lat": "10.405", "city": "Kountori", "lon": "0.9425"}, {"lat": "10.405", "city": "Kountouri", "lon": "0.9425"}, {"lat": "9.75", "city": "Kounyentoou", "lon": "1.6"}, {"lat": "10.6333333", "city": "Kouolohon", "lon": "1.0833333"}, {"lat": "10.2333333", "city": "Koupagou Koronti\u00e8re", "lon": "1.0333333"}, {"lat": "10.2166667", "city": "Koupagou", "lon": "1.0833333"}, {"lat": "10.4333333", "city": "Koupepergou", "lon": "1.4666667"}, {"lat": "10.2333333", "city": "Koupointi\u00e9gou", "lon": "1.15"}, {"lat": "10.8", "city": "Koupokondo", "lon": "0.9"}, {"lat": "10.2666667", "city": "Kouporgou", "lon": "1.1333333"}, {"lat": "10.7833333", "city": "Kouri", "lon": "0.9833333"}, {"lat": "10.0", "city": "Kourmali", "lon": "1.6166667"}, {"lat": "9.9833333", "city": "Kourmalin", "lon": "1.6166667"}, {"lat": "9.95", "city": "Kouroup\u00e8ri", "lon": "1.5833333"}, {"lat": "9.9666667", "city": "Kourvaou-Tiakeulrhou", "lon": "1.7"}, {"lat": "10.2", "city": "Koussanzamou", "lon": "1.4333333"}, {"lat": "10.8166667", "city": "Kouss\u00e9ga", "lon": "0.9833333"}, {"lat": "10.1830556", "city": "Koussokouagou", "lon": "1.2008333"}, {"lat": "10.1", "city": "Koussonyigou", "lon": "1.2166667"}, {"lat": "10.1830556", "city": "Koussoukoingou", "lon": "1.2008333"}, {"lat": "10.1666667", "city": "Koussoukoin-Kougou", "lon": "1.3666667"}, {"lat": "10.15", "city": "Koutagou", "lon": "1.15"}, {"lat": "10.25", "city": "Koutamangou", "lon": "1.1166667"}, {"lat": "10.1833333", "city": "Koutamongou", "lon": "1.1833333"}, {"lat": "10.25", "city": "Koutanangou", "lon": "1.1166667"}, {"lat": "10.25", "city": "Koutangou", "lon": "1.0833333"}, {"lat": "10.0333333", "city": "Koutantagou", "lon": "1.4166667"}, {"lat": "10.15", "city": "Koutati\u00e9gou", "lon": "1.1333333"}, {"lat": "10.1166667", "city": "Koutayagou", "lon": "1.2333333"}, {"lat": "10.1166667", "city": "Koutayakou", "lon": "1.2333333"}, {"lat": "10.4", "city": "Koutchene Tchkoungou", "lon": "1.2"}, {"lat": "10.3333333", "city": "Koutchounchoungou", "lon": "1.1833333"}, {"lat": "9.95", "city": "Koutiandi", "lon": "1.3666667"}, {"lat": "9.95", "city": "Koutianti", "lon": "1.3666667"}, {"lat": "9.7666667", "city": "Koutidiao", "lon": "1.45"}, {"lat": "10.6666667", "city": "Kouti\u00e9ga", "lon": "0.9833333"}, {"lat": "10.5666667", "city": "Kouti\u00e9kongou", "lon": "1.2166667"}, {"lat": "10.3333333", "city": "Koutokab\u00e9gou", "lon": "1.0833333"}, {"lat": "9.6", "city": "Koutoudyir", "lon": "1.5833333"}, {"lat": "9.4833333", "city": "Koutounga", "lon": "1.65"}, {"lat": "10.35", "city": "Kouyadak\u00e9", "lon": "0.9833333"}, {"lat": "10.55", "city": "Koyadi", "lon": "1.2166667"}, {"lat": "9.6833333", "city": "Koyanga", "lon": "1.85"}, {"lat": "9.6333333", "city": "Kpab\u00e9rhou", "lon": "1.5833333"}, {"lat": "9.4666667", "city": "Kpako", "lon": "1.5333333"}, {"lat": "9.55", "city": "Kpakoouranga", "lon": "1.55"}, {"lat": "9.9833333", "city": "Kpakoumar\u00e9", "lon": "1.6"}, {"lat": "9.7666667", "city": "Kpakpay\u00e9", "lon": "1.6"}, {"lat": "9.6", "city": "Kpalak\u00e9rin", "lon": "1.6666667"}, {"lat": "9.7666667", "city": "Kpalhol\u00e9", "lon": "1.3833333"}, {"lat": "9.8666667", "city": "Kpalifoourh", "lon": "1.6833333"}, {"lat": "9.6333333", "city": "Kpali", "lon": "1.8166667"}, {"lat": "9.4666667", "city": "Kpao", "lon": "1.5833333"}, {"lat": "9.5333333", "city": "Kpaorha", "lon": "1.6833333"}, {"lat": "9.4666667", "city": "Kpaoya", "lon": "1.55"}, {"lat": "9.7833333", "city": "Kparsi", "lon": "1.65"}, {"lat": "9.75", "city": "Kpartago", "lon": "1.7666667"}, {"lat": "9.3333333", "city": "Kpartao", "lon": "1.4666667"}, {"lat": "9.95", "city": "Kpassabia", "lon": "1.6166667"}, {"lat": "9.4833333", "city": "Kpati", "lon": "1.85"}, {"lat": "9.8833333", "city": "Kpatoourh", "lon": "1.65"}, {"lat": "10.0", "city": "Kpatoro", "lon": "1.7833333"}, {"lat": "9.5", "city": "Kp\u00e8d\u00e8kp\u00e8d\u00e8", "lon": "1.4166667"}, {"lat": "9.5333333", "city": "Kp\u00e9lendiou", "lon": "1.4"}, {"lat": "9.6833333", "city": "Kpelid\u00e8", "lon": "1.45"}, {"lat": "9.6666667", "city": "Kp\u00e8loud\u00e8", "lon": "1.4166667"}, {"lat": "9.95", "city": "Kpelrhou-Kparhout\u00e8", "lon": "1.4"}, {"lat": "9.3166667", "city": "Kpendi", "lon": "1.5833333"}, {"lat": "10.0", "city": "Kp\u00e9r\u00e9", "lon": "1.9"}, {"lat": "10.55", "city": "Kpessennta", "lon": "1.6166667"}, {"lat": "10.2666667", "city": "Kpessi", "lon": "1.6833333"}, {"lat": "10.45", "city": "Kpessilaka", "lon": "1.3"}, {"lat": "9.3", "city": "Kp\u00e9ssou", "lon": "2.1833333"}, {"lat": "10.1666667", "city": "Kpessourou", "lon": "1.9833333"}, {"lat": "10.6833333", "city": "Kpingo", "lon": "1.1"}, {"lat": "10.6833333", "city": "Kpingou", "lon": "1.1"}, {"lat": "9.4833333", "city": "Kpotokpoto", "lon": "1.4666667"}, {"lat": "9.4166667", "city": "Kpouindi", "lon": "1.4333333"}, {"lat": "10.0", "city": "Krotokou", "lon": "1.6166667"}, {"lat": "9.4833333", "city": "Ktipribouma", "lon": "1.5833333"}, {"lat": "9.75", "city": "Kua", "lon": "1.7666667"}, {"lat": "9.75", "city": "Kwa", "lon": "1.7666667"}, {"lat": "9.4666667", "city": "Kwazi", "lon": "1.7"}, {"lat": "9.9666667", "city": "Lafendi", "lon": "1.7333333"}, {"lat": "9.05", "city": "Lagb\u00e9r\u00e9", "lon": "1.6666667"}, {"lat": "10.6333333", "city": "Lambounti", "lon": "1.7833333"}, {"lat": "10.6333333", "city": "Lambouti", "lon": "1.7833333"}, {"lat": "10.6333333", "city": "Lambuti", "lon": "1.7833333"}, {"lat": "9.95", "city": "Lams\u00e9ss\u00e9", "lon": "1.6833333"}, {"lat": "10.4166667", "city": "Laniangou", "lon": "0.8166667"}, {"lat": "10.85", "city": "Laouga", "lon": "0.8833333"}, {"lat": "10.7166667", "city": "Lapopolron", "lon": "1.0"}, {"lat": "9.8666667", "city": "Lazare", "lon": "1.5"}, {"lat": "9.8666667", "city": "Lazaret", "lon": "1.5"}, {"lat": "9.8333333", "city": "Lemba", "lon": "1.3833333"}, {"lat": "10.5333333", "city": "Lik\u00e9r\u00e9", "lon": "0.9166667"}, {"lat": "9.6666667", "city": "Lim\u00e8da", "lon": "1.4666667"}, {"lat": "9.3833333", "city": "Liro", "lon": "1.6833333"}, {"lat": "10.8666667", "city": "Loaka", "lon": "0.95"}, {"lat": "10.4333333", "city": "Lokonkouan\u00e9", "lon": "1.1666667"}, {"lat": "9.5666667", "city": "Loloungborho", "lon": "1.4666667"}, {"lat": "10.8", "city": "Loouga", "lon": "0.9"}, {"lat": "9.4333333", "city": "Madiatom", "lon": "1.5"}, {"lat": "10.85", "city": "Madoga", "lon": "1.0"}, {"lat": "10.6", "city": "Maga", "lon": "0.9666667"}, {"lat": "10.6", "city": "Mahontinga", "lon": "1.0333333"}, {"lat": "10.8666667", "city": "Mahoun", "lon": "0.9833333"}, {"lat": "10.4666667", "city": "Maka", "lon": "1.65"}, {"lat": "9.4833333", "city": "Makpalado", "lon": "1.45"}, {"lat": "10.2666667", "city": "Makrou", "lon": "1.8166667"}, {"lat": "9.55", "city": "Mamango", "lon": "1.8666667"}, {"lat": "10.0", "city": "Mamazoura", "lon": "1.6666667"}, {"lat": "9.55", "city": "Mammi", "lon": "1.5166667"}, {"lat": "10.1833333", "city": "Mamoumou", "lon": "1.3666667"}, {"lat": "10.3666667", "city": "Manafaga", "lon": "1.5166667"}, {"lat": "9.85", "city": "Manfouka", "lon": "1.8333333"}, {"lat": "8.9666667", "city": "Manigri", "lon": "1.7166667"}, {"lat": "10.8333333", "city": "Manogay\u00e9", "lon": "1.05"}, {"lat": "10.65", "city": "Manougou", "lon": "1.3166667"}, {"lat": "10.1833333", "city": "Manoumou", "lon": "1.3666667"}, {"lat": "10.5", "city": "Mansar\u00e9", "lon": "0.8333333"}, {"lat": "9.75", "city": "Mansar", "lon": "1.5"}, {"lat": "10.3563889", "city": "Manta", "lon": "1.1055556"}, {"lat": "10.7333333", "city": "Mapoboulou", "lon": "1.3166667"}, {"lat": "10.3833333", "city": "Mar\u00e9bo", "lon": "1.8166667"}, {"lat": "10.9", "city": "Marekpo", "lon": "1.9833333"}, {"lat": "9.9666667", "city": "Marhou", "lon": "1.45"}, {"lat": "10.3166667", "city": "Mari Gando", "lon": "1.7"}, {"lat": "10.3166667", "city": "Mari", "lon": "1.7"}, {"lat": "9.8166667", "city": "Marloum Mal\u00e9ro", "lon": "1.45"}, {"lat": "9.5", "city": "Massaokparao", "lon": "1.8166667"}, {"lat": "9.8333333", "city": "Mass\u00e9", "lon": "1.3833333"}, {"lat": "9.9166667", "city": "Massi", "lon": "1.4666667"}, {"lat": "10.6977778", "city": "Mat\u00e9ri", "lon": "1.0633333"}, {"lat": "9.35", "city": "Mbayako", "lon": "1.75"}, {"lat": "9.1833333", "city": "Mborko", "lon": "1.75"}, {"lat": "10.4166667", "city": "M\u00e9himarou", "lon": "1.9333333"}, {"lat": "10.2666667", "city": "M\u00e9krou-Gourou", "lon": "1.8166667"}, {"lat": "9.5333333", "city": "Meundosse", "lon": "1.7333333"}, {"lat": "9.55", "city": "Miami", "lon": "1.5166667"}, {"lat": "9.5666667", "city": "Minanga", "lon": "1.8"}, {"lat": "9.5333333", "city": "Mindossi", "lon": "1.7166667"}, {"lat": "10.4333333", "city": "Mindou", "lon": "1.8"}, {"lat": "9.7833333", "city": "Mochirha", "lon": "1.4333333"}, {"lat": "9.9666667", "city": "Mofir", "lon": "1.6166667"}, {"lat": "9.5333333", "city": "Momongou", "lon": "1.7833333"}, {"lat": "9.7244444", "city": "Mon\u00e9", "lon": "1.8447222"}, {"lat": "9.5333333", "city": "Monmongou", "lon": "1.7833333"}, {"lat": "10.6666667", "city": "Monorhou", "lon": "0.95"}, {"lat": "10.4166667", "city": "Monsal\u00e9", "lon": "0.85"}, {"lat": "10.5666667", "city": "Mossitingou", "lon": "1.4"}, {"lat": "10.6166667", "city": "Mouarka", "lon": "1.05"}, {"lat": "9.5333333", "city": "Mound\u00e9ssi", "lon": "1.7333333"}, {"lat": "10.45", "city": "Mounounbourfa", "lon": "1.5"}, {"lat": "10.0833333", "city": "Mounountanzemou", "lon": "1.4833333"}, {"lat": "10.5666667", "city": "Moussitingou", "lon": "1.4"}, {"lat": "10.35", "city": "Moussoukoto", "lon": "1.55"}, {"lat": "10.45", "city": "Moussoumbound\u00e9", "lon": "1.3333333"}, {"lat": "10.6", "city": "Mowari", "lon": "1.0166667"}, {"lat": "10.4", "city": "Naataya", "lon": "1.4166667"}, {"lat": "10.3833333", "city": "Nafa", "lon": "0.8666667"}, {"lat": "10.55", "city": "Nafayodi", "lon": "1.2"}, {"lat": "10.45", "city": "Nafora", "lon": "1.25"}, {"lat": "10.8333333", "city": "Nagass\u00e9ga", "lon": "1.1166667"}, {"lat": "10.8333333", "city": "Naguess\u00e9ga", "lon": "1.1166667"}, {"lat": "10.5333333", "city": "Nahonta", "lon": "1.1166667"}, {"lat": "9.95", "city": "Namalkomrha", "lon": "1.6166667"}, {"lat": "10.8666667", "city": "Namboul\u00e9", "lon": "0.95"}, {"lat": "10.8666667", "city": "Nambouli", "lon": "0.95"}, {"lat": "10.8666667", "city": "Nambouti", "lon": "0.95"}, {"lat": "10.45", "city": "Namoutiaga", "lon": "0.95"}, {"lat": "10.3833333", "city": "Namouti\u00e9n\u00e9", "lon": "0.8166667"}, {"lat": "10.4333333", "city": "Nanagade", "lon": "0.8833333"}, {"lat": "10.4833333", "city": "Nanagr\u00e9", "lon": "0.9"}, {"lat": "10.4833333", "city": "Nanarle", "lon": "0.9"}, {"lat": "10.6666667", "city": "Nan\u00e9bou", "lon": "1.3166667"}, {"lat": "10.4833333", "city": "Nanorl\u00e9", "lon": "0.9"}, {"lat": "10.9333333", "city": "Nanpor\u00e9yad\u00e9", "lon": "1.1166667"}, {"lat": "10.7666667", "city": "Nansougou", "lon": "1.8166667"}, {"lat": "10.7833333", "city": "Nansougou Simpassou", "lon": "1.75"}, {"lat": "10.7666667", "city": "Nansougou-Sinapakoussou", "lon": "1.8166667"}, {"lat": "10.7666667", "city": "Nansugu", "lon": "1.8166667"}, {"lat": "10.5666667", "city": "Nantagata", "lon": "1.1"}, {"lat": "9.9166667", "city": "Nant\u00e9ri", "lon": "1.9166667"}, {"lat": "10.3333333", "city": "Nantiango", "lon": "0.9666667"}, {"lat": "10.1833333", "city": "Nantori", "lon": "1.6"}, {"lat": "10.0", "city": "Narfoungu\u00e9", "lon": "1.6666667"}, {"lat": "9.8833333", "city": "Narlirha", "lon": "1.55"}, {"lat": "10.5833333", "city": "Narokou", "lon": "1.1"}, {"lat": "10.1", "city": "Nasso", "lon": "1.9166667"}, {"lat": "10.7666667", "city": "Nassougou", "lon": "1.8166667"}, {"lat": "10.7666667", "city": "Nassoukou", "lon": "1.8166667"}, {"lat": "10.1", "city": "Nassou", "lon": "1.9166667"}, {"lat": "10.0166667", "city": "Nassou-Toko", "lon": "1.9"}, {"lat": "10.7666667", "city": "Nassugu", "lon": "1.8166667"}, {"lat": "10.5333333", "city": "Ndahonta", "lon": "1.1166667"}, {"lat": "9.5333333", "city": "Ndiakada", "lon": "1.35"}, {"lat": "9.55", "city": "Negl\u00e9de", "lon": "1.45"}, {"lat": "10.45", "city": "N\u00e9ku\u00e9ma", "lon": "1.25"}, {"lat": "10.6666667", "city": "N\u00e9n\u00e9bou", "lon": "1.3166667"}, {"lat": "9.8833333", "city": "Ngboungbou", "lon": "1.7"}, {"lat": "9.2833333", "city": "Ngioro", "lon": "1.5"}, {"lat": "9.2666667", "city": "Ngm\u00e8llang", "lon": "1.7166667"}, {"lat": "9.8333333", "city": "Niabanmga", "lon": "1.6833333"}, {"lat": "9.8666667", "city": "Niafourhoum", "lon": "1.7"}, {"lat": "10.7833333", "city": "Niakohoum", "lon": "0.8666667"}, {"lat": "9.5166667", "city": "Niakpakabia", "lon": "1.4166667"}, {"lat": "9.2833333", "city": "Niala", "lon": "1.45"}, {"lat": "9.5833333", "city": "Nialod\u00e8", "lon": "1.4"}, {"lat": "10.4833333", "city": "Niamakou\u00e8kpar\u00e9", "lon": "1.9833333"}, {"lat": "9.7833333", "city": "Niamolrhou", "lon": "1.75"}, {"lat": "9.6666667", "city": "Niamsonga", "lon": "1.9666667"}, {"lat": "10.3", "city": "Niana", "lon": "2.2333333"}, {"lat": "10.3166667", "city": "Niandat\u00e9", "lon": "1.4666667"}, {"lat": "9.75", "city": "Niandianga", "lon": "1.85"}, {"lat": "9.5166667", "city": "Niangbakabiya", "lon": "1.4166667"}, {"lat": "10.7166667", "city": "Niangou", "lon": "1.4166667"}, {"lat": "9.6", "city": "Niangre", "lon": "1.5833333"}, {"lat": "10.6833333", "city": "Nia Nianou", "lon": "2.1333333"}, {"lat": "10.35", "city": "Niaress\u00e9na", "lon": "1.6333333"}, {"lat": "10.1833333", "city": "Niaro", "lon": "1.6"}, {"lat": "10.2166667", "city": "Niarosson", "lon": "1.6166667"}, {"lat": "9.6666667", "city": "Niassonga", "lon": "1.9666667"}, {"lat": "10.9333333", "city": "Ni\u00e9hon", "lon": "0.9166667"}, {"lat": "10.2333333", "city": "Ni\u00e9k\u00e9n\u00e9bansou", "lon": "1.7166667"}, {"lat": "10.3", "city": "Ni\u00e9k\u00e9n\u00e9", "lon": "1.65"}, {"lat": "10.2333333", "city": "Niekrebansou", "lon": "1.7166667"}, {"lat": "10.55", "city": "Ni\u00e9libound\u00e9", "lon": "1.2833333"}, {"lat": "10.4166667", "city": "Ni\u00e9masson", "lon": "2.0166667"}, {"lat": "10.3333333", "city": "Nienkoussanmbou", "lon": "1.7666667"}, {"lat": "10.1166667", "city": "Nika", "lon": "2.1"}, {"lat": "10.3166667", "city": "Ningoussou", "lon": "2.1666667"}, {"lat": "10.45", "city": "Ninmb\u00e9r\u00e9", "lon": "1.7833333"}, {"lat": "9.7333333", "city": "Niongambi", "lon": "1.7666667"}, {"lat": "10.1833333", "city": "Nioro", "lon": "1.6"}, {"lat": "10.2166667", "city": "Nioroson", "lon": "1.6166667"}, {"lat": "9.7666667", "city": "Niorou", "lon": "1.85"}, {"lat": "10.6333333", "city": "Nitrouma", "lon": "1.6833333"}, {"lat": "10.6166667", "city": "Nohou\u00e9r\u00e9r\u00e9", "lon": "1.4166667"}, {"lat": "10.4833333", "city": "Nonarl\u00e9", "lon": "0.9"}, {"lat": "10.6166667", "city": "Nouadi", "lon": "1.0166667"}, {"lat": "10.5166667", "city": "Nouangou", "lon": "1.0"}, {"lat": "10.5", "city": "Nouanouarga", "lon": "1.3333333"}, {"lat": "10.0166667", "city": "Ntounkou\u00e9", "lon": "1.35"}, {"lat": "10.3666667", "city": "Nyianand\u00e9", "lon": "0.8333333"}, {"lat": "9.4166667", "city": "Odokoriko", "lon": "1.5"}, {"lat": "9.3833333", "city": "Odola", "lon": "1.45"}, {"lat": "9.3666667", "city": "Ogougouworo", "lon": "1.4833333"}, {"lat": "9.1333333", "city": "Okotorou", "lon": "2.15"}, {"lat": "8.7166667", "city": "Okouta-Boussa", "lon": "1.7"}, {"lat": "8.8", "city": "Olougb\u00e9", "lon": "2.25"}, {"lat": "9.6", "city": "Omouali", "lon": "1.9666667"}, {"lat": "9.5", "city": "Onklou", "lon": "1.9833333"}, {"lat": "10.55", "city": "Onkou\u00e9wata", "lon": "1.1333333"}, {"lat": "9.55", "city": "Otiti", "lon": "1.5"}, {"lat": "10.4833333", "city": "Ouabou", "lon": "1.45"}, {"lat": "9.6616667", "city": "Ouak\u00e9", "lon": "1.3847222"}, {"lat": "10.0666667", "city": "Ouanko", "lon": "1.3"}, {"lat": "9.1666667", "city": "Ouari-Maro", "lon": "2.1666667"}, {"lat": "10.25", "city": "Ouassa-B\u00e9ket", "lon": "1.9833333"}, {"lat": "10.2291667", "city": "Ouassa-Pehunco", "lon": "1.9994444"}, {"lat": "10.5333333", "city": "Oubangou", "lon": "0.9666667"}, {"lat": "10.2833333", "city": "Oub\u00e9r\u00e9kou", "lon": "2.0166667"}, {"lat": "9.4833333", "city": "Oudodoga", "lon": "1.4833333"}, {"lat": "10.35", "city": "Oudouo", "lon": "0.9833333"}, {"lat": "9.7097222", "city": "Ou\u00e9m\u00e9", "lon": "1.9525"}, {"lat": "9.5833333", "city": "Oulaougou", "lon": "1.8"}, {"lat": "10.8333333", "city": "Ouliori", "lon": "1.05"}, {"lat": "10.3166667", "city": "Oulouoni", "lon": "0.9333333"}, {"lat": "10.3", "city": "Oundo", "lon": "0.9333333"}, {"lat": "10.6666667", "city": "Ounkointouhou", "lon": "0.8166667"}, {"lat": "10.0666667", "city": "Ouonko", "lon": "1.3"}, {"lat": "10.2833333", "city": "Ouramonon", "lon": "1.6666667"}, {"lat": "10.3666667", "city": "Ourokoiro", "lon": "0.9833333"}, {"lat": "10.7833333", "city": "Ouroufina", "lon": "1.75"}, {"lat": "9.1333333", "city": "Ourougoura", "lon": "2.0333333"}, {"lat": "10.6", "city": "Ouroutountaya", "lon": "1.5666667"}, {"lat": "10.5", "city": "Outianhou", "lon": "0.9833333"}, {"lat": "10.6", "city": "Outounteya", "lon": "1.5666667"}, {"lat": "10.7666667", "city": "Outouoli", "lon": "1.1"}, {"lat": "10.5666667", "city": "Outouoto", "lon": "0.9166667"}, {"lat": "10.3666667", "city": "Ouyatpounga", "lon": "1.55"}, {"lat": "10.4833333", "city": "Pabat\u00e9", "lon": "1.4833333"}, {"lat": "9.7980556", "city": "Pab\u00e9go", "lon": "1.5677778"}, {"lat": "9.7666667", "city": "Pab\u00e9gou", "lon": "1.6333333"}, {"lat": "9.7980556", "city": "Pabegu", "lon": "1.5677778"}, {"lat": "9.9166667", "city": "Pakouka", "lon": "1.7833333"}, {"lat": "9.8", "city": "Palara", "lon": "1.55"}, {"lat": "10.3833333", "city": "Pananjora", "lon": "0.8833333"}, {"lat": "9.9166667", "city": "Pandolou", "lon": "1.5833333"}, {"lat": "10.0", "city": "Pandourou", "lon": "1.5666667"}, {"lat": "9.95", "city": "Panelra", "lon": "1.65"}, {"lat": "9.5333333", "city": "Pang-Pang", "lon": "1.7333333"}, {"lat": "10.6833333", "city": "Pannaga", "lon": "1.3666667"}, {"lat": "9.5333333", "city": "Paouga", "lon": "1.6833333"}, {"lat": "10.15", "city": "Par\u00e9ka", "lon": "1.8666667"}, {"lat": "9.95", "city": "Pargout\u00e9", "lon": "1.4"}, {"lat": "9.3333333", "city": "Partago", "lon": "1.4666667"}, {"lat": "9.5333333", "city": "Partogo", "lon": "1.9166667"}, {"lat": "10.3833333", "city": "Payak\u00e9", "lon": "0.9333333"}, {"lat": "10.5833333", "city": "Paz\u00e9ka", "lon": "0.9333333"}, {"lat": "10.2291667", "city": "Pchumko", "lon": "1.9994444"}, {"lat": "10.3666667", "city": "P\u00e9birou", "lon": "1.6666667"}, {"lat": "10.2291667", "city": "Pehonco", "lon": "1.9994444"}, {"lat": "10.2291667", "city": "P\u00e9honko", "lon": "1.9994444"}, {"lat": "10.6", "city": "P\u00e9hon", "lon": "1.05"}, {"lat": "10.6166667", "city": "P\u00e9hou", "lon": "0.95"}, {"lat": "10.2291667", "city": "P\u00e9humko", "lon": "1.9994444"}, {"lat": "10.2291667", "city": "P\u00e9hunco", "lon": "1.9994444"}, {"lat": "10.2291667", "city": "P\u00e9hunko", "lon": "1.9994444"}, {"lat": "10.7333333", "city": "P\u00e9k\u00e9r\u00e9", "lon": "2.1333333"}, {"lat": "10.45", "city": "Pekp\u00e9r\u00e9kou", "lon": "1.45"}, {"lat": "9.6666667", "city": "P\u00e9l\u00e9kongo", "lon": "1.8"}, {"lat": "9.25", "city": "P\u00e9l\u00e9lan", "lon": "1.5166667"}, {"lat": "10.2666667", "city": "P\u00e9lima", "lon": "1.5666667"}, {"lat": "9.25", "city": "P\u00e9messoulou", "lon": "1.55"}, {"lat": "10.6166667", "city": "P\u00e9movou", "lon": "1.4333333"}, {"lat": "10.7166667", "city": "Pendissari", "lon": "1.1166667"}, {"lat": "9.25", "city": "P\u00e8n\u00e8lan", "lon": "1.5166667"}, {"lat": "9.25", "city": "Penesolu", "lon": "1.55"}, {"lat": "9.25", "city": "P\u00e9n\u00e9soulou", "lon": "1.55"}, {"lat": "9.25", "city": "P\u00e9n\u00e9ssoulou", "lon": "1.55"}, {"lat": "9.25", "city": "Penesulu", "lon": "1.55"}, {"lat": "10.75", "city": "Pennsagou", "lon": "1.4"}, {"lat": "10.4666667", "city": "Pennsibou", "lon": "1.2333333"}, {"lat": "10.7833333", "city": "Pensougou", "lon": "1.4166667"}, {"lat": "10.2291667", "city": "P\u00e9ounko", "lon": "1.9994444"}, {"lat": "10.45", "city": "Peperkou", "lon": "1.45"}, {"lat": "10.1208333", "city": "Perma", "lon": "1.4375"}, {"lat": "9.6833333", "city": "Pessar", "lon": "1.5166667"}, {"lat": "10.2666667", "city": "Pessi", "lon": "1.6833333"}, {"lat": "10.6166667", "city": "P\u00e9tinou", "lon": "0.9333333"}, {"lat": "10.7333333", "city": "Pikire", "lon": "2.1333333"}, {"lat": "10.6833333", "city": "Pingou", "lon": "1.1"}, {"lat": "9.4333333", "city": "Piougou", "lon": "1.6166667"}, {"lat": "10.65", "city": "Pipingou", "lon": "1.4333333"}, {"lat": "10.7333333", "city": "Pom-Pongou", "lon": "1.3333333"}, {"lat": "10.7166667", "city": "Pondissari", "lon": "1.1166667"}, {"lat": "9.6333333", "city": "Ponndon", "lon": "1.4666667"}, {"lat": "11.0488889", "city": "Porga", "lon": "0.9725"}, {"lat": "10.6", "city": "Porhou", "lon": "1.4166667"}, {"lat": "10.7333333", "city": "Potibakout\u00e9ga", "lon": "0.9333333"}, {"lat": "10.65", "city": "Poungafaga", "lon": "1.3833333"}, {"lat": "10.3", "city": "Poupour\u00e9", "lon": "1.6333333"}, {"lat": "10.9333333", "city": "Pouri", "lon": "1.0833333"}, {"lat": "10.8", "city": "Pourniari", "lon": "0.9833333"}, {"lat": "8.6666667", "city": "Pr\u00e9k\u00e9t\u00e9", "lon": "1.6333333"}, {"lat": "10.2291667", "city": "Pshumko", "lon": "1.9994444"}, {"lat": "9.45", "city": "Rafa\u00eftchikpa", "lon": "1.4666667"}, {"lat": "9.9833333", "city": "Sabiy\u00e8rimafowa", "lon": "1.6666667"}, {"lat": "10.7166667", "city": "Sakannou", "lon": "1.0333333"}, {"lat": "10.0166667", "city": "Sakasson", "lon": "1.4166667"}, {"lat": "10.9333333", "city": "Sako\u00e9houm", "lon": "1.0666667"}, {"lat": "10.7833333", "city": "Sakonou", "lon": "1.0166667"}, {"lat": "9.3666667", "city": "Sakouna-Neugbawaperoun", "lon": "1.85"}, {"lat": "9.3666667", "city": "Sakouna", "lon": "1.8833333"}, {"lat": "9.3666667", "city": "Sakouoha II", "lon": "1.85"}, {"lat": "9.3666667", "city": "Sakouoha I", "lon": "1.8833333"}, {"lat": "9.9166667", "city": "Sakoursi", "lon": "1.45"}, {"lat": "9.9166667", "city": "Sakpoa-Tani", "lon": "1.5833333"}, {"lat": "10.7166667", "city": "Sakrigourou", "lon": "2.0333333"}, {"lat": "9.2166667", "city": "Salamanga", "lon": "1.7666667"}, {"lat": "9.2166667", "city": "Salananga", "lon": "1.7666667"}, {"lat": "9.2166667", "city": "Salmanga", "lon": "1.7666667"}, {"lat": "10.6833333", "city": "Samahou", "lon": "0.9166667"}, {"lat": "9.95", "city": "Sambalrhou", "lon": "1.5166667"}, {"lat": "10.3833333", "city": "Sanagou", "lon": "0.7833333"}, {"lat": "9.6833333", "city": "Sanahollou", "lon": "1.4"}, {"lat": "10.6", "city": "Sanb\u00e9hou", "lon": "0.8833333"}, {"lat": "10.7833333", "city": "Sanbuioum", "lon": "1.0833333"}, {"lat": "10.5833333", "city": "Sandala", "lon": "0.95"}, {"lat": "9.6166667", "city": "Sanda", "lon": "1.4"}, {"lat": "9.5166667", "city": "Sangbaga", "lon": "1.9"}, {"lat": "9.5166667", "city": "Sangbanga", "lon": "1.9"}, {"lat": "9.8666667", "city": "Sangkoro", "lon": "1.8166667"}, {"lat": "10.85", "city": "Sangou", "lon": "1.4666667"}, {"lat": "9.8333333", "city": "Sangvarseu", "lon": "1.65"}, {"lat": "9.6666667", "city": "Sanifoourh", "lon": "1.7833333"}, {"lat": "10.5333333", "city": "Saniouri", "lon": "1.0166667"}, {"lat": "9.85", "city": "Sankourou", "lon": "1.8"}, {"lat": "10.65", "city": "Sanp\u00e9hou", "lon": "0.9"}, {"lat": "10.75", "city": "Santiahon", "lon": "1.0833333"}, {"lat": "9.95", "city": "Sany\u00e8rangou", "lon": "1.65"}, {"lat": "9.7", "city": "Saovsar", "lon": "1.5333333"}, {"lat": "10.5666667", "city": "Sapand\u00e9", "lon": "0.8"}, {"lat": "10.5666667", "city": "Sapantandi", "lon": "0.8"}, {"lat": "9.2166667", "city": "Saramanga", "lon": "1.7666667"}, {"lat": "10.4166667", "city": "Sargayor\u00e9", "lon": "1.5833333"}, {"lat": "10.4166667", "city": "Sargayour\u00e9", "lon": "1.5833333"}, {"lat": "9.8833333", "city": "Sarhira", "lon": "1.45"}, {"lat": "10.6333333", "city": "Saro", "lon": "0.8833333"}, {"lat": "9.45", "city": "Sawoundi", "lon": "1.7666667"}, {"lat": "10.3333333", "city": "Sayacrou", "lon": "2.0"}, {"lat": "10.3333333", "city": "Sayakrou", "lon": "2.0"}, {"lat": "9.4833333", "city": "Sece", "lon": "1.7833333"}, {"lat": "10.3666667", "city": "Secougourou Gando", "lon": "1.7666667"}, {"lat": "10.3833333", "city": "S\u00e9cougourou", "lon": "1.75"}, {"lat": "10.2166667", "city": "Segb\u00e9k\u00e9rou", "lon": "1.7166667"}, {"lat": "9.5166667", "city": "S\u00e9gr\u00e9", "lon": "1.7333333"}, {"lat": "10.7166667", "city": "S\u00e9kanon", "lon": "1.0333333"}, {"lat": "10.1166667", "city": "S\u00e9k\u00e9", "lon": "2.1166667"}, {"lat": "10.3666667", "city": "S\u00e9kougourou Gando", "lon": "1.7666667"}, {"lat": "10.3833333", "city": "S\u00e9kougourou", "lon": "1.75"}, {"lat": "9.6", "city": "Semalrhou", "lon": "1.7333333"}, {"lat": "10.8666667", "city": "S\u00e9m\u00e9houn-Nanbouli", "lon": "0.95"}, {"lat": "9.5513889", "city": "S\u00e8m\u00e8r\u00e8", "lon": "1.3697222"}, {"lat": "9.9666667", "city": "S\u00e9nagv\u00e9ou", "lon": "1.6666667"}, {"lat": "10.3166667", "city": "S\u00e9pounga", "lon": "1.65"}, {"lat": "9.6666667", "city": "Seralra", "lon": "1.55"}, {"lat": "10.4", "city": "S\u00e9ra", "lon": "1.7666667"}, {"lat": "9.5166667", "city": "Serediounga", "lon": "1.7833333"}, {"lat": "9.6666667", "city": "Serhalrha", "lon": "1.55"}, {"lat": "10.7166667", "city": "S\u00e9ri", "lon": "1.05"}, {"lat": "9.8833333", "city": "S\u00earoua", "lon": "1.4833333"}, {"lat": "9.4833333", "city": "Serser", "lon": "1.7833333"}, {"lat": "9.85", "city": "Sess\u00e9rha", "lon": "1.5"}, {"lat": "9.4833333", "city": "S\u00e9ss\u00e9", "lon": "1.7833333"}, {"lat": "9.9", "city": "S\u00e9terra", "lon": "1.3666667"}, {"lat": "9.55", "city": "Setimsi", "lon": "1.8666667"}, {"lat": "9.55", "city": "Setmsi-Kpemrhou", "lon": "1.8666667"}, {"lat": "9.7333333", "city": "Siboongou", "lon": "1.8166667"}, {"lat": "10.65", "city": "Si\u00e9nou", "lon": "0.8666667"}, {"lat": "9.9", "city": "Si\u00e8tarha", "lon": "1.3666667"}, {"lat": "9.9333333", "city": "Silra-Galorha", "lon": "1.6333333"}, {"lat": "10.2166667", "city": "Simb\u00e9k\u00e9rou", "lon": "1.7166667"}, {"lat": "10.3166667", "city": "Simia", "lon": "1.95"}, {"lat": "10.15", "city": "Sinagh\u00e9r\u00e9", "lon": "2.1333333"}, {"lat": "9.15", "city": "Sinakp\u00e9rou", "lon": "2.1666667"}, {"lat": "9.1666667", "city": "Sinaou", "lon": "2.25"}, {"lat": "10.2166667", "city": "Sinawarou", "lon": "1.9833333"}, {"lat": "10.7666667", "city": "Sindori Ton\u00e9a", "lon": "0.95"}, {"lat": "10.6166667", "city": "Singki\u00e9ni", "lon": "0.9"}, {"lat": "10.1833333", "city": "Sinmp\u00e9r\u00e9rou", "lon": "1.9"}, {"lat": "9.5166667", "city": "Sinngreu", "lon": "1.7333333"}, {"lat": "10.1666667", "city": "Sinoou", "lon": "2.2"}, {"lat": "10.8833333", "city": "Sir\u00e9boin\u00e9", "lon": "0.9166667"}, {"lat": "10.7833333", "city": "Siri", "lon": "1.6833333"}, {"lat": "10.1833333", "city": "Soammbor\u00e9kou", "lon": "1.95"}, {"lat": "10.2833333", "city": "Soaodou", "lon": "1.9833333"}, {"lat": "10.3833333", "city": "Soa", "lon": "1.6333333"}, {"lat": "10.2166667", "city": "Soissarou", "lon": "2.0666667"}, {"lat": "9.6166667", "city": "Sokobo", "lon": "1.45"}, {"lat": "10.9333333", "city": "Sokou\u00e9ou", "lon": "1.0666667"}, {"lat": "9.6666667", "city": "Sonagouda", "lon": "1.4166667"}, {"lat": "9.6833333", "city": "Sonaholou", "lon": "1.4"}, {"lat": "9.5833333", "city": "Songo", "lon": "1.45"}, {"lat": "10.1833333", "city": "Sonpar\u00e9rou", "lon": "2.0666667"}, {"lat": "9.8666667", "city": "Soouw\u00e8niango", "lon": "1.4"}, {"lat": "10.65", "city": "Soumborhou", "lon": "0.8833333"}, {"lat": "10.35", "city": "Souroubora", "lon": "2.05"}, {"lat": "10.4666667", "city": "Souroukou", "lon": "1.5833333"}, {"lat": "10.1333333", "city": "Tabanga-Ti\u00e9ta", "lon": "1.3"}, {"lat": "9.8", "city": "Tabound\u00e8", "lon": "1.4166667"}, {"lat": "10.3666667", "city": "Tadouata", "lon": "1.1166667"}, {"lat": "10.3166667", "city": "Tadouennta", "lon": "1.2166667"}, {"lat": "9.9666667", "city": "Tafenda", "lon": "1.5833333"}, {"lat": "10.25", "city": "Tagnap\u00e9ta", "lon": "1.45"}, {"lat": "10.8166667", "city": "Tagoporga", "lon": "1.0166667"}, {"lat": "10.4166667", "city": "Taguissar\u00e9", "lon": "1.4666667"}, {"lat": "10.85", "city": "Tahoun", "lon": "1.0166667"}, {"lat": "10.5427778", "city": "Ta\u00efacou", "lon": "1.2077778"}, {"lat": "10.5427778", "city": "Ta\u00efakou", "lon": "1.2077778"}, {"lat": "10.5166667", "city": "Taieta", "lon": "1.1333333"}, {"lat": "10.2", "city": "Taki\u00e9kounta", "lon": "1.4"}, {"lat": "10.4166667", "city": "Takissari", "lon": "1.4666667"}, {"lat": "10.05", "city": "Takonta", "lon": "1.3833333"}, {"lat": "10.3333333", "city": "Takoti\u00e9ta", "lon": "1.0666667"}, {"lat": "10.2", "city": "Takouanta", "lon": "1.1833333"}, {"lat": "10.05", "city": "Takouenta", "lon": "1.3833333"}, {"lat": "10.3", "city": "Takounta", "lon": "1.0666667"}, {"lat": "10.1833333", "city": "Takourt\u00e9", "lon": "1.3833333"}, {"lat": "9.8666667", "city": "Talamgou", "lon": "1.6333333"}, {"lat": "10.8333333", "city": "Tal\u00e9", "lon": "1.1"}, {"lat": "10.9666667", "city": "Tamaga", "lon": "0.9833333"}, {"lat": "10.0", "city": "Tamand\u00e9", "lon": "1.5333333"}, {"lat": "10.3833333", "city": "Tamar\u00e9gou", "lon": "1.25"}, {"lat": "10.6833333", "city": "Tambogor\u00e9", "lon": "1.3333333"}, {"lat": "10.7333333", "city": "Tamissari", "lon": "0.8666667"}, {"lat": "9.9333333", "city": "Tamot\u00e9", "lon": "1.7666667"}, {"lat": "9.8666667", "city": "Tamp\u00e8roun", "lon": "1.6"}, {"lat": "9.7", "city": "Tamsar", "lon": "1.5333333"}, {"lat": "9.85", "city": "Tanaka-Beri", "lon": "1.5"}, {"lat": "10.6833333", "city": "Tandafa", "lon": "1.6333333"}, {"lat": "9.85", "city": "Tan\u00e9ka-B\u00e9ri", "lon": "1.5"}, {"lat": "9.8666667", "city": "Tan\u00e9ka-Koko", "lon": "1.5"}, {"lat": "9.8666667", "city": "Tan\u00e9ka-Koro", "lon": "1.5"}, {"lat": "9.8666667", "city": "Taneka-Koru", "lon": "1.5"}, {"lat": "10.6", "city": "Tanf\u00e9r\u00e9", "lon": "1.3333333"}, {"lat": "10.6666667", "city": "Tanforgou", "lon": "1.35"}, {"lat": "9.9666667", "city": "Tanfoung\u00e9", "lon": "1.7166667"}, {"lat": "9.8333333", "city": "Tangbamora", "lon": "1.6166667"}, {"lat": "9.8333333", "city": "Tangbamrha", "lon": "1.6166667"}, {"lat": "9.5833333", "city": "Tangfoungou", "lon": "1.8"}, {"lat": "10.6197222", "city": "Tangoueita", "lon": "1.2644444"}, {"lat": "9.7", "city": "Tangsar", "lon": "1.5166667"}, {"lat": "10.6197222", "city": "Tangueita", "lon": "1.2644444"}, {"lat": "10.6197222", "city": "Tangui\u00e9ta", "lon": "1.2644444"}, {"lat": "10.25", "city": "Taniap\u00e9ta", "lon": "1.45"}, {"lat": "9.9", "city": "Tani", "lon": "1.6"}, {"lat": "10.8833333", "city": "Tankoal\u00e9", "lon": "1.05"}, {"lat": "10.7333333", "city": "Tankonga", "lon": "1.6666667"}, {"lat": "10.6", "city": "Tanmbaragou", "lon": "1.3833333"}, {"lat": "10.8", "city": "Tanmbogakoundi", "lon": "1.0333333"}, {"lat": "10.6833333", "city": "Tanmbogol\u00e9", "lon": "1.3333333"}, {"lat": "10.5", "city": "Tanmboyotoufa", "lon": "1.3166667"}, {"lat": "10.4166667", "city": "Tanmp\u00e8gr\u00e9", "lon": "1.3333333"}, {"lat": "10.2166667", "city": "Tannda", "lon": "1.5666667"}, {"lat": "10.8166667", "city": "Tannogou", "lon": "1.4333333"}, {"lat": "10.8166667", "city": "Tanogou", "lon": "1.4333333"}, {"lat": "10.8166667", "city": "Tanogu", "lon": "1.4333333"}, {"lat": "10.8166667", "city": "Tanougou", "lon": "1.4333333"}, {"lat": "10.9666667", "city": "Tanpass\u00e9ga", "lon": "0.9333333"}, {"lat": "10.4166667", "city": "Tans\u00e9", "lon": "1.7166667"}, {"lat": "10.6333333", "city": "Tantaka", "lon": "1.3333333"}, {"lat": "10.5333333", "city": "Tantan\u00e9", "lon": "0.8166667"}, {"lat": "10.6666667", "city": "Tantanga", "lon": "1.4166667"}, {"lat": "10.85", "city": "Tant\u00e9ga", "lon": "1.0333333"}, {"lat": "10.45", "city": "Tan-Teil", "lon": "1.3833333"}, {"lat": "10.8666667", "city": "Tantiari", "lon": "0.9333333"}, {"lat": "10.4166667", "city": "Tantougou", "lon": "1.4"}, {"lat": "10.15", "city": "Taouampouta", "lon": "1.4833333"}, {"lat": "9.5833333", "city": "Taoufoungou", "lon": "1.8"}, {"lat": "10.5727778", "city": "Tapoga", "lon": "0.9886111"}, {"lat": "10.0333333", "city": "Tapoundoukounta", "lon": "1.4666667"}, {"lat": "10.0833333", "city": "Tapounta", "lon": "1.3166667"}, {"lat": "10.0833333", "city": "Tapouta", "lon": "1.3166667"}, {"lat": "10.3666667", "city": "Tar\u00e9tar\u00e9bouini", "lon": "1.2"}, {"lat": "10.4", "city": "Tarissari", "lon": "1.5166667"}, {"lat": "10.2833333", "city": "Tarpounga", "lon": "1.5833333"}, {"lat": "10.8", "city": "Tassahounpourouporga", "lon": "0.95"}, {"lat": "9.9833333", "city": "Tassigourou", "lon": "1.55"}, {"lat": "10.0833333", "city": "Tassita", "lon": "1.4333333"}, {"lat": "10.45", "city": "Tassoukouati", "lon": "0.7833333"}, {"lat": "10.45", "city": "Tatanta", "lon": "1.45"}, {"lat": "10.3166667", "city": "Tatounti\u00e9ta", "lon": "1.0833333"}, {"lat": "10.4", "city": "Tatouta", "lon": "1.0333333"}, {"lat": "10.15", "city": "Tawanmpouta", "lon": "1.4833333"}, {"lat": "10.5427778", "city": "Tayakou", "lon": "1.2077778"}, {"lat": "10.55", "city": "Tchakalakou", "lon": "1.3333333"}, {"lat": "9.8166667", "city": "Tchakelno", "lon": "1.5666667"}, {"lat": "9.6833333", "city": "Tchalad\u00e8", "lon": "1.3833333"}, {"lat": "9.8088889", "city": "Tchalinga", "lon": "1.3975"}, {"lat": "9.8666667", "city": "Tchamoye", "lon": "1.6"}, {"lat": "10.9", "city": "Tchanga", "lon": "1.05"}, {"lat": "10.4666667", "city": "Tchangoata", "lon": "1.2166667"}, {"lat": "9.8088889", "city": "Tch\u00e9lenga", "lon": "1.3975"}, {"lat": "9.8088889", "city": "Tch\u00e9linga", "lon": "1.3975"}, {"lat": "9.3333333", "city": "Tch\u00e8mb\u00e8r\u00e9", "lon": "1.4333333"}, {"lat": "9.4833333", "city": "Tchengad\u00e9", "lon": "1.55"}, {"lat": "10.0666667", "city": "Tcheumi-Tchoumi", "lon": "1.4"}, {"lat": "9.6166667", "city": "Tchou\u00e9", "lon": "1.4666667"}, {"lat": "10.8333333", "city": "Tchoukoang", "lon": "0.9333333"},