{"BT": {"11": [{"lat": "27.95", "city": "Dogsar", "lon": "91.0333333"}, {"lat": "27.6", "city": "Donkar", "lon": "91.1833333"}, {"lat": "27.8166667", "city": "Khenpa Dzong", "lon": "91.0833333"}, {"lat": "27.5333333", "city": "Kungtar", "lon": "91.05"}, {"lat": "27.8166667", "city": "Lao", "lon": "91.5"}, {"lat": "27.65", "city": "Lenlung", "lon": "91.15"}, {"lat": "27.65", "city": "Lhuntshi", "lon": "91.15"}, {"lat": "27.65", "city": "Lhuntsi Dzong", "lon": "91.15"}, {"lat": "27.65", "city": "Lingshi Dzong", "lon": "91.15"}, {"lat": "27.3833333", "city": "Monka", "lon": "91.1666667"}, {"lat": "27.8333333", "city": "Saidu", "lon": "90.9333333"}, {"lat": "27.7333333", "city": "Sawang", "lon": "91.2"}, {"lat": "27.9166667", "city": "Senghe Dzong", "lon": "91.35"}, {"lat": "27.7333333", "city": "Shabling", "lon": "91.1166667"}, {"lat": "27.9333333", "city": "Shingbe", "lon": "91.6166667"}, {"lat": "27.9166667", "city": "Singhi Dzong", "lon": "91.35"}, {"lat": "27.9166667", "city": "Singye Dzong", "lon": "91.35"}, {"lat": "27.8166667", "city": "Thunkar", "lon": "91.0833333"}, {"lat": "27.7166667", "city": "Tobrang", "lon": "91.5"}, {"lat": "27.4833333", "city": "Torma Shong", "lon": "91.1"}, {"lat": "27.4833333", "city": "Tormoshangsa", "lon": "91.1"}, {"lat": "27.8666667", "city": "Tosumani", "lon": "91.2333333"}, {"lat": "27.8666667", "city": "Tosuman", "lon": "91.2333333"}, {"lat": "27.75", "city": "Tse Kang", "lon": "91.2333333"}], "10": [{"lat": "27.4166667", "city": "Damthang", "lon": "89.35"}, {"lat": "27.2", "city": "Doring", "lon": "89.2"}, {"lat": "27.4166667", "city": "Gesekha", "lon": "89.25"}, {"lat": "27.3666667", "city": "Ha Dzong", "lon": "89.2833333"}, {"lat": "27.3666667", "city": "Ha", "lon": "89.2833333"}, {"lat": "27.4", "city": "Hilari", "lon": "88.9833333"}, {"lat": "27.4", "city": "Hlari", "lon": "88.9833333"}, {"lat": "27.4166667", "city": "Kechangka", "lon": "89.25"}, {"lat": "27.4166667", "city": "Kechungka", "lon": "89.25"}, {"lat": "27.1333333", "city": "Mochhu", "lon": "89.1166667"}, {"lat": "27.3833333", "city": "Naktsang", "lon": "89.2666667"}, {"lat": "27.1666667", "city": "Sangbay", "lon": "89.0833333"}, {"lat": "27.3", "city": "Sangkari", "lon": "89.3166667"}, {"lat": "27.4166667", "city": "Sharitang", "lon": "89.0166667"}, {"lat": "27.4166667", "city": "Sharithang", "lon": "89.0166667"}, {"lat": "27.1666667", "city": "Shiuji", "lon": "89.0166667"}, {"lat": "27.1666667", "city": "Sombe Dzong", "lon": "89.0833333"}, {"lat": "27.1666667", "city": "Tima", "lon": "89.0333333"}], "13": [{"lat": "27.4833333", "city": "Atsho Chhubar", "lon": "89.4"}, {"lat": "27.5333333", "city": "Chuyul", "lon": "89.3"}, {"lat": "27.5", "city": "Drugyel Dzong", "lon": "89.3333333"}, {"lat": "27.4333333", "city": "Paro Dzong", "lon": "89.4166667"}, {"lat": "27.4333333", "city": "Paro", "lon": "89.4166667"}, {"lat": "27.4333333", "city": "Rimpung Dzong", "lon": "89.4166667"}, {"lat": "27.6166667", "city": "Shingkarap", "lon": "89.2666667"}, {"lat": "27.4333333", "city": "Tshalunang", "lon": "89.65"}], "12": [{"lat": "27.2166667", "city": "Balfai", "lon": "91.5"}, {"lat": "27.3", "city": "Damecha", "lon": "91.45"}, {"lat": "27.3", "city": "Dametsi", "lon": "91.45"}, {"lat": "27.3", "city": "Damoitsi", "lon": "91.45"}, {"lat": "27.3", "city": "Damotse", "lon": "91.45"}, {"lat": "27.3", "city": "Demtsi", "lon": "91.45"}, {"lat": "27.0666667", "city": "Domka", "lon": "91.0666667"}, {"lat": "27.1833333", "city": "Gyepozhing", "lon": "91.1666667"}, {"lat": "27.1", "city": "Kenga", "lon": "91.25"}, {"lat": "27.1", "city": "Kengkhar", "lon": "91.25"}, {"lat": "27.25", "city": "Mongar Dzong", "lon": "91.2"}, {"lat": "27.25", "city": "Mongar", "lon": "91.2"}, {"lat": "27.2", "city": "Nimgong", "lon": "90.95"}, {"lat": "27.25", "city": "Shongar Dzong", "lon": "91.0833333"}, {"lat": "27.2666667", "city": "Thebong", "lon": "91.2666667"}, {"lat": "27.1333333", "city": "Tongla Kenga", "lon": "91.2166667"}], "20": [{"lat": "27.7", "city": "Barshong", "lon": "89.55"}, {"lat": "27.7", "city": "Borshang", "lon": "89.55"}, {"lat": "27.7666667", "city": "Byaradingka", "lon": "89.45"}, {"lat": "27.4833333", "city": "Cha-shih-ch'\u00fc-tsung", "lon": "89.6166667"}, {"lat": "27.5833333", "city": "Dotanang", "lon": "89.6333333"}, {"lat": "27.9166667", "city": "Lingshi Dzong", "lon": "89.4333333"}, {"lat": "27.9166667", "city": "Lingshi", "lon": "89.4333333"}, {"lat": "27.7666667", "city": "Shodug", "lon": "89.45"}, {"lat": "27.4833333", "city": "Ta-hsi-su-tsung", "lon": "89.6166667"}, {"lat": "27.4833333", "city": "Ta-hsi-su-tun", "lon": "89.6166667"}, {"lat": "27.4833333", "city": "Tash Chho Dzong", "lon": "89.6166667"}, {"lat": "27.4833333", "city": "Tashi Chho Dzong", "lon": "89.6166667"}, {"lat": "27.4833333", "city": "Tashi Chhuc Dzong", "lon": "89.6166667"}, {"lat": "27.4833333", "city": "Ta-shih-ch'u", "lon": "89.6166667"}, {"lat": "27.4833333", "city": "Tassisudon", "lon": "89.6166667"}, {"lat": "27.4833333", "city": "Thimbu", "lon": "89.6"}, {"lat": "27.4833333", "city": "Thimpago", "lon": "89.6"}, {"lat": "27.4833333", "city": "Thimphu", "lon": "89.6"}, {"lat": "27.4833333", "city": "Thimpu", "lon": "89.6"}, {"lat": "27.4833333", "city": "Trashi Chh\u00f6dzong", "lon": "89.6166667"}, {"lat": "27.4833333", "city": "Trashi Ch\u00f6 Dzong", "lon": "89.6166667"}, {"lat": "27.4833333", "city": "Trashicho", "lon": "89.6166667"}], "07": [{"lat": "27.0333333", "city": "Beteni", "lon": "90.2333333"}, {"lat": "27.0", "city": "Buri Chu", "lon": "90.2166667"}, {"lat": "27.0666667", "city": "Chirang", "lon": "90.1"}, {"lat": "26.9333333", "city": "Dagapela", "lon": "89.95"}, {"lat": "27.0166667", "city": "Damphu", "lon": "90.1"}, {"lat": "26.9666667", "city": "Dhaje", "lon": "90.1166667"}, {"lat": "27.0166667", "city": "Domaphu", "lon": "90.1"}, {"lat": "26.8333333", "city": "Doronagaon", "lon": "89.8166667"}, {"lat": "26.9", "city": "Gnimthenla", "lon": "89.85"}, {"lat": "27.1833333", "city": "Haracha", "lon": "90.0333333"}, {"lat": "26.95", "city": "Lamedada", "lon": "90.1333333"}, {"lat": "26.9666667", "city": "Lamidangra", "lon": "90.1"}, {"lat": "26.9166667", "city": "Momai Thang", "lon": "89.85"}, {"lat": "26.8833333", "city": "Niche Kalikhola", "lon": "90.0666667"}, {"lat": "26.9833333", "city": "Thumgaon", "lon": "89.9666667"}], "22": [{"lat": "27.35", "city": "Alla", "lon": "89.9666667"}, {"lat": "27.35", "city": "Ama", "lon": "89.9"}, {"lat": "27.5", "city": "Chemaito", "lon": "90.2833333"}, {"lat": "27.55", "city": "Chilo", "lon": "90.0"}, {"lat": "27.4833333", "city": "Du Phodrang", "lon": "89.9"}, {"lat": "27.5", "city": "Gangtey Gonpa", "lon": "90.1666667"}, {"lat": "27.3333333", "city": "Gasila", "lon": "89.8"}, {"lat": "27.3666667", "city": "Giala", "lon": "89.9666667"}, {"lat": "27.6333333", "city": "Lung Chen", "lon": "90.1833333"}, {"lat": "27.5333333", "city": "Manikyangsa", "lon": "90.1"}, {"lat": "27.5", "city": "Ohemaito", "lon": "90.2833333"}, {"lat": "27.5333333", "city": "Pajo", "lon": "89.8833333"}, {"lat": "27.55", "city": "Ritang", "lon": "90.1666667"}, {"lat": "27.5333333", "city": "Samtengang", "lon": "90.0"}, {"lat": "27.3666667", "city": "Sawaphu", "lon": "90.2"}, {"lat": "27.75", "city": "Tseshinang", "lon": "90.0666667"}, {"lat": "27.4833333", "city": "Wangdiphodrang", "lon": "89.9"}, {"lat": "27.4833333", "city": "Wangd\u00fc Phodrang", "lon": "89.9"}, {"lat": "27.5166667", "city": "Yuwak", "lon": "89.8666667"}], "05": [{"lat": "27.55", "city": "Bumtang", "lon": "90.7166667"}, {"lat": "27.6", "city": "Bumtang Tang", "lon": "90.8166667"}, {"lat": "27.6", "city": "Bumthang", "lon": "90.8166667"}, {"lat": "27.55", "city": "Byakar Dzong", "lon": "90.7166667"}, {"lat": "27.6", "city": "Dhur", "lon": "90.65"}, {"lat": "27.5166667", "city": "Gyetsa", "lon": "90.6333333"}, {"lat": "27.55", "city": "Jakar", "lon": "90.7333333"}, {"lat": "27.55", "city": "Jokhar Dzong", "lon": "90.7333333"}, {"lat": "27.6166667", "city": "Kurjey", "lon": "90.7"}, {"lat": "27.9166667", "city": "Lhedang", "lon": "90.75"}, {"lat": "27.6", "city": "Nangnang", "lon": "90.8833333"}, {"lat": "27.6833333", "city": "Naspe", "lon": "90.7166667"}, {"lat": "27.5666667", "city": "Pimi", "lon": "90.9833333"}, {"lat": "27.8833333", "city": "Rife", "lon": "90.5166667"}, {"lat": "27.75", "city": "Sasoka", "lon": "90.8666667"}, {"lat": "27.3666667", "city": "Sengor", "lon": "91.0166667"}, {"lat": "27.5", "city": "Shuri", "lon": "90.75"}, {"lat": "27.3666667", "city": "Singur", "lon": "91.0166667"}, {"lat": "27.4166667", "city": "Ura", "lon": "90.9166667"}, {"lat": "27.55", "city": "Wangchukling", "lon": "90.7333333"}, {"lat": "27.9166667", "city": "Weitsang", "lon": "90.75"}], "19": [{"lat": "27.3166667", "city": "Benkar", "lon": "91.5666667"}, {"lat": "27.4", "city": "Ghunkarah", "lon": "91.5666667"}, {"lat": "27.1666667", "city": "Kangpar", "lon": "91.7333333"}, {"lat": "27.45", "city": "Khamna", "lon": "91.5833333"}, {"lat": "27.45", "city": "Khampa", "lon": "91.5833333"}, {"lat": "27.1", "city": "Louri", "lon": "91.9333333"}, {"lat": "27.45", "city": "Ngalangkang", "lon": "91.5833333"}, {"lat": "27.1833333", "city": "Ningsang La", "lon": "91.8"}, {"lat": "27.3666667", "city": "Radi", "lon": "91.6833333"}, {"lat": "27.35", "city": "Rungzyung", "lon": "91.6666667"}, {"lat": "27.3833333", "city": "Sakden", "lon": "91.8666667"}, {"lat": "27.3833333", "city": "Sakdon", "lon": "91.8666667"}, {"lat": "27.3833333", "city": "Sakteng", "lon": "91.8666667"}, {"lat": "27.5833333", "city": "Sana", "lon": "91.3833333"}, {"lat": "27.4833333", "city": "Shali", "lon": "91.5666667"}, {"lat": "27.65", "city": "Shapang", "lon": "91.4666667"}, {"lat": "27.65", "city": "Taripe", "lon": "91.45"}, {"lat": "27.65", "city": "Taripo", "lon": "91.45"}, {"lat": "27.3166667", "city": "Tashi Gang Dzong", "lon": "91.5666667"}, {"lat": "27.3166667", "city": "Tashigang", "lon": "91.5666667"}, {"lat": "27.5833333", "city": "Tashigangtsi", "lon": "91.4666667"}, {"lat": "27.5833333", "city": "Tashi Tang-tsi Dzong", "lon": "91.4666667"}, {"lat": "27.5833333", "city": "Tashi Yangtse", "lon": "91.4666667"}, {"lat": "27.5833333", "city": "Tashi Yang-tsi Dzong", "lon": "91.4666667"}, {"lat": "27.1333333", "city": "Thimsing", "lon": "91.6166667"}, {"lat": "27.1333333", "city": "Thrimshing", "lon": "91.6166667"}, {"lat": "27.0666667", "city": "Wamrong", "lon": "91.5666667"}, {"lat": "27.4333333", "city": "Yalang", "lon": "91.6333333"}], "18": [{"lat": "27.2166667", "city": "Bali", "lon": "90.7166667"}, {"lat": "26.9", "city": "Bioka", "lon": "90.9166667"}, {"lat": "27.0833333", "city": "Go)nphu", "lon": "90.7666667"}, {"lat": "26.8666667", "city": "Panbang", "lon": "90.9833333"}, {"lat": "26.95", "city": "Pangkha", "lon": "90.8166667"}, {"lat": "26.95", "city": "Panka", "lon": "90.8166667"}, {"lat": "26.9333333", "city": "Pieksao", "lon": "90.9833333"}, {"lat": "27.3", "city": "Samchhi", "lon": "90.6166667"}, {"lat": "27.3", "city": "Sanchi", "lon": "90.6166667"}, {"lat": "27.2333333", "city": "Shamgong Dzong", "lon": "90.65"}, {"lat": "27.2333333", "city": "Shangong Dzong", "lon": "90.65"}, {"lat": "27.2333333", "city": "Shemgang", "lon": "90.65"}, {"lat": "27.3", "city": "Somchi", "lon": "90.6166667"}, {"lat": "26.8666667", "city": "Sufali", "lon": "90.9833333"}, {"lat": "27.15", "city": "Zarafi", "lon": "90.6833333"}], "08": [{"lat": "26.9833333", "city": "Bachap", "lon": "89.8166667"}, {"lat": "27.0833333", "city": "Chalaika", "lon": "89.8666667"}, {"lat": "27.0666667", "city": "Daga", "lon": "89.8833333"}, {"lat": "27.1166667", "city": "Dam", "lon": "89.7666667"}, {"lat": "27.25", "city": "Kamganka", "lon": "89.9666667"}, {"lat": "27.25", "city": "Kisona", "lon": "90.0"}, {"lat": "27.1166667", "city": "Pinsoperi", "lon": "89.95"}, {"lat": "26.9972222", "city": "Sibsu", "lon": "88.9"}, {"lat": "26.9972222", "city": "Sipchu", "lon": "88.9"}, {"lat": "27.0666667", "city": "Taga Dzong", "lon": "89.8833333"}, {"lat": "27.0666667", "city": "Ta-Ga-Na", "lon": "89.8833333"}], "09": [{"lat": "27.2666667", "city": "Bhangbarai", "lon": "90.3"}, {"lat": "26.9", "city": "Bhurgaon", "lon": "90.4333333"}, {"lat": "27.05", "city": "Bitana", "lon": "90.3"}, {"lat": "27.1333333", "city": "Chanchukha Dzong", "lon": "90.35"}, {"lat": "27.1333333", "city": "Changchukha Dzong", "lon": "90.35"}, {"lat": "27.0", "city": "Galechugaon", "lon": "90.5333333"}, {"lat": "26.85", "city": "Geylegphug", "lon": "90.5"}, {"lat": "27.0333333", "city": "Gongchuandgaon", "lon": "90.4333333"}, {"lat": "26.85", "city": "Hatisar", "lon": "90.5"}, {"lat": "26.7166667", "city": "Kalikhola", "lon": "90.85"}, {"lat": "26.7833333", "city": "Lalai", "lon": "90.5166667"}, {"lat": "27.0333333", "city": "Maogaon", "lon": "90.4"}, {"lat": "26.7166667", "city": "Pengkhua", "lon": "90.05"}, {"lat": "26.75", "city": "Phisugaon", "lon": "90.1"}, {"lat": "26.7166667", "city": "Pinkhua", "lon": "90.05"}, {"lat": "26.8666667", "city": "Sarbhang", "lon": "90.2666667"}], "15": [{"lat": "27.6666667", "city": "Dawakha", "lon": "89.9166667"}, {"lat": "27.9166667", "city": "Gasa Dzong", "lon": "89.6833333"}, {"lat": "27.9166667", "city": "Gasa", "lon": "89.6833333"}, {"lat": "27.75", "city": "Kencho", "lon": "89.7166667"}, {"lat": "28.0666667", "city": "Laya", "lon": "89.6833333"}, {"lat": "28.05", "city": "Lunana", "lon": "90.1666667"}, {"lat": "27.6166667", "city": "Punaka", "lon": "89.8666667"}, {"lat": "27.6166667", "city": "Punakha", "lon": "89.8666667"}, {"lat": "27.6166667", "city": "Punakla", "lon": "89.8666667"}, {"lat": "27.6666667", "city": "Shegaria", "lon": "90.0"}, {"lat": "27.6666667", "city": "Tamjee", "lon": "89.9"}, {"lat": "27.8", "city": "Tamji", "lon": "89.6333333"}], "16": [{"lat": "26.9", "city": "Chamarchi", "lon": "89.1"}, {"lat": "26.9166667", "city": "Chengmari", "lon": "89.0333333"}, {"lat": "26.9166667", "city": "Chengmore", "lon": "89.0333333"}, {"lat": "27.0166667", "city": "Denchukha", "lon": "89.25"}, {"lat": "27.0166667", "city": "Denehukha", "lon": "89.25"}, {"lat": "27.0166667", "city": "Dorkha", "lon": "89.2166667"}, {"lat": "27.0166667", "city": "Dorokha", "lon": "89.2166667"}, {"lat": "27.1", "city": "Dzongsa Dzong", "lon": "88.8833333"}, {"lat": "27.1", "city": "Jumsa", "lon": "88.8833333"}, {"lat": "27.1", "city": "Rapley", "lon": "89.2833333"}, {"lat": "26.8666667", "city": "Samchi", "lon": "89.1"}, {"lat": "27.1333333", "city": "Tendu", "lon": "88.8833333"}], "17": [{"lat": "26.8166667", "city": "Bhangtar", "lon": "91.7166667"}, {"lat": "26.9", "city": "Daifam", "lon": "92.1"}, {"lat": "26.8666667", "city": "Dewangiri", "lon": "91.4666667"}, {"lat": "27.05", "city": "Diptsang", "lon": "91.9833333"}, {"lat": "26.9", "city": "Naitola", "lon": "91.2666667"}, {"lat": "26.7833333", "city": "Nganglam", "lon": "91.25"}, {"lat": "26.8166667", "city": "Samdrup Jongkhar", "lon": "91.5666667"}, {"lat": "26.9833333", "city": "Tashtanje", "lon": "92.0166667"}], "14": [{"lat": "27.05", "city": "Chungkar", "lon": "91.4166667"}, {"lat": "27.0", "city": "Khar", "lon": "91.35"}, {"lat": "27.0333333", "city": "Pemagatsel", "lon": "91.45"}, {"lat": "26.9666667", "city": "Rading", "lon": "91.4666667"}, {"lat": "27.1333333", "city": "Sassi", "lon": "91.4333333"}, {"lat": "26.95", "city": "Tungka La", "lon": "91.3666667"}], "06": [{"lat": "27.2", "city": "Chapcha", "lon": "89.55"}, {"lat": "27.2", "city": "Chapchha", "lon": "89.55"}, {"lat": "27.0666667", "city": "Chhukha", "lon": "89.5833333"}, {"lat": "27.0666667", "city": "Chhukha Dzong", "lon": "89.5833333"}, {"lat": "27.0666667", "city": "Chukha", "lon": "89.5833333"}, {"lat": "26.9666667", "city": "Daphu", "lon": "89.3833333"}, {"lat": "27.0333333", "city": "Duna Dzong", "lon": "89.4"}, {"lat": "27.0333333", "city": "Dungna", "lon": "89.4"}, {"lat": "26.9", "city": "Khitokha", "lon": "89.6166667"}, {"lat": "27.2", "city": "Kyapcha Dzong", "lon": "89.55"}, {"lat": "27.15", "city": "Lobnig", "lon": "89.55"}, {"lat": "26.9", "city": "Pachu", "lon": "89.35"}, {"lat": "26.85", "city": "Phunchholing", "lon": "89.3833333"}, {"lat": "26.85", "city": "Phuntsholing", "lon": "89.3833333"}, {"lat": "26.85", "city": "Phuntsoling", "lon": "89.3833333"}, {"lat": "27.3", "city": "Raga", "lon": "89.5333333"}, {"lat": "27.2333333", "city": "Suchha", "lon": "89.45"}, {"lat": "26.8666667", "city": "Tala", "lon": "89.5666667"}, {"lat": "27.25", "city": "Usak", "lon": "89.7666667"}], "21": [{"lat": "27.4", "city": "Changra", "lon": "90.4666667"}, {"lat": "27.45", "city": "Chendebi", "lon": "90.3333333"}, {"lat": "27.5333333", "city": "Kagha", "lon": "90.4666667"}, {"lat": "27.3333333", "city": "Lamti", "lon": "90.5666667"}, {"lat": "27.5833333", "city": "Nab Ch\u00f6te", "lon": "90.4333333"}, {"lat": "27.3333333", "city": "Namtil", "lon": "90.4"}, {"lat": "27.3333333", "city": "Namtir", "lon": "90.4"}, {"lat": "27.4", "city": "Samdrop", "lon": "90.5"}, {"lat": "27.4", "city": "Samdrup Choling", "lon": "90.5"}, {"lat": "27.4", "city": "Samdrup", "lon": "90.5"}, {"lat": "27.4333333", "city": "Tangsebi", "lon": "90.4333333"}, {"lat": "27.5166667", "city": "Tongsa Dzong", "lon": "90.5"}, {"lat": "27.5166667", "city": "Tongsa", "lon": "90.5"}, {"lat": "27.4833333", "city": "Tsangka", "lon": "90.4666667"}]}}