{"CA": {"02": [{"lat": "48.533333", "city": "9zenic View", "lon": "-123.55"}, {"lat": "49.05", "city": "Abbotsford", "lon": "-122.3"}, {"lat": "49.05", "city": "Abbottsford", "lon": "-122.3"}, {"lat": "49.233333", "city": "Agassiz", "lon": "-121.766667"}, {"lat": "49.283333", "city": "Ahousat", "lon": "-126.05"}, {"lat": "55.25", "city": "Aiyansh", "lon": "-129.083333"}, {"lat": "49.266667", "city": "Alberni", "lon": "-124.8"}, {"lat": "51.133333", "city": "Albert Canyon", "lon": "-117.866667"}, {"lat": "52.633333", "city": "Albreda", "lon": "-119.15"}, {"lat": "49.06", "city": "Aldergrove", "lon": "-122.46"}, {"lat": "50.583333", "city": "Alert Bay", "lon": "-126.916667"}, {"lat": "52.633333", "city": "Alexandria", "lon": "-122.45"}, {"lat": "52.083333", "city": "Alexis Creek", "lon": "-123.283333"}, {"lat": "54.116667", "city": "Aleza Lake", "lon": "-122.066667"}, {"lat": "55.45", "city": "Alice Arm", "lon": "-129.483333"}, {"lat": "51.766667", "city": "Alkali Lake", "lon": "-122.3"}, {"lat": "53.2", "city": "Alliford Bay", "lon": "-131.983333"}, {"lat": "51.033333", "city": "Allison Harbour", "lon": "-127.516667"}, {"lat": "49.1", "city": "Alluvia", "lon": "-122.833333"}, {"lat": "50.116667", "city": "Alta Lake", "lon": "-122.983333"}, {"lat": "52.45", "city": "Anahim Lake", "lon": "-125.3"}, {"lat": "55.416667", "city": "Anyox", "lon": "-129.833333"}, {"lat": "50.183333", "city": "Argenta", "lon": "-116.933333"}, {"lat": "50.45", "city": "Armstrong", "lon": "-119.183333"}, {"lat": "54.966667", "city": "Arrandale", "lon": "-130"}, {"lat": "50.7", "city": "Arrowhead", "lon": "-117.916667"}, {"lat": "50.716667", "city": "Ashcroft", "lon": "-121.266667"}, {"lat": "49.883333", "city": "Aspen Grove", "lon": "-120.633333"}, {"lat": "50.516667", "city": "Athalmer", "lon": "-116.033333"}, {"lat": "50.516667", "city": "Athelmer", "lon": "-116.033333"}, {"lat": "59.583333", "city": "Atlin", "lon": "-133.716667"}, {"lat": "52.383333", "city": "Atnarko", "lon": "-125.816667"}, {"lat": "56.216667", "city": "Attachie", "lon": "-121.433333"}, {"lat": "51.783333", "city": "Avola", "lon": "-119.316667"}, {"lat": "55.316667", "city": "Babine", "lon": "-126.616667"}, {"lat": "54.516667", "city": "Babine Portage", "lon": "-125.183333"}, {"lat": "49.316667", "city": "Bainbridge", "lon": "-124.85"}, {"lat": "56.216667", "city": "Baldonnel", "lon": "-120.683333"}, {"lat": "49.633333", "city": "Balfour", "lon": "-116.966667"}, {"lat": "48.583333", "city": "Bamberton", "lon": "-123.516667"}, {"lat": "48.833333", "city": "Bamfield", "lon": "-125.15"}, {"lat": "49.283333", "city": "Barnet", "lon": "-122.933333"}, {"lat": "54.433333", "city": "Barrett", "lon": "-126.75"}, {"lat": "54.433333", "city": "Barrett Lake", "lon": "-126.75"}, {"lat": "51.183333", "city": "Barri\u00e8re", "lon": "-120.133333"}, {"lat": "55.15", "city": "Beament", "lon": "-127.383333"}, {"lat": "56.283333", "city": "Bear Flat", "lon": "-121.233333"}, {"lat": "56.2", "city": "Bear Lake", "lon": "-126.85"}, {"lat": "50.733333", "city": "Beaton", "lon": "-117.733333"}, {"lat": "51.516667", "city": "Beaver", "lon": "-117.416667"}, {"lat": "50.533333", "city": "Beaver Cove", "lon": "-126.866667"}, {"lat": "53.816667", "city": "Beaverley", "lon": "-122.866667"}, {"lat": "51.516667", "city": "Beavermouth", "lon": "-117.416667"}, {"lat": "53.866667", "city": "Bednesti", "lon": "-123.083333"}, {"lat": "52.15", "city": "Bella Bella", "lon": "-128.133333"}, {"lat": "52.366667", "city": "Bella Coola", "lon": "-126.75"}, {"lat": "52.366667", "city": "Bellakula", "lon": "-126.75"}, {"lat": "53.766667", "city": "Bend", "lon": "-121.066667"}, {"lat": "59.416667", "city": "Ben-My-Chree", "lon": "-134.466667"}, {"lat": "59.85", "city": "Bennett", "lon": "-134.983333"}, {"lat": "51.716667", "city": "Big Creek", "lon": "-123.016667"}, {"lat": "50.483333", "city": "Birken", "lon": "-122.6"}, {"lat": "52.3", "city": "Black Creek", "lon": "-121.116667"}, {"lat": "50.966667", "city": "Black Pines", "lon": "-120.25"}, {"lat": "51.583333", "city": "Black Pool", "lon": "-120.116667"}, {"lat": "51.433333", "city": "Blaeberry", "lon": "-117.05"}, {"lat": "50.416667", "city": "Blind Channel", "lon": "-125.516667"}, {"lat": "50.033333", "city": "Bliss Landing", "lon": "-124.816667"}, {"lat": "50.116667", "city": "Bloedel", "lon": "-125.366667"}, {"lat": "49.8", "city": "Blubber Bay", "lon": "-124.616667"}, {"lat": "51.1", "city": "Blucher Hall", "lon": "-120.016667"}, {"lat": "52.1", "city": "Blue River", "lon": "-119.3"}, {"lat": "49.483333", "city": "Boat Basin", "lon": "-126.4"}, {"lat": "50.183333", "city": "Bold Point", "lon": "-125.15"}, {"lat": "49.466667", "city": "Boswell", "lon": "-116.766667"}, {"lat": "56.683333", "city": "Boundary", "lon": "-131.816667"}, {"lat": "49.433333", "city": "Bowser", "lon": "-124.683333"}, {"lat": "49.766667", "city": "Brackendale", "lon": "-123.15"}, {"lat": "50.783333", "city": "Bralorne", "lon": "-122.816667"}, {"lat": "48.583333", "city": "Brentwood Bay", "lon": "-123.466667"}, {"lat": "51.483333", "city": "Bridge Lake", "lon": "-120.7"}, {"lat": "50.733333", "city": "Bridge River", "lon": "-122.233333"}, {"lat": "50.816667", "city": "Brisco", "lon": "-116.283333"}, {"lat": "49.633333", "city": "Britannia Beach", "lon": "-123.183333"}, {"lat": "55.233333", "city": "Bulkley Canyon", "lon": "-127.483333"}, {"lat": "49.466667", "city": "Bull River", "lon": "-115.45"}, {"lat": "49.25", "city": "Burnaby", "lon": "-122.95"}, {"lat": "54.216667", "city": "Burns Lake", "lon": "-125.766667"}, {"lat": "53.15", "city": "Butedale", "lon": "-128.683333"}, {"lat": "49.983333", "city": "Cachalot", "lon": "-127.15"}, {"lat": "50.8", "city": "Cache Creek", "lon": "-121.316667"}, {"lat": "52.166667", "city": "Campbell Island", "lon": "-128.133333"}, {"lat": "50.016667", "city": "Campbell River", "lon": "-125.25"}, {"lat": "50.15", "city": "Canal Flats", "lon": "-115.833333"}, {"lat": "51.766667", "city": "Canim Lake", "lon": "-120.9"}, {"lat": "55.2", "city": "Canyon City", "lon": "-129.216667"}, {"lat": "50.766667", "city": "Cape Scott", "lon": "-128.35"}, {"lat": "57.433333", "city": "Caribou Hide", "lon": "-127.55"}, {"lat": "49.5", "city": "Carmi", "lon": "-119.133333"}, {"lat": "55.15", "city": "Carnaby", "lon": "-127.75"}, {"lat": "49.016667", "city": "Cascade", "lon": "-118.216667"}, {"lat": "49.066667", "city": "Cassidy", "lon": "-123.866667"}, {"lat": "49.066667", "city": "Cassidy's", "lon": "-123.866667"}, {"lat": "49.066667", "city": "Cassidy Siding", "lon": "-123.866667"}, {"lat": "49.316667", "city": "Castlegar", "lon": "-117.666667"}, {"lat": "50.683333", "city": "Cayoosh Flat", "lon": "-121.933333"}, {"lat": "56.3", "city": "Cecil Lake", "lon": "-120.533333"}, {"lat": "55.016667", "city": "Cedarvale", "lon": "-128.333333"}, {"lat": "49.866667", "city": "Ceepeecee", "lon": "-126.7"}, {"lat": "49.833333", "city": "Centre Island", "lon": "-126.933333"}, {"lat": "59.266667", "city": "Centreville", "lon": "-129.416667"}, {"lat": "56.266667", "city": "Charlie Lake", "lon": "-120.95"}, {"lat": "50.816667", "city": "Chase", "lon": "-119.683333"}, {"lat": "59.15", "city": "Chee House", "lon": "-127.616667"}, {"lat": "48.916667", "city": "Chemainus", "lon": "-123.7"}, {"lat": "50.233333", "city": "Cherryville", "lon": "-118.616667"}, {"lat": "54.1", "city": "Chief Lake", "lon": "-123.016667"}, {"lat": "49.166667", "city": "Chilliwack", "lon": "-121.95"}, {"lat": "52.583333", "city": "China Hat", "lon": "-128.533333"}, {"lat": "50.316667", "city": "Church House", "lon": "-125.083333"}, {"lat": "57.666667", "city": "Chutine Landing", "lon": "-131.583333"}, {"lat": "53.183333", "city": "Cinema", "lon": "-122.516667"}, {"lat": "54.066667", "city": "Claxton", "lon": "-130.1"}, {"lat": "56.166667", "city": "Clayhurst", "lon": "-120.016667"}, {"lat": "49.15", "city": "Clayoquot", "lon": "-125.916667"}, {"lat": "51.65", "city": "Clearwater", "lon": "-120.033333"}, {"lat": "51.633333", "city": "Clearwater Station", "lon": "-120.033333"}, {"lat": "48.616667", "city": "Cliffside", "lon": "-123.633333"}, {"lat": "51.1", "city": "Clinton", "lon": "-121.6"}, {"lat": "48.65", "city": "Clo-oose", "lon": "-124.816667"}, {"lat": "49.1", "city": "Cloverdale", "lon": "-122.733333"}, {"lat": "49.483333", "city": "Coal Creek", "lon": "-114.983333"}, {"lat": "50.6", "city": "Coal Harbour", "lon": "-127.583333"}, {"lat": "48.683333", "city": "Cobble Hill", "lon": "-123.6"}, {"lat": "49.1", "city": "Colebrook", "lon": "-122.866667"}, {"lat": "54.033333", "city": "Colleymount", "lon": "-126.15"}, {"lat": "49.15", "city": "Colvilletown", "lon": "-123.916667"}, {"lat": "49.683333", "city": "Comax", "lon": "-124.933333"}, {"lat": "49.683333", "city": "Comox", "lon": "-124.933333"}, {"lat": "49.683333", "city": "Comuck", "lon": "-124.933333"}, {"lat": "54.533333", "city": "Copper City", "lon": "-128.483333"}, {"lat": "50.783333", "city": "Copper Creek", "lon": "-120.783333"}, {"lat": "49.316667", "city": "Copper Mountain", "lon": "-120.533333"}, {"lat": "54.533333", "city": "Copper River", "lon": "-128.483333"}, {"lat": "49.266667", "city": "Coquitlam", "lon": "-122.783333"}, {"lat": "49.516667", "city": "Corbin", "lon": "-114.65"}, {"lat": "50.066667", "city": "Cortes Bay", "lon": "-124.933333"}, {"lat": "53.05", "city": "Cottonwood", "lon": "-122.15"}, {"lat": "49.683333", "city": "Courtenay", "lon": "-125"}, {"lat": "48.733333", "city": "Cowichan Bay", "lon": "-123.616667"}, {"lat": "50.15", "city": "Coyle", "lon": "-120.883333"}, {"lat": "50.566667", "city": "Cracroft", "lon": "-126.266667"}, {"lat": "49.516667", "city": "Cranbrook", "lon": "-115.766667"}, {"lat": "49.433333", "city": "Crescent Valley", "lon": "-117.55"}, {"lat": "49.1", "city": "Creston", "lon": "-116.516667"}, {"lat": "51.033333", "city": "Criss Creek", "lon": "-120.733333"}, {"lat": "48.866667", "city": "Crofton", "lon": "-123.65"}, {"lat": "53.066667", "city": "Croydon Station", "lon": "-119.75"}, {"lat": "49.616667", "city": "Cumberland", "lon": "-125.016667"}, {"lat": "55.766667", "city": "Dawson Creek", "lon": "-120.233333"}, {"lat": "58.45", "city": "Dease Lake", "lon": "-130.033333"}, {"lat": "54.283333", "city": "Decker Lake", "lon": "-125.833333"}, {"lat": "58.9", "city": "Defot", "lon": "-130.433333"}, {"lat": "49.0192", "city": "Delta", "lon": "-123.0867"}, {"lat": "49.533333", "city": "Denman Island", "lon": "-124.816667"}, {"lat": "49.183333", "city": "Deroche", "lon": "-122.066667"}, {"lat": "56.016667", "city": "Doe River", "lon": "-120.083333"}, {"lat": "51.583333", "city": "Dog Creek", "lon": "-122.25"}, {"lat": "54.483333", "city": "Donald Landing", "lon": "-125.666667"}, {"lat": "54.85", "city": "Dorreen", "lon": "-128.333333"}, {"lat": "50.233333", "city": "Dot", "lon": "-121.1"}, {"lat": "54.95", "city": "Doughty", "lon": "-127.316667"}, {"lat": "50.15", "city": "Douglas Lake", "lon": "-120.183333"}, {"lat": "50.066667", "city": "Duncan Bay", "lon": "-125.283333"}, {"lat": "48.783333", "city": "Duncan", "lon": "-123.7"}, {"lat": "53.116667", "city": "Dunster", "lon": "-119.833333"}, {"lat": "49.35", "city": "Eagle Harbour", "lon": "-123.266667"}, {"lat": "49.866667", "city": "East Kelowna", "lon": "-119.4"}, {"lat": "55.716667", "city": "East Pine", "lon": "-121.183333"}, {"lat": "54.4", "city": "Ecstew", "lon": "-129.1"}, {"lat": "49.783333", "city": "Edgewood", "lon": "-118.133333"}, {"lat": "58.266667", "city": "Egnelle", "lon": "-131.8"}, {"lat": "58.266667", "city": "Egnell", "lon": "-131.8"}, {"lat": "58.266667", "city": "Egnell's", "lon": "-131.8"}, {"lat": "49.15", "city": "Eholt", "lon": "-118.566667"}, {"lat": "49.3", "city": "Elko", "lon": "-115.116667"}, {"lat": "54.083333", "city": "Endako", "lon": "-125.016667"}, {"lat": "50.55", "city": "Enderby", "lon": "-119.133333"}, {"lat": "54.016667", "city": "Engen", "lon": "-124.283333"}, {"lat": "59.5", "city": "Engineer", "lon": "-134.25"}, {"lat": "50.55", "city": "Englewood", "lon": "-126.883333"}, {"lat": "48.433333", "city": "Esquimalt", "lon": "-123.416667"}, {"lat": "54.883333", "city": "Evelyn", "lon": "-127.266667"}, {"lat": "54.4", "city": "Exstew", "lon": "-129.1"}, {"lat": "49.1", "city": "Extension", "lon": "-123.966667"}, {"lat": "50.316667", "city": "Fairmont Hot Springs", "lon": "-115.866667"}, {"lat": "50.066667", "city": "Falls Creek", "lon": "-121.55"}, {"lat": "49.483333", "city": "False Bay", "lon": "-124.35"}, {"lat": "56.183333", "city": "Farrell Creek", "lon": "-121.583333"}, {"lat": "49.883333", "city": "Fauquier", "lon": "-118.083333"}, {"lat": "55.6", "city": "Fellers Heights", "lon": "-120.55"}, {"lat": "50.683333", "city": "Ferguson", "lon": "-117.483333"}, {"lat": "49.5", "city": "Fernie", "lon": "-115.066667"}, {"lat": "51.4", "city": "Field", "lon": "-116.483333"}, {"lat": "55.983333", "city": "Finlay", "lon": "-123.833333"}, {"lat": "55.983333", "city": "Finlay Forks", "lon": "-123.833333"}, {"lat": "55.983333", "city": "Finlay Junction", "lon": "-123.833333"}, {"lat": "53.983333", "city": "Finmoore", "lon": "-123.6"}, {"lat": "52.433333", "city": "Firvale", "lon": "-126.233333"}, {"lat": "49.35", "city": "Fishermans Cove", "lon": "-123.283333"}, {"lat": "49.066667", "city": "Flagstone", "lon": "-115.183333"}, {"lat": "50.116667", "city": "Foch", "lon": "-124.516667"}, {"lat": "58.283333", "city": "Fontas", "lon": "-121.716667"}, {"lat": "54.416667", "city": "Forestdale", "lon": "-126.2"}, {"lat": "55.316667", "city": "Fort Babine", "lon": "-126.616667"}, {"lat": "56.2", "city": "Fort Connelly", "lon": "-126.85"}, {"lat": "54.05", "city": "Fort Fraser", "lon": "-124.533333"}, {"lat": "56.6", "city": "Fort Grahame", "lon": "-124.633333"}, {"lat": "56.6", "city": "Fort Graham", "lon": "-124.633333"}, {"lat": "59.55", "city": "Fort Halkett", "lon": "-126.483333"}, {"lat": "54.433333", "city": "Fort James", "lon": "-124.25"}, {"lat": "55", "city": "Fort McLeod", "lon": "-123.033333"}, {"lat": "58.816667", "city": "Fort Nelson", "lon": "-122.533333"}, {"lat": "54.433333", "city": "Fort Saint James", "lon": "-124.25"}, {"lat": "56.25", "city": "Fort Saint John", "lon": "-120.833333"}, {"lat": "49.616667", "city": "Fort Steele", "lon": "-115.633333"}, {"lat": "57.416667", "city": "Fort Ware", "lon": "-125.616667"}, {"lat": "56.833333", "city": "Fowler", "lon": "-131.766667"}, {"lat": "59.716667", "city": "Fraser", "lon": "-135.05"}, {"lat": "54.05", "city": "Fraser Lake", "lon": "-124.783333"}, {"lat": "49.116667", "city": "Fruitvale", "lon": "-117.55"}, {"lat": "48.783333", "city": "Fulford", "lon": "-123.483333"}, {"lat": "48.783333", "city": "Fulford Harbour", "lon": "-123.483333"}, {"lat": "54.816667", "city": "Fulton River", "lon": "-126.133333"}, {"lat": "49.183333", "city": "Gabriola", "lon": "-123.85"}, {"lat": "59.533333", "city": "Galbraith", "lon": "-132.083333"}, {"lat": "50.9", "city": "Galena", "lon": "-116.366667"}, {"lat": "48.85", "city": "Ganges", "lon": "-123.516667"}, {"lat": "51.55", "city": "Gang Ranch", "lon": "-122.316667"}, {"lat": "49.966667", "city": "Garibaldi", "lon": "-123.15"}, {"lat": "55.783333", "city": "Germansen Landing", "lon": "-124.7"}, {"lat": "50.516667", "city": "Gerrard", "lon": "-117.283333"}, {"lat": "49.4", "city": "Gibsons", "lon": "-123.5"}, {"lat": "49.4", "city": "Gibson's Landing", "lon": "-123.5"}, {"lat": "55.2", "city": "Gitwinksihlkw", "lon": "-129.216667"}, {"lat": "51.266667", "city": "Glacier", "lon": "-117.516667"}, {"lat": "50.683333", "city": "Glendale Cove", "lon": "-125.7"}, {"lat": "57.833333", "city": "Glenora", "lon": "-131.4"}, {"lat": "53.533333", "city": "Goat River", "lon": "-120.583333"}, {"lat": "56.083333", "city": "Gold Bar", "lon": "-122.75"}, {"lat": "50.85", "city": "Gold Bridge", "lon": "-122.85"}, {"lat": "51.3", "city": "Golden", "lon": "-116.966667"}, {"lat": "48.45", "city": "Goldstream", "lon": "-123.533333"}, {"lat": "48.45", "city": "Goldstream Station", "lon": "-123.533333"}, {"lat": "49.05", "city": "Grand Forks", "lon": "-118.466667"}, {"lat": "50.233333", "city": "Granite Bay", "lon": "-125.283333"}, {"lat": "49.416667", "city": "Granthams Landing", "lon": "-123.5"}, {"lat": "53.95", "city": "Grassy Plains", "lon": "-125.883333"}, {"lat": "49.616667", "city": "Gray Creek", "lon": "-116.8"}, {"lat": "49.316667", "city": "Great Central", "lon": "-124.983333"}, {"lat": "50.883333", "city": "Greenslide", "lon": "-118.1"}, {"lat": "49.133333", "city": "Greenwood", "lon": "-118.683333"}, {"lat": "50.633333", "city": "Grindrod", "lon": "-119.116667"}, {"lat": "55.783333", "city": "Groundbirch", "lon": "-120.916667"}, {"lat": "52.383333", "city": "Hagensborg", "lon": "-126.566667"}, {"lat": "53.333333", "city": "Haida", "lon": "-131.95"}, {"lat": "50.516667", "city": "Halcyon", "lon": "-117.9"}, {"lat": "50.516667", "city": "Halcyon Hot Springs", "lon": "-117.9"}, {"lat": "59.6", "city": "Hale", "lon": "-134.3"}, {"lat": "49.516667", "city": "Halfmoon Bay", "lon": "-123.916667"}, {"lat": "51.916667", "city": "Hanceville", "lon": "-123.033333"}, {"lat": "49.133333", "city": "Harmac", "lon": "-123.85"}, {"lat": "53.433333", "city": "Hartley Bay", "lon": "-129.266667"}, {"lat": "54.183333", "city": "Haysport", "lon": "-130.016667"}, {"lat": "55.25", "city": "Hazelton", "lon": "-127.666667"}, {"lat": "49.766667", "city": "Headquarters", "lon": "-125.1"}, {"lat": "49.85", "city": "Hecate", "lon": "-126.75"}, {"lat": "49.35", "city": "Hedley", "lon": "-120.083333"}, {"lat": "49.3", "city": "Hillier", "lon": "-124.483333"}, {"lat": "49.3", "city": "Hilliers", "lon": "-124.483333"}, {"lat": "53.4", "city": "Hixon", "lon": "-122.566667"}, {"lat": "50.65", "city": "Holberg", "lon": "-128.016667"}, {"lat": "49.333333", "city": "Hollyburn", "lon": "-123.166667"}, {"lat": "49.383333", "city": "Hope", "lon": "-121.433333"}, {"lat": "49.433333", "city": "Hopkins Landing", "lon": "-123.483333"}, {"lat": "52.333333", "city": "Horsefly", "lon": "-121.416667"}, {"lat": "48.916667", "city": "Horse Shoe", "lon": "-123.7"}, {"lat": "49.583333", "city": "Hosmer", "lon": "-114.966667"}, {"lat": "54.4", "city": "Houston", "lon": "-126.65"}, {"lat": "50.316667", "city": "Howser", "lon": "-116.95"}, {"lat": "56.033333", "city": "Hudson Hope", "lon": "-121.916667"}, {"lat": "54.066667", "city": "Hunts Inlet", "lon": "-130.45"}, {"lat": "53.983333", "city": "Hutton", "lon": "-121.616667"}, {"lat": "52.616667", "city": "Hydraulic", "lon": "-121.7"}, {"lat": "57.65", "city": "Hyland Post", "lon": "-128.2"}, {"lat": "57.65", "city": "Hylands Post", "lon": "-128.2"}, {"lat": "58.9", "city": "Inklin", "lon": "-133.133333"}, {"lat": "50.5", "city": "Invermere", "lon": "-116.033333"}, {"lat": "49.3", "city": "Ioco", "lon": "-122.866667"}, {"lat": "49.616667", "city": "Irvines Landing", "lon": "-124.033333"}, {"lat": "53.95", "city": "Isle Pierre", "lon": "-123.266667"}, {"lat": "52.05", "city": "Isnardy", "lon": "-122.266667"}, {"lat": "50.516667", "city": "Jackson Bay", "lon": "-125.75"}, {"lat": "57.616667", "city": "Jacksons Landing", "lon": "-131.683333"}, {"lat": "54.066667", "city": "Jap Inlet", "lon": "-130.45"}, {"lat": "52.3", "city": "Jedway", "lon": "-131.216667"}, {"lat": "50.433333", "city": "Jeune Landing", "lon": "-127.483333"}, {"lat": "49.183333", "city": "Kakawis", "lon": "-125.916667"}, {"lat": "50.666667", "city": "Kamloops", "lon": "-120.333333"}, {"lat": "49.91", "city": "Kaslo", "lon": "-116.92"}, {"lat": "52.75", "city": "Keithley Creek", "lon": "-121.416667"}, {"lat": "51.016667", "city": "Kelly Lake", "lon": "-121.783333"}, {"lat": "49.9", "city": "Kelowna", "lon": "-119.483333"}, {"lat": "50.4", "city": "Kelsey Bay", "lon": "-125.966667"}, {"lat": "49.2", "city": "Keremeos", "lon": "-119.816667"}, {"lat": "49.016667", "city": "Kildonan", "lon": "-125"}, {"lat": "49.683333", "city": "Kimberley", "lon": "-115.983333"}, {"lat": "49.683333", "city": "Kimberly", "lon": "-115.983333"}, {"lat": "55", "city": "Kincolith", "lon": "-129.95"}, {"lat": "50.95", "city": "Kingcome Inlet", "lon": "-126.2"}, {"lat": "49.283333", "city": "Kinnaird", "lon": "-117.65"}, {"lat": "50.683333", "city": "Kiokh", "lon": "-125.7"}, {"lat": "55.7", "city": "Kisgegas", "lon": "-127.566667"}, {"lat": "55.35", "city": "Kispiox", "lon": "-127.683333"}, {"lat": "54", "city": "Kitamaat", "lon": "-128.7"}, {"lat": "49.15", "city": "Kitchener", "lon": "-116.333333"}, {"lat": "49.15", "city": "Kitchener McConnel", "lon": "-116.333333"}, {"lat": "54", "city": "Kitimat", "lon": "-128.7"}, {"lat": "53.966667", "city": "Kitimat Mission", "lon": "-128.65"}, {"lat": "55.1", "city": "Kitwanga", "lon": "-128.066667"}, {"lat": "51.966667", "city": "Kleena Kleene", "lon": "-124.983333"}, {"lat": "52.583333", "city": "Klemtoo", "lon": "-128.533333"}, {"lat": "52.583333", "city": "Klemtu", "lon": "-128.533333"}, {"lat": "50.683333", "city": "Knight Inlet", "lon": "-125.7"}, {"lat": "49.683333", "city": "Komoux", "lon": "-124.933333"}, {"lat": "49.25", "city": "Kootenay Junction", "lon": "-116.683333"}, {"lat": "49.25", "city": "Kootenay Landing", "lon": "-116.683333"}, {"lat": "55.933333", "city": "Kuldo", "lon": "-127.883333"}, {"lat": "49.083333", "city": "Ladner", "lon": "-123.083333"}, {"lat": "48.983333", "city": "Ladysmith", "lon": "-123.816667"}, {"lat": "48.816667", "city": "Lake Cowichan", "lon": "-124.033333"}, {"lat": "54.366667", "city": "Lakelse", "lon": "-128.55"}, {"lat": "58.7", "city": "Laketon", "lon": "-130.1"}, {"lat": "50.466667", "city": "Lake Windermere", "lon": "-115.966667"}, {"lat": "47.783333", "city": "Lam\u00e8que", "lon": "-64.633333"}, {"lat": "48.45", "city": "Langford Station", "lon": "-123.5"}, {"lat": "49.1", "city": "Langley", "lon": "-122.65"}, {"lat": "50.15", "city": "Lardeau", "lon": "-116.983333"}, {"lat": "50.15", "city": "Lardo", "lon": "-116.983333"}, {"lat": "49.483333", "city": "Lasqueti", "lon": "-124.35"}, {"lat": "53.4", "city": "Lawnhill", "lon": "-131.916667"}, {"lat": "53.4", "city": "Lawn Hill Post Office", "lon": "-131.916667"}, {"lat": "51.216667", "city": "Leanchoil", "lon": "-116.616667"}, {"lat": "59.916667", "city": "Lemieux", "lon": "-133.116667"}, {"lat": "52.45", "city": "Lempriere", "lon": "-119.133333"}, {"lat": "50.433333", "city": "Leon", "lon": "-117.9"}, {"lat": "50.683333", "city": "Lillooet", "lon": "-121.933333"}, {"lat": "53.883333", "city": "Lily Lake", "lon": "-124.566667"}, {"lat": "51.433333", "city": "Little Fort", "lon": "-120.2"}, {"lat": "55.7", "city": "Little Prairie", "lon": "-121.616667"}, {"lat": "52.716667", "city": "Lockeport", "lon": "-131.833333"}, {"lat": "50.48", "city": "Logan Lake", "lon": "-120.81"}, {"lat": "59.85", "city": "Log Cabin", "lon": "-134.983333"}, {"lat": "53.933333", "city": "Longworth", "lon": "-121.466667"}, {"lat": "53.6", "city": "Loos", "lon": "-120.716667"}, {"lat": "50.15", "city": "Lower Nicola", "lon": "-120.883333"}, {"lat": "59.916667", "city": "Lower Post", "lon": "-128.5"}, {"lat": "52.866667", "city": "Lucerne", "lon": "-118.55"}, {"lat": "50.25", "city": "Lumby", "lon": "-118.966667"}, {"lat": "49.983333", "city": "Lund", "lon": "-124.766667"}, {"lat": "49.35", "city": "Lynn Creek", "lon": "-123.033333"}, {"lat": "50.233333", "city": "Lytton", "lon": "-121.566667"}, {"lat": "50.383333", "city": "Mabel Lake", "lon": "-118.783333"}, {"lat": "52.45", "city": "Macalister", "lon": "-122.416667"}, {"lat": "55.33", "city": "Mackenzie", "lon": "-123.09"}, {"lat": "48.533333", "city": "Malahat", "lon": "-123.55"}, {"lat": "50.933333", "city": "Malakwa", "lon": "-118.783333"}, {"lat": "50.416667", "city": "Mamette Lake", "lon": "-120.816667"}, {"lat": "55.666667", "city": "Manson Creek", "lon": "-124.5"}, {"lat": "50.066667", "city": "Mansons Landing", "lon": "-124.983333"}, {"lat": "53.866667", "city": "Mapes", "lon": "-123.9"}, {"lat": "49.25", "city": "Maple Ridge", "lon": "-122.5"}, {"lat": "51.316667", "city": "Margaret Bay", "lon": "-127.5"}, {"lat": "53.683333", "city": "Marilla", "lon": "-125.833333"}, {"lat": "49.633333", "city": "Marysville", "lon": "-115.95"}, {"lat": "54.016667", "city": "Masset", "lon": "-132.15"}, {"lat": "54.016667", "city": "Massett", "lon": "-132.15"}, {"lat": "48.85", "city": "Mayne", "lon": "-123.3"}, {"lat": "49.716667", "city": "Mazama", "lon": "-120.133333"}, {"lat": "53.3", "city": "McBride", "lon": "-120.166667"}, {"lat": "56.883333", "city": "McConnell Creek", "lon": "-126.5"}, {"lat": "49.15", "city": "McConnel", "lon": "-116.333333"}, {"lat": "59.183333", "city": "McDame Creek", "lon": "-129.233333"}, {"lat": "59.183333", "city": "McDame", "lon": "-129.233333"}, {"lat": "59.183333", "city": "McDames Creek", "lon": "-129.233333"}, {"lat": "50.616667", "city": "McGillivray Falls", "lon": "-122.433333"}, {"lat": "50.616667", "city": "McGillivray", "lon": "-122.433333"}, {"lat": "55", "city": "McLeod Lake", "lon": "-123.033333"}, {"lat": "51.15", "city": "McMurdo", "lon": "-116.766667"}, {"lat": "51.666667", "city": "McMurphy", "lon": "-119.516667"}, {"lat": "50.116667", "city": "Merrit", "lon": "-120.783333"}, {"lat": "50.116667", "city": "Merritt", "lon": "-120.783333"}, {"lat": "49.783333", "city": "Merville", "lon": "-125.066667"}, {"lat": "48.366667", "city": "Metchosin", "lon": "-123.533333"}, {"lat": "54.333333", "city": "Methlakahtla", "lon": "-130.45"}, {"lat": "54.333333", "city": "Metla Catlah", "lon": "-130.45"}, {"lat": "54.333333", "city": "Metla Catla", "lon": "-130.45"}, {"lat": "54.333333", "city": "Metlah Catlah", "lon": "-130.45"}, {"lat": "54.333333", "city": "Metla-Kathla", "lon": "-130.45"}, {"lat": "54.333333", "city": "Metlakatla", "lon": "-130.45"}, {"lat": "54.866667", "city": "Middle River Village", "lon": "-125.133333"}, {"lat": "49.016667", "city": "Midway", "lon": "-118.783333"}, {"lat": "50.616667", "city": "Minstrel Island", "lon": "-126.316667"}, {"lat": "52.266667", "city": "Miocene", "lon": "-121.683333"}, {"lat": "49.133333", "city": "Mission City", "lon": "-122.3"}, {"lat": "49.133333", "city": "Mission", "lon": "-122.3"}, {"lat": "55.833333", "city": "Moberly Lake", "lon": "-121.733333"}, {"lat": "50.866667", "city": "Moha", "lon": "-122.183333"}, {"lat": "50.65", "city": "Monte Creek", "lon": "-119.95"}, {"lat": "56.45", "city": "Montney", "lon": "-120.916667"}, {"lat": "49.283333", "city": "Mooyie", "lon": "-115.833333"}, {"lat": "55.033333", "city": "Moricetown", "lon": "-127.333333"}, {"lat": "55.033333", "city": "Morricetown", "lon": "-127.333333"}, {"lat": "50.883333", "city": "Mount Cartier", "lon": "-118.1"}, {"lat": "53.016667", "city": "Mount Robson", "lon": "-119.233333"}, {"lat": "49.283333", "city": "Moyie", "lon": "-115.833333"}, {"lat": "53.766667", "city": "Mud River", "lon": "-123.05"}, {"lat": "56.533333", "city": "Murdale", "lon": "-121"}, {"lat": "58.8", "city": "Muskwa", "lon": "-122.666667"}, {"lat": "53.966667", "city": "Nadina River", "lon": "-126.516667"}, {"lat": "53.85", "city": "Nadu", "lon": "-132.116667"}, {"lat": "53.85", "city": "Nadu River", "lon": "-132.116667"}, {"lat": "58.883333", "city": "Nahlin", "lon": "-131.75"}, {"lat": "59.2", "city": "Nakina", "lon": "-132.8"}, {"lat": "50.233333", "city": "Nakusp", "lon": "-117.8"}, {"lat": "51.866667", "city": "Namu", "lon": "-127.866667"}, {"lat": "49.15", "city": "Nanaimo", "lon": "-123.916667"}, {"lat": "54.6", "city": "Nancut", "lon": "-125.083333"}, {"lat": "49.25", "city": "Nanoose Bay", "lon": "-124.183333"}, {"lat": "49.15", "city": "Nanymo", "lon": "-123.916667"}, {"lat": "54.933333", "city": "Nass Harbour", "lon": "-129.933333"}, {"lat": "49.733333", "city": "Natal", "lon": "-114.85"}, {"lat": "53", "city": "Nazko", "lon": "-123.616667"}, {"lat": "53.916667", "city": "Nechacco", "lon": "-124.166667"}, {"lat": "49.883333", "city": "Needles", "lon": "-118.116667"}, {"lat": "59.483333", "city": "Nelson Forks", "lon": "-124.016667"}, {"lat": "49.483333", "city": "Nelson", "lon": "-117.283333"}, {"lat": "52.166667", "city": "New Bella Bella", "lon": "-128.133333"}, {"lat": "49.983333", "city": "New Denver", "lon": "-117.366667"}, {"lat": "49", "city": "Newgate", "lon": "-115.166667"}, {"lat": "55.25", "city": "New Hazelton", "lon": "-127.583333"}, {"lat": "55.25", "city": "New Hazelton Station", "lon": "-127.583333"}, {"lat": "54.116667", "city": "Newlands Station", "lon": "-122.216667"}, {"lat": "49.216667", "city": "New Westminster", "lon": "-122.916667"}, {"lat": "57.133333", "city": "Nig Creek", "lon": "-121.3"}, {"lat": "53.983333", "city": "Nithi River", "lon": "-124.966667"}, {"lat": "55.1", "city": "Nitwanga", "lon": "-128.066667"}, {"lat": "50.366667", "city": "Nodales", "lon": "-125.316667"}, {"lat": "49.6", "city": "Nootka", "lon": "-126.633333"}, {"lat": "53.983333", "city": "Noralee", "lon": "-126.433333"}, {"lat": "49.883333", "city": "North Bend", "lon": "-121.466667"}, {"lat": "49.25", "city": "North Burnaby", "lon": "-122.95"}, {"lat": "50.683333", "city": "North Kamloops", "lon": "-120.366667"}, {"lat": "56.433333", "city": "North Pine", "lon": "-120.783333"}, {"lat": "48.70", "city": "North Saanich", "lon": "-123.45"}, {"lat": "49.2", "city": "North Surrey", "lon": "-122.85"}, {"lat": "49.316667", "city": "North Vancouver", "lon": "-123.066667"}, {"lat": "48.433333", "city": "Oak Bay", "lon": "-123.316667"}, {"lat": "50.916667", "city": "O'Brian Bay", "lon": "-126.866667"}, {"lat": "52.35", "city": "Ocean Falls", "lon": "-127.7"}, {"lat": "52.233333", "city": "Ochiltree", "lon": "-121.8"}, {"lat": "50.233333", "city": "Okanagan Landing", "lon": "-119.366667"}, {"lat": "50.366667", "city": "Okanagan", "lon": "-119.35"}, {"lat": "50.366667", "city": "Okanogan", "lon": "-119.35"}, {"lat": "55.05", "city": "Old Fort", "lon": "-126.316667"}, {"lat": "55.766667", "city": "Old Hogem", "lon": "-125.95"}, {"lat": "49.183333", "city": "Oliver", "lon": "-119.55"}, {"lat": "52.116667", "city": "One Hundred Fifty Mile House", "lon": "-121.933333"}, {"lat": "51.65", "city": "One Hundred Mile House", "lon": "-121.283333"}, {"lat": "53.95", "city": "Oona River", "lon": "-130.25"}, {"lat": "49.283333", "city": "Ootischenia", "lon": "-117.616667"}, {"lat": "53.783333", "city": "Ootsa Lake", "lon": "-126.033333"}, {"lat": "54.133333", "city": "Osland", "lon": "-130.166667"}, {"lat": "49.033333", "city": "Osoyoos", "lon": "-119.466667"}, {"lat": "50.116667", "city": "Oyama", "lon": "-119.383333"}, {"lat": "54.766667", "city": "Pacific", "lon": "-128.283333"}, {"lat": "52.85", "city": "Pacofi", "lon": "-131.883333"}, {"lat": "54.35", "city": "Palling", "lon": "-125.916667"}, {"lat": "49.3", "city": "Parksville", "lon": "-124.316667"}, {"lat": "51.066667", "city": "Parson", "lon": "-116.65"}, {"lat": "50.866667", "city": "Pavilion", "lon": "-121.833333"}, {"lat": "49.766667", "city": "Peachland", "lon": "-119.75"}, {"lat": "50.416667", "city": "Pemberton Meadows", "lon": "-122.916667"}, {"lat": "50.316667", "city": "Pemberton", "lon": "-122.816667"}, {"lat": "59.966667", "city": "Pennington", "lon": "-134.9"}, {"lat": "53.833333", "city": "Penny", "lon": "-121.266667"}, {"lat": "49.5", "city": "Penticton", "lon": "-119.583333"}, {"lat": "54.516667", "city": "Perow", "lon": "-126.433333"}, {"lat": "59.333333", "city": "Pike", "lon": "-133.616667"}, {"lat": "50.733333", "city": "Pinantan", "lon": "-119.966667"}, {"lat": "54.566667", "city": "Pinchi", "lon": "-124.483333"}, {"lat": "56.016667", "city": "Pine Valley", "lon": "-120.616667"}, {"lat": "49.233333", "city": "Pitt Meadows", "lon": "-122.683333"}, {"lat": "50.416667", "city": "Poplar Creek", "lon": "-117.133333"}, {"lat": "49.233333", "city": "Port Alberni", "lon": "-124.8"}, {"lat": "50.383333", "city": "Port Alice", "lon": "-127.433333"}, {"lat": "53.033333", "city": "Port Belmont", "lon": "-128.9"}, {"lat": "53.683333", "city": "Port Clements", "lon": "-132.166667"}, {"lat": "49.266667", "city": "Port Coquitlam", "lon": "-122.783333"}, {"lat": "54.233333", "city": "Port Edward", "lon": "-130.283333"}, {"lat": "58.8", "city": "Porter Landing", "lon": "-130.1"}, {"lat": "58.8", "city": "Porter", "lon": "-130.1"}, {"lat": "58.8", "city": "Porter's", "lon": "-130.1"}, {"lat": "54.15", "city": "Port Essington", "lon": "-129.95"}, {"lat": "50.716667", "city": "Port Hardy", "lon": "-127.5"}, {"lat": "49.216667", "city": "Port Mann", "lon": "-122.816667"}, {"lat": "50.583333", "city": "Port McNeill", "lon": "-127.1"}, {"lat": "49.516667", "city": "Port Mellon", "lon": "-123.483333"}, {"lat": "49.283333", "city": "Port Moody", "lon": "-122.85"}, {"lat": "50.483333", "city": "Port Neville", "lon": "-126.083333"}, {"lat": "50.916667", "city": "Port Progress", "lon": "-127.283333"}, {"lat": "48.55", "city": "Port Renfrew", "lon": "-124.416667"}, {"lat": "54.55", "city": "Port Simpson", "lon": "-130.416667"}, {"lat": "55.716667", "city": "Pouce Coup\u00e9", "lon": "-120.133333"}, {"lat": "49.883333", "city": "Powell River", "lon": "-124.55"}, {"lat": "56.05", "city": "Premier", "lon": "-130.016667"}, {"lat": "53.916667", "city": "Prince George", "lon": "-122.766667"}, {"lat": "54.316667", "city": "Prince Rupert", "lon": "-130.333333"}, {"lat": "49.45", "city": "Princeton", "lon": "-120.5"}, {"lat": "50.683333", "city": "Pritchard", "lon": "-119.816667"}, {"lat": "49.616667", "city": "Procter", "lon": "-116.95"}, {"lat": "49.616667", "city": "Proctor", "lon": "-116.95"}, {"lat": "51.55", "city": "Provincial Cannery", "lon": "-127.616667"}, {"lat": "53.45", "city": "Punchaw", "lon": "-123.216667"}, {"lat": "49.35", "city": "Qualicum Beach", "lon": "-124.45"}, {"lat": "50.05", "city": "Quathiaski Cove", "lon": "-125.183333"}, {"lat": "50.533333", "city": "Quatsino", "lon": "-127.6"}, {"lat": "53.25", "city": "Queen Charlotte", "lon": "-132.083333"}, {"lat": "52.983333", "city": "Quesnel", "lon": "-122.483333"}, {"lat": "50.15", "city": "Quilchena", "lon": "-120.5"}, {"lat": "49.983333", "city": "Quinsam", "lon": "-125.433333"}, {"lat": "50.616667", "city": "Radium Hot Springs", "lon": "-116.1"}, {"lat": "50.183333", "city": "Read Island", "lon": "-125.083333"}, {"lat": "50.25", "city": "Redonda Bay", "lon": "-124.966667"}, {"lat": "52.983333", "city": "Red Pass Junction", "lon": "-119.516667"}, {"lat": "52.983333", "city": "Red Pass", "lon": "-119.516667"}, {"lat": "53.666667", "city": "Red Rock", "lon": "-122.65"}, {"lat": "49.5", "city": "Redroofs", "lon": "-123.916667"}, {"lat": "52.133333", "city": "Redstone", "lon": "-123.7"}, {"lat": "54.016667", "city": "Refuge Bay", "lon": "-130.6"}, {"lat": "50.116667", "city": "Refuge Cove", "lon": "-124.85"}, {"lat": "51", "city": "Revelstoke", "lon": "-118.183333"}, {"lat": "50.85", "city": "Rexmount", "lon": "-122.433333"}, {"lat": "49.166667", "city": "Richmond", "lon": "-122.966667"}, {"lat": "49.766667", "city": "Riondel", "lon": "-116.85"}, {"lat": "51.966667", "city": "Riske Creek", "lon": "-122.516667"}, {"lat": "51.683333", "city": "Rivers Inlet", "lon": "-127.25"}, {"lat": "49.416667", "city": "Roberts Creek", "lon": "-123.616667"}, {"lat": "50.333333", "city": "Rock Bay", "lon": "-125.483333"}, {"lat": "49.066667", "city": "Rock Creek", "lon": "-118.983333"}, {"lat": "48.316667", "city": "Rocky Point", "lon": "-123.55"}, {"lat": "51.483333", "city": "Rogers", "lon": "-117.483333"}, {"lat": "56.1", "city": "Rolla Landing", "lon": "-120.116667"}, {"lat": "55.9", "city": "Rolla", "lon": "-120.133333"}, {"lat": "49.20", "city": "Rosedale", "lon": "-121.74"}, {"lat": "52.15", "city": "Rose Harbour", "lon": "-131.083333"}, {"lat": "54.4", "city": "Rose Lake", "lon": "-126.033333"}, {"lat": "56.516667", "city": "Rose Prairie", "lon": "-120.783333"}, {"lat": "49.083333", "city": "Rossland", "lon": "-117.816667"}, {"lat": "54.816667", "city": "Rosswood", "lon": "-128.766667"}, {"lat": "50.516667", "city": "Roy", "lon": "-125.533333"}, {"lat": "48.59", "city": "Saanichton", "lon": "-123.42"}, {"lat": "50.433333", "city": "Saint Leon", "lon": "-117.9"}, {"lat": "50.7", "city": "Salmon Arm", "lon": "-119.283333"}, {"lat": "54.083333", "city": "Salmon Valley", "lon": "-122.683333"}, {"lat": "49.2", "city": "Salmo", "lon": "-117.283333"}, {"lat": "53.25", "city": "Sandspit", "lon": "-131.833333"}, {"lat": "50.683333", "city": "San Josef Bay", "lon": "-128.266667"}, {"lat": "50.666667", "city": "San Josef", "lon": "-128.083333"}, {"lat": "50.683333", "city": "San Joseph Bay", "lon": "-128.266667"}, {"lat": "48.383333", "city": "Saseenos", "lon": "-123.683333"}, {"lat": "48.383333", "city": "Saseenos Station", "lon": "-123.683333"}, {"lat": "50.75", "city": "Savona", "lon": "-120.85"}, {"lat": "54.1", "city": "Savory", "lon": "-125.166667"}, {"lat": "50.35", "city": "Sayward", "lon": "-125.916667"}, {"lat": "59.6", "city": "Scotia Bay", "lon": "-133.816667"}, {"lat": "55.1", "city": "Seaton", "lon": "-127.366667"}, {"lat": "49.466667", "city": "Sechelt", "lon": "-123.766667"}, {"lat": "49.466667", "city": "Seechelt", "lon": "-123.766667"}, {"lat": "50.7", "city": "Seton Lake", "lon": "-122.3"}, {"lat": "50.7", "city": "Seton Portage", "lon": "-122.3"}, {"lat": "51.3", "city": "Seventy Mile", "lon": "-121.4"}, {"lat": "51.233333", "city": "Seymour Arm", "lon": "-118.95"}, {"lat": "50.733333", "city": "Shalalth", "lon": "-122.233333"}, {"lat": "56.066667", "city": "Shearer Dale", "lon": "-120.083333"}, {"lat": "54.166667", "city": "Sheraton", "lon": "-125.483333"}, {"lat": "53.016667", "city": "Shere", "lon": "-119.583333"}, {"lat": "58.266667", "city": "Sheslay", "lon": "-131.8"}, {"lat": "50.45", "city": "Shoal Bay", "lon": "-125.366667"}, {"lat": "49.9", "city": "Shookumchuk", "lon": "-115.766667"}, {"lat": "49.433333", "city": "Shoreacres", "lon": "-117.533333"}, {"lat": "50.85", "city": "Shushartie", "lon": "-127.85"}, {"lat": "50.833333", "city": "Sicamous", "lon": "-119"}, {"lat": "49.366667", "city": "Sidney Inlet", "lon": "-126.25"}, {"lat": "48.65", "city": "Sidney", "lon": "-123.416667"}, {"lat": "50.75", "city": "Simoom Sound", "lon": "-126.483333"}, {"lat": "50.75", "city": "Simoon Sound", "lon": "-126.483333"}, {"lat": "49.25", "city": "Sirdad Junction", "lon": "-116.616667"}, {"lat": "49.25", "city": "Sirdar", "lon": "-116.616667"}, {"lat": "51.483333", "city": "Six Mile Creek", "lon": "-117.483333"}, {"lat": "54.25", "city": "Skeena", "lon": "-129.833333"}, {"lat": "53.25", "city": "Skidegate", "lon": "-132"}, {"lat": "49.9", "city": "Skookumchuck", "lon": "-115.766667"}, {"lat": "49.766667", "city": "Slocan", "lon": "-117.466667"}, {"lat": "54.766667", "city": "Smithers", "lon": "-127.166667"}, {"lat": "59.033333", "city": "Snake River", "lon": "-122.433333"}, {"lat": "52.333333", "city": "Soda Creek", "lon": "-122.283333"}, {"lat": "50.633333", "city": "Sointula", "lon": "-127.016667"}, {"lat": "48.383333", "city": "Sooke", "lon": "-123.733333"}, {"lat": "50.866667", "city": "Sorrento", "lon": "-119.466667"}, {"lat": "54.016667", "city": "Southbank", "lon": "-125.766667"}, {"lat": "50.416667", "city": "Spences Bridge", "lon": "-121.35"}, {"lat": "50.9", "city": "Spillimacheen", "lon": "-116.366667"}, {"lat": "51.916667", "city": "Springhouse", "lon": "-122.1"}, {"lat": "49.7", "city": "Squamish", "lon": "-123.15"}, {"lat": "59.983333", "city": "Squaw Creek", "lon": "-137.116667"}, {"lat": "50.866667", "city": "Squilax", "lon": "-119.583333"}, {"lat": "49.616667", "city": "Steele", "lon": "-115.633333"}, {"lat": "51.45", "city": "Stephen", "lon": "-116.3"}, {"lat": "49.133333", "city": "Steveston", "lon": "-123.183333"}, {"lat": "55.933333", "city": "Stewart", "lon": "-130"}, {"lat": "49.766667", "city": "Stillwater", "lon": "-124.316667"}, {"lat": "53.35", "city": "Strathnaver", "lon": "-122.533333"}, {"lat": "53.8", "city": "Streatham", "lon": "-126.166667"}, {"lat": "50.366667", "city": "Stuart Island", "lon": "-125.15"}, {"lat": "54.6", "city": "Stuart Portage", "lon": "-125.083333"}, {"lat": "52.366667", "city": "Stuie", "lon": "-126.1"}, {"lat": "48.883333", "city": "Sturdies Bay", "lon": "-123.316667"}, {"lat": "50.916667", "city": "Sullivan Bay", "lon": "-126.866667"}, {"lat": "49.6", "city": "Summerland", "lon": "-119.666667"}, {"lat": "54.283333", "city": "Summit Lake", "lon": "-122.633333"}, {"lat": "55.85", "city": "Sunset Prairie", "lon": "-120.783333"}, {"lat": "50.633333", "city": "Suquash", "lon": "-127.25"}, {"lat": "53.033333", "city": "Surf Inlet", "lon": "-128.9"}, {"lat": "59.616667", "city": "Surprise", "lon": "-133.416667"}, {"lat": "49.136353351", "city": "Surrey", "lon": "-122.821343315"}, {"lat": "49.366667", "city": "Sydney Inlet", "lon": "-126.25"}, {"lat": "48.65", "city": "Sydney", "lon": "-123.416667"}, {"lat": "54.65", "city": "Tachie", "lon": "-124.766667"}, {"lat": "50.983333", "city": "Taft", "lon": "-118.633333"}, {"lat": "49.916667", "city": "Tahsis", "lon": "-126.666667"}, {"lat": "55.483333", "city": "Takla Landing", "lon": "-125.983333"}, {"lat": "59.633333", "city": "Taku", "lon": "-133.85"}, {"lat": "50.783333", "city": "Tappen", "lon": "-119.333333"}, {"lat": "53.983333", "city": "Tatalrose", "lon": "-126.066667"}, {"lat": "51.65", "city": "Tatlayoka Lake", "lon": "-124.383333"}, {"lat": "51.65", "city": "Tatlayoko Lake", "lon": "-124.383333"}, {"lat": "56.15", "city": "Taylor", "lon": "-120.666667"}, {"lat": "54.1", "city": "Tchesinkut Lake", "lon": "-125.716667"}, {"lat": "59.65", "city": "Teepee", "lon": "-134.666667"}, {"lat": "50.55", "city": "Telegraph Cove", "lon": "-126.816667"}, {"lat": "57.9", "city": "Telegraph Creek", "lon": "-131.15"}, {"lat": "59.65", "city": "Tepee", "lon": "-134.666667"}, {"lat": "54.5", "city": "Terrace", "lon": "-128.583333"}, {"lat": "52.983333", "city": "T\u00eate-Jaune-Cache", "lon": "-119.516667"}, {"lat": "52.983333", "city": "T\u00eate Jaune", "lon": "-119.516667"}, {"lat": "49.766667", "city": "Thalia", "lon": "-120.766667"}, {"lat": "52.233333", "city": "Thunder River", "lon": "-119.216667"}, {"lat": "50.45", "city": "Thurlow", "lon": "-125.366667"}, {"lat": "54.2", "city": "Tintagel", "lon": "-125.083333"}, {"lat": "53.583333", "city": "Tlell", "lon": "-131.933333"}, {"lat": "59.383333", "city": "Toad River Post", "lon": "-124.866667"}, {"lat": "49.133333", "city": "Tofino", "lon": "-125.9"}, {"lat": "54.516667", "city": "Topley", "lon": "-126.3"}, {"lat": "54.066667", "city": "Tow Hill", "lon": "-131.783333"}, {"lat": "49.1", "city": "Trail", "lon": "-117.716667"}, {"lat": "50.383333", "city": "Trapp Lake", "lon": "-120.266667"}, {"lat": "50.633333", "city": "Trout Lake", "lon": "-117.533333"}, {"lat": "49.016667", "city": "Tsawwassen", "lon": "-123.083333"}, {"lat": "49.55", "city": "Tulameen City", "lon": "-120.75"}, {"lat": "49.55", "city": "Tulameen", "lon": "-120.75"}, {"lat": "58.633333", "city": "Tulsequah", "lon": "-133.533333"}, {"lat": "56.183333", "city": "Two Rivers", "lon": "-120.533333"}, {"lat": "48.933333", "city": "Ucluelet", "lon": "-125.516667"}, {"lat": "49.6", "city": "Union Bay", "lon": "-124.883333"}, {"lat": "49.883333", "city": "Upper Squamish", "lon": "-123.316667"}, {"lat": "54.633333", "city": "Usk", "lon": "-128.433333"}, {"lat": "52.833333", "city": "Valemount", "lon": "-119.25"}, {"lat": "49.566667", "city": "Vallican", "lon": "-117.65"}, {"lat": "49.75", "city": "Vananda", "lon": "-124.55"}, {"lat": "49.25", "city": "Vancouver", "lon": "-123.133333"}, {"lat": "54.016667", "city": "Vanderhoof", "lon": "-124.016667"}, {"lat": "53.033333", "city": "Van Winkle", "lon": "-121.716667"}, {"lat": "50.266667", "city": "Vernon", "lon": "-119.266667"}, {"lat": "48.433333", "city": "Victoria", "lon": "-123.35"}, {"lat": "51.516667", "city": "Wadhams", "lon": "-127.516667"}, {"lat": "54.516667", "city": "Walcott", "lon": "-126.85"}, {"lat": "49.416667", "city": "Wardner", "lon": "-115.4"}, {"lat": "57.416667", "city": "Ware", "lon": "-125.616667"}, {"lat": "49.766667", "city": "Wasa", "lon": "-115.716667"}, {"lat": "54.233333", "city": "Watson Island", "lon": "-130.283333"}, {"lat": "49.2", "city": "Wellington", "lon": "-124.016667"}, {"lat": "49.84", "city": "Westbank", "lon": "-119.61"}, {"lat": "48.866667", "city": "Westholme", "lon": "-123.716667"}, {"lat": "48.866667", "city": "Westholm", "lon": "-123.716667"}, {"lat": "49.85", "city": "Westview", "lon": "-124.533333"}, {"lat": "50.1", "city": "Whaletown", "lon": "-125.033333"}, {"lat": "59.616667", "city": "White Pass", "lon": "-135.116667"}, {"lat": "49.033333", "city": "White Rock", "lon": "-122.816667"}, {"lat": "57.416667", "city": "Whitewater", "lon": "-125.616667"}, {"lat": "49.366667", "city": "Whytecliff", "lon": "-123.266667"}, {"lat": "52.116667", "city": "Williams Lake", "lon": "-122.15"}, {"lat": "54.083333", "city": "Willow River", "lon": "-122.483333"}, {"lat": "50.466667", "city": "Windermere", "lon": "-115.966667"}, {"lat": "50.02", "city": "Winfield", "lon": "-119.41"}, {"lat": "50.516667", "city": "Winter Harbour", "lon": "-128.033333"}, {"lat": "53.833333", "city": "Wistaria", "lon": "-126.283333"}, {"lat": "55.066667", "city": "Woodcock", "lon": "-128.2"}, {"lat": "53.516667", "city": "Woodpecker", "lon": "-122.633333"}, {"lat": "51.866667", "city": "Wright", "lon": "-121.666667"}, {"lat": "50.3", "city": "Wyatt Bay", "lon": "-125.2"}, {"lat": "49.083333", "city": "Yahk", "lon": "-116.1"}, {"lat": "49.566667", "city": "Yale", "lon": "-121.433333"}, {"lat": "48.883333", "city": "Youbou", "lon": "-124.2"}, {"lat": "49.983333", "city": "Zeballos", "lon": "-126.85"}], "11": [{"lat": "50.733333", "city": "Abbey", "lon": "-108.75"}, {"lat": "52.316667", "city": "Aberdeen", "lon": "-106.283333"}, {"lat": "49.716667", "city": "Admiral", "lon": "-108.016667"}, {"lat": "49.266667", "city": "Alameda", "lon": "-102.283333"}, {"lat": "53.416667", "city": "Albertville", "lon": "-105.533333"}, {"lat": "49.383333", "city": "Alida", "lon": "-101.866667"}, {"lat": "51.9", "city": "Allan", "lon": "-106.066667"}, {"lat": "51.366667", "city": "Alsask", "lon": "-109.983333"}, {"lat": "52.9", "city": "Alticane", "lon": "-102.483333"}, {"lat": "52.516667", "city": "Alvena", "lon": "-106.016667"}, {"lat": "51.55", "city": "Amazon", "lon": "-105.466667"}, {"lat": "49.616667", "city": "Amulet", "lon": "-104.75"}, {"lat": "53.116667", "city": "Arborfield", "lon": "-103.65"}, {"lat": "50.283333", "city": "Archive", "lon": "-105.616667"}, {"lat": "49.633333", "city": "Arcola", "lon": "-102.483333"}, {"lat": "52.25", "city": "Arelee", "lon": "-107.5"}, {"lat": "49.116667", "city": "Arena", "lon": "-109.266667"}, {"lat": "52.833333", "city": "Armit", "lon": "-101.85"}, {"lat": "53.116667", "city": "Armley", "lon": "-104.033333"}, {"lat": "52.116667", "city": "Asquith", "lon": "-107.216667"}, {"lat": "49.616667", "city": "Assiniboia", "lon": "-105.983333"}, {"lat": "50.016667", "city": "Avonlea", "lon": "-105.066667"}, {"lat": "50.933333", "city": "Aylesbury", "lon": "-105.7"}, {"lat": "53.2", "city": "Aylsham", "lon": "-103.8"}, {"lat": "50.8", "city": "Balcarres", "lon": "-103.55"}, {"lat": "52.533333", "city": "Baljennie", "lon": "-107.883333"}, {"lat": "51.2", "city": "Barvas", "lon": "-102.1"}, {"lat": "50.016667", "city": "Bateman", "lon": "-106.733333"}, {"lat": "49.433333", "city": "Battle Creek", "lon": "-109.833333"}, {"lat": "52.766667", "city": "Battleford", "lon": "-108.3"}, {"lat": "52.116667", "city": "Bay Trail", "lon": "-105.133333"}, {"lat": "54.355556", "city": "Beacon Hill", "lon": "-109.652222"}, {"lat": "52.9", "city": "Beatty", "lon": "-104.783333"}, {"lat": "55.15", "city": "Beaual", "lon": "-107.616667"}, {"lat": "55.15", "city": "Beauval", "lon": "-107.616667"}, {"lat": "50.883333", "city": "Beechy", "lon": "-107.383333"}, {"lat": "55.783333", "city": "B\u00e9langer", "lon": "-106.216667"}, {"lat": "53.366667", "city": "Belbutte", "lon": "-107.816667"}, {"lat": "50.4", "city": "Belle Plaine", "lon": "-105.15"}, {"lat": "49.4", "city": "Bengough", "lon": "-105.116667"}, {"lat": "50.7", "city": "Bethune", "lon": "-105.216667"}, {"lat": "49.15", "city": "Bienfait", "lon": "-102.8"}, {"lat": "49.1", "city": "Big Beaver", "lon": "-105.166667"}, {"lat": "52.05", "city": "Biggar", "lon": "-107.983333"}, {"lat": "53.833333", "city": "Big River", "lon": "-107.033333"}, {"lat": "52.983333", "city": "Birch Hills", "lon": "-105.433333"}, {"lat": "51.1", "city": "Birsay", "lon": "-106.983333"}, {"lat": "52.716667", "city": "Bjorkdale", "lon": "-103.633333"}, {"lat": "51.366667", "city": "Bladworth", "lon": "-106.133333"}, {"lat": "52.833333", "city": "Blaine Lake", "lon": "-106.883333"}, {"lat": "52.016667", "city": "Blucher", "lon": "-106.216667"}, {"lat": "53.75", "city": "Bodmin", "lon": "-106.966667"}, {"lat": "50.4", "city": "Boharm", "lon": "-105.716667"}, {"lat": "52.4", "city": "Borden", "lon": "-102.233333"}, {"lat": "49.183333", "city": "Bracken", "lon": "-108.083333"}, {"lat": "53", "city": "Brancepeth", "lon": "-105.25"}, {"lat": "50.933333", "city": "Bredenbury", "lon": "-102.033333"}, {"lat": "50.166667", "city": "Briercrest", "lon": "-105.266667"}, {"lat": "52.05", "city": "Broadacres", "lon": "-108.966667"}, {"lat": "50.383333", "city": "Broadview", "lon": "-102.566667"}, {"lat": "51.483333", "city": "Broderick", "lon": "-106.933333"}, {"lat": "49.183333", "city": "Bromhead", "lon": "-103.666667"}, {"lat": "53", "city": "Brooksby", "lon": "-104.3"}, {"lat": "52.266667", "city": "Bruno", "lon": "-105.516667"}, {"lat": "51.7", "city": "Buchanan", "lon": "-102.75"}, {"lat": "55.9275", "city": "Buffalo", "lon": "-108.938889"}, {"lat": "55.854167", "city": "Buffalo Narrows", "lon": "-108.484167"}, {"lat": "50.983333", "city": "Bulyea", "lon": "-104.85"}, {"lat": "51.55", "city": "Burgis", "lon": "-102.433333"}, {"lat": "52.05", "city": "Burr", "lon": "-105.133333"}, {"lat": "50.65", "city": "Burstall", "lon": "-109.916667"}, {"lat": "54.078333", "city": "Cabana", "lon": "-108.253333"}, {"lat": "50.616667", "city": "Cabri", "lon": "-108.45"}, {"lat": "49.716667", "city": "Cadillac", "lon": "-107.733333"}, {"lat": "51.15", "city": "Calder", "lon": "-101.75"}, {"lat": "59.616667", "city": "Camsell Portage", "lon": "-109.216667"}, {"lat": "52.366667", "city": "Cando", "lon": "-108.216667"}, {"lat": "55.098056", "city": "Canoe Lake", "lon": "-108.323333"}, {"lat": "55.1675", "city": "Canoe Narrows", "lon": "-108.153333"}, {"lat": "51.633333", "city": "Canora", "lon": "-102.433333"}, {"lat": "49.2", "city": "Canuck", "lon": "-108.4"}, {"lat": "53.366667", "city": "Canwood", "lon": "-106.6"}, {"lat": "53.6", "city": "Capasin", "lon": "-107.383333"}, {"lat": "49.816667", "city": "Cardross", "lon": "-105.616667"}, {"lat": "52.816667", "city": "Carlton", "lon": "-106.5"}, {"lat": "49.633333", "city": "Carlyle", "lon": "-102.266667"}, {"lat": "49.166667", "city": "Carnduff", "lon": "-101.783333"}, {"lat": "50.45", "city": "Caronport", "lon": "-105.816667"}, {"lat": "53.283333", "city": "Carrot River", "lon": "-103.583333"}, {"lat": "52.866667", "city": "Carruthers", "lon": "-109.266667"}, {"lat": "53.366667", "city": "Cater", "lon": "-108.05"}, {"lat": "49.883333", "city": "Cedoux", "lon": "-103.866667"}, {"lat": "49.45", "city": "Ceylon", "lon": "-104.6"}, {"lat": "49.45", "city": "Ceylon Station", "lon": "-104.6"}, {"lat": "50.85", "city": "Chamberlain", "lon": "-105.566667"}, {"lat": "50.466667", "city": "Chaplin", "lon": "-106.666667"}, {"lat": "52.616667", "city": "Chelan", "lon": "-103.383333"}, {"lat": "53.783333", "city": "Chitek", "lon": "-107.75"}, {"lat": "52.016667", "city": "Clair", "lon": "-104.066667"}, {"lat": "52.666667", "city": "Clemenceau", "lon": "-102.533333"}, {"lat": "49.2", "city": "Climax", "lon": "-108.383333"}, {"lat": "52.6", "city": "Cloan", "lon": "-108.783333"}, {"lat": "50.133333", "city": "Coderre", "lon": "-106.383333"}, {"lat": "53.283333", "city": "Codette", "lon": "-104.016667"}, {"lat": "55.097222", "city": "Cole Bay", "lon": "-108.343333"}, {"lat": "51.7", "city": "Coleville", "lon": "-109.233333"}, {"lat": "51.966667", "city": "Colonsay", "lon": "-105.866667"}, {"lat": "51.533333", "city": "Conquest", "lon": "-107.25"}, {"lat": "53.533333", "city": "Cookson", "lon": "-106.316667"}, {"lat": "50.05", "city": "Corinne", "lon": "-104.633333"}, {"lat": "51.516667", "city": "C\u00f4te", "lon": "-101.8"}, {"lat": "57.366667", "city": "Cree Lake", "lon": "-106.833333"}, {"lat": "50.1", "city": "Crestwynd", "lon": "-105.7"}, {"lat": "52.85", "city": "Crooked River", "lon": "-103.716667"}, {"lat": "53.216667", "city": "Crutwell", "lon": "-106.066667"}, {"lat": "52.483333", "city": "Cudworth", "lon": "-105.716667"}, {"lat": "53.95", "city": "Cumberland House", "lon": "-102.266667"}, {"lat": "50.95", "city": "Cupar", "lon": "-104.2"}, {"lat": "52.75", "city": "Cut Knife", "lon": "-109.016667"}, {"lat": "51.75", "city": "Dafoe", "lon": "-104.533333"}, {"lat": "52.333333", "city": "Dalmeny", "lon": "-106.783333"}, {"lat": "51.266667", "city": "Davidson", "lon": "-105.966667"}, {"lat": "52.5", "city": "Daylesford", "lon": "-104.9"}, {"lat": "53.516667", "city": "Debden", "lon": "-106.866667"}, {"lat": "51.916667", "city": "Delisle", "lon": "-107.116667"}, {"lat": "54.666667", "city": "Denare Beach", "lon": "-102.083333"}, {"lat": "50.116667", "city": "Dendron", "lon": "-107.1"}, {"lat": "52.65", "city": "Denholm", "lon": "-108.016667"}, {"lat": "52.233333", "city": "Denzil", "lon": "-109.65"}, {"lat": "50.866667", "city": "Dilke", "lon": "-105.25"}, {"lat": "55.9275", "city": "Dillon", "lon": "-108.938889"}, {"lat": "51.333333", "city": "Dinsmore", "lon": "-107.45"}, {"lat": "51.8", "city": "Dodsland", "lon": "-108.833333"}, {"lat": "52.783333", "city": "Domremy", "lon": "-105.733333"}, {"lat": "54.666667", "city": "Dor\u00e9 Lake", "lon": "-107.116667"}, {"lat": "54.355278", "city": "Dorintosh", "lon": "-108.628333"}, {"lat": "50.3", "city": "Drinkwater", "lon": "-105.133333"}, {"lat": "52.8", "city": "Duck Lake", "lon": "-106.216667"}, {"lat": "51.2", "city": "Dunblane", "lon": "-106.866667"}, {"lat": "51.8", "city": "Dundurn", "lon": "-106.5"}, {"lat": "50.183333", "city": "Dunelm", "lon": "-107.816667"}, {"lat": "52.133333", "city": "Dunfermline", "lon": "-107.05"}, {"lat": "49.516667", "city": "Eastend", "lon": "-108.816667"}, {"lat": "49.066667", "city": "East Poplar", "lon": "-105.383333"}, {"lat": "53.183333", "city": "Edam", "lon": "-108.766667"}, {"lat": "49.733333", "city": "Edgeworth", "lon": "-104.95"}, {"lat": "51.116667", "city": "Elbow", "lon": "-106.6"}, {"lat": "59.55", "city": "Eldorado", "lon": "-108.5"}, {"lat": "51.2", "city": "Elrose", "lon": "-108.033333"}, {"lat": "50.45", "city": "Ernfold", "lon": "-106.9"}, {"lat": "52.85", "city": "Erwood", "lon": "-102.2"}, {"lat": "50.65", "city": "Esterhazy", "lon": "-102.083333"}, {"lat": "49.15", "city": "Estevan", "lon": "-103"}, {"lat": "51.15", "city": "Eston", "lon": "-108.75"}, {"lat": "50.933333", "city": "Estuary", "lon": "-109.9"}, {"lat": "52.4", "city": "Evesham", "lon": "-109.833333"}, {"lat": "50.8", "city": "Eyebrow", "lon": "-106.15"}, {"lat": "51.883333", "city": "Feudal", "lon": "-107.6"}, {"lat": "52.516667", "city": "Fielding", "lon": "-107.533333"}, {"lat": "49.883333", "city": "Fillmore", "lon": "-103.433333"}, {"lat": "51.483333", "city": "Fiske", "lon": "-108.4"}, {"lat": "54.296944", "city": "Flat Valley", "lon": "-109.227222"}, {"lat": "51.466667", "city": "Flaxcombe", "lon": "-109.6"}, {"lat": "50.066667", "city": "Fleming", "lon": "-101.516667"}, {"lat": "49.466667", "city": "Flintoft", "lon": "-106.35"}, {"lat": "51.65", "city": "Foam Lake", "lon": "-103.533333"}, {"lat": "59.316667", "city": "Fond-du-Lac", "lon": "-107.183333"}, {"lat": "50.766667", "city": "Fort Qu'Appelle", "lon": "-103.783333"}, {"lat": "49.633333", "city": "Forward", "lon": "-104.466667"}, {"lat": "52.2", "city": "Fosston", "lon": "-103.8"}, {"lat": "54.180278", "city": "Four Corners", "lon": "-108.628056"}, {"lat": "53.466667", "city": "Foxford", "lon": "-105.116667"}, {"lat": "50.466667", "city": "Fox Valley", "lon": "-109.483333"}, {"lat": "50.1", "city": "Francis", "lon": "-103.866667"}, {"lat": "53.583333", "city": "Frenchman Butte", "lon": "-109.616667"}, {"lat": "49.2", "city": "Frobisher", "lon": "-102.416667"}, {"lat": "53.116667", "city": "Furness", "lon": "-109.966667"}, {"lat": "51.85", "city": "Fusilier", "lon": "-109.766667"}, {"lat": "49.166667", "city": "Gainsborough", "lon": "-101.45"}, {"lat": "53.483333", "city": "Garrick", "lon": "-104.333333"}, {"lat": "51.166667", "city": "Girvin", "lon": "-105.933333"}, {"lat": "49.083333", "city": "Gladmar", "lon": "-104.466667"}, {"lat": "53.35", "city": "Glaslyn", "lon": "-108.35"}, {"lat": "49.55", "city": "Glasnevin", "lon": "-105.05"}, {"lat": "53.25", "city": "Glenbush", "lon": "-108"}, {"lat": "50.6", "city": "Glen Kerr", "lon": "-107.016667"}, {"lat": "49.416667", "city": "Glentworth", "lon": "-106.683333"}, {"lat": "51.233333", "city": "Glidden", "lon": "-109.166667"}, {"lat": "50.216667", "city": "Golden Prairie", "lon": "-109.616667"}, {"lat": "54.326389", "city": "Golden Ridge", "lon": "-109.100278"}, {"lat": "59.45", "city": "Goldfields", "lon": "-108.483333"}, {"lat": "54.399722", "city": "Goodsoil", "lon": "-109.226111"}, {"lat": "49.4", "city": "Goodwater", "lon": "-103.7"}, {"lat": "51.45", "city": "Gorlitz", "lon": "-102.433333"}, {"lat": "51.316667", "city": "Govan", "lon": "-105"}, {"lat": "49.216667", "city": "Govenlock", "lon": "-109.8"}, {"lat": "50.983333", "city": "Grainland", "lon": "-106.55"}, {"lat": "50.433333", "city": "Grand Coulee", "lon": "-104.816667"}, {"lat": "52.1", "city": "Grandora", "lon": "-107"}, {"lat": "49.883333", "city": "Gravelbourg", "lon": "-106.55"}, {"lat": "54.266667", "city": "Green Lake", "lon": "-107.783333"}, {"lat": "50.416667", "city": "Grenfell", "lon": "-102.916667"}, {"lat": "49.666667", "city": "Griffin", "lon": "-103.433333"}, {"lat": "53.083333", "city": "Gronlid", "lon": "-104.466667"}, {"lat": "50.1", "city": "Gull Lake", "lon": "-108.483333"}, {"lat": "51.333333", "city": "Gunworth", "lon": "-108.15"}, {"lat": "52.716667", "city": "Hafford", "lon": "-107.35"}, {"lat": "52.5", "city": "Hague", "lon": "-106.416667"}, {"lat": "50.616667", "city": "Halvorgate", "lon": "-106.7"}, {"lat": "52.866667", "city": "Hamlin", "lon": "-108.3"}, {"lat": "52.066667", "city": "Handel", "lon": "-108.7"}, {"lat": "49.85", "city": "Handsworth", "lon": "-102.95"}, {"lat": "51.616667", "city": "Hanley", "lon": "-106.433333"}, {"lat": "49.3", "city": "Harptree", "lon": "-105.416667"}, {"lat": "49.183333", "city": "Hart", "lon": "-105.6"}, {"lat": "51.416667", "city": "Hatfield", "lon": "-105.016667"}, {"lat": "50.033333", "city": "Hatton", "lon": "-109.833333"}, {"lat": "51.416667", "city": "Hawarden", "lon": "-106.6"}, {"lat": "53.3", "city": "Hawkeye", "lon": "-106.966667"}, {"lat": "52.083333", "city": "Hendon", "lon": "-103.833333"}, {"lat": "53.4", "city": "Henribourg", "lon": "-105.616667"}, {"lat": "50.433333", "city": "Herbert", "lon": "-107.216667"}, {"lat": "51.633333", "city": "Herschel", "lon": "-108.35"}, {"lat": "52.866667", "city": "Highgate", "lon": "-108.45"}, {"lat": "53.433333", "city": "Hillmond", "lon": "-109.7"}, {"lat": "52.066667", "city": "Hinchliffe", "lon": "-102.65"}, {"lat": "50.116667", "city": "Hodgeville", "lon": "-106.983333"}, {"lat": "52.866667", "city": "Hoey", "lon": "-105.783333"}, {"lat": "51.616667", "city": "Hoosier", "lon": "-109.733333"}, {"lat": "50.416667", "city": "Horsham", "lon": "-109.883333"}, {"lat": "52.85", "city": "Hudson Bay", "lon": "-102.383333"}, {"lat": "52.85", "city": "Hudson Bay Junction", "lon": "-102.383333"}, {"lat": "52.2", "city": "Humboldt", "lon": "-105.116667"}, {"lat": "55.433333", "city": "Ile-\u00e0-la-Crosse", "lon": "-107.9"}, {"lat": "50.533333", "city": "Indian Head", "lon": "-103.666667"}, {"lat": "55.533333", "city": "Island Falls", "lon": "-102.333333"}, {"lat": "51.166667", "city": "Ituna", "lon": "-103.5"}, {"lat": "55.148611", "city": "Jans Bay", "lon": "-108.126944"}, {"lat": "51.783333", "city": "Jansen", "lon": "-104.716667"}, {"lat": "53.15", "city": "Jordan River", "lon": "-103.466667"}, {"lat": "53.55", "city": "Junor", "lon": "-107.866667"}, {"lat": "51.566667", "city": "Kamsack", "lon": "-101.9"}, {"lat": "52.8", "city": "Keatley", "lon": "-107.466667"}, {"lat": "50.683333", "city": "Keeler", "lon": "-105.883333"}, {"lat": "51.95", "city": "Kelfield", "lon": "-108.616667"}, {"lat": "51.266667", "city": "Kelliher", "lon": "-103.733333"}, {"lat": "49.966667", "city": "Kelso Station", "lon": "-101.966667"}, {"lat": "52.166667", "city": "Kelvington", "lon": "-103.516667"}, {"lat": "51.5", "city": "Kenaston", "lon": "-106.283333"}, {"lat": "50.016667", "city": "Kennedy", "lon": "-102.35"}, {"lat": "49.833333", "city": "Kenosee Park", "lon": "-102.283333"}, {"lat": "52.016667", "city": "Keppel", "lon": "-107.7"}, {"lat": "51.916667", "city": "Kerrobert", "lon": "-109.133333"}, {"lat": "51.216667", "city": "Kessock", "lon": "-102"}, {"lat": "49.1", "city": "Killdeer", "lon": "-106.366667"}, {"lat": "53.083333", "city": "Kilwinning", "lon": "-106.066667"}, {"lat": "49.666667", "city": "Kincaid", "lon": "-107"}, {"lat": "51.466667", "city": "Kindersley", "lon": "-109.133333"}, {"lat": "52.95", "city": "Kinistino", "lon": "-105.033333"}, {"lat": "52.066667", "city": "Kinley", "lon": "-107.433333"}, {"lat": "50.1", "city": "Kipling Station", "lon": "-102.633333"}, {"lat": "49.633333", "city": "Kisbey", "lon": "-102.666667"}, {"lat": "52.783333", "city": "Krydor", "lon": "-107.066667"}, {"lat": "55.15", "city": "Lac-la-Plonge", "lon": "-107.616667"}, {"lat": "55.1", "city": "Lac La Ronge", "lon": "-105.3"}, {"lat": "49.7", "city": "Lafl\u00e8che", "lon": "-106.566667"}, {"lat": "52.716667", "city": "Laird", "lon": "-106.583333"}, {"lat": "49.133333", "city": "Lake Alma", "lon": "-104.183333"}, {"lat": "52.4", "city": "Lake Lenore", "lon": "-104.983333"}, {"lat": "50.633333", "city": "Lake Valley", "lon": "-106.033333"}, {"lat": "56.483333", "city": "La Loche", "lon": "-109.433333"}, {"lat": "56.483333", "city": "La Loche West", "lon": "-109.633333"}, {"lat": "49.383333", "city": "Lampman", "lon": "-102.75"}, {"lat": "52.2", "city": "Landis", "lon": "-108.45"}, {"lat": "50.05", "city": "Langbank", "lon": "-102.283333"}, {"lat": "50.833333", "city": "Langenburg", "lon": "-101.7"}, {"lat": "52.366667", "city": "Langham", "lon": "-106.966667"}, {"lat": "49.916667", "city": "Lang", "lon": "-104.366667"}, {"lat": "51.85", "city": "Lanigan", "lon": "-105.033333"}, {"lat": "55.15", "city": "La Plonge", "lon": "-107.616667"}, {"lat": "51.216667", "city": "Laporte", "lon": "-109.5"}, {"lat": "55.1", "city": "La Ronge", "lon": "-105.3"}, {"lat": "53.116667", "city": "Lashburn", "lon": "-109.616667"}, {"lat": "50.883333", "city": "Leader", "lon": "-109.55"}, {"lat": "50.5", "city": "Leinan", "lon": "-107.766667"}, {"lat": "50.733333", "city": "Lemberg", "lon": "-103.2"}, {"lat": "50.85", "city": "Lemsford", "lon": "-109.116667"}, {"lat": "52.033333", "city": "Leney", "lon": "-107.55"}, {"lat": "53.633333", "city": "Leoville", "lon": "-107.55"}, {"lat": "50.266667", "city": "Lillestrom", "lon": "-105.883333"}, {"lat": "49.65", "city": "Limerick", "lon": "-106.266667"}, {"lat": "52.066667", "city": "Lintlaw", "lon": "-103.25"}, {"lat": "50.9", "city": "Lipton", "lon": "-103.85"}, {"lat": "53.45", "city": "Livelong", "lon": "-108.7"}, {"lat": "53.283333", "city": "Lloydminster", "lon": "-110"}, {"lat": "51.633333", "city": "Lockwood", "lon": "-105.016667"}, {"lat": "50.05", "city": "Longbank", "lon": "-102.283333"}, {"lat": "49.2", "city": "Loomis", "lon": "-108.733333"}, {"lat": "54.025278", "city": "Loon Lake", "lon": "-109.160556"}, {"lat": "54.122222", "city": "Loon River", "lon": "-109.026389"}, {"lat": "51.666667", "city": "Loverna", "lon": "-109.983333"}, {"lat": "50.983333", "city": "Lucky Lake", "lon": "-107.133333"}, {"lat": "50.65", "city": "Lumsden", "lon": "-104.866667"}, {"lat": "52.083333", "city": "Luseland", "lon": "-109.433333"}, {"lat": "53.016667", "city": "Macdowall", "lon": "-106"}, {"lat": "52.333333", "city": "Macklin", "lon": "-109.95"}, {"lat": "49.316667", "city": "Macoun", "lon": "-103.25"}, {"lat": "51.216667", "city": "Madison", "lon": "-109.016667"}, {"lat": "53.083333", "city": "Maidstone", "lon": "-109.3"}, {"lat": "50.583333", "city": "Main Centre", "lon": "-107.35"}, {"lat": "49.733333", "city": "Mair", "lon": "-101.783333"}, {"lat": "54.006389", "city": "Makwa", "lon": "-108.906667"}, {"lat": "49.416667", "city": "Mankota", "lon": "-107.066667"}, {"lat": "49.6", "city": "Manor", "lon": "-102.083333"}, {"lat": "49.916667", "city": "Maple Creek", "lon": "-109.466667"}, {"lat": "52.933333", "city": "Marcelin", "lon": "-106.783333"}, {"lat": "49.833333", "city": "Maryfield", "lon": "-101.533333"}, {"lat": "49.15", "city": "Masefield", "lon": "-107.8"}, {"lat": "50.8", "city": "Matador", "lon": "-107.95"}, {"lat": "50.75", "city": "Mawer", "lon": "-106.4"}, {"lat": "49.483333", "city": "Maxstone", "lon": "-106.016667"}, {"lat": "52.983333", "city": "Mayfair", "lon": "-107.583333"}, {"lat": "52.566667", "city": "Maymont", "lon": "-107.716667"}, {"lat": "49.866667", "city": "Mazenod", "lon": "-106.216667"}, {"lat": "51.5", "city": "McGee", "lon": "-108.25"}, {"lat": "52.616667", "city": "McKague", "lon": "-103.916667"}, {"lat": "51.316667", "city": "McMorran", "lon": "-108.75"}, {"lat": "52.1", "city": "Meacham", "lon": "-105.75"}, {"lat": "54.129722", "city": "Meadow Lake", "lon": "-108.434722"}, {"lat": "53.45", "city": "Meath Park", "lon": "-105.366667"}, {"lat": "53.3", "city": "Medstead", "lon": "-108.083333"}, {"lat": "51.3", "city": "Mehan", "lon": "-102.433333"}, {"lat": "52.866667", "city": "Melfort", "lon": "-104.6"}, {"lat": "50.933333", "city": "Melville", "lon": "-102.8"}, {"lat": "50.766667", "city": "Mendham", "lon": "-109.666667"}, {"lat": "51.433333", "city": "Merid", "lon": "-109.883333"}, {"lat": "52.783333", "city": "Meskanaw", "lon": "-105.083333"}, {"lat": "49.666667", "city": "Meyronne", "lon": "-106.85"}, {"lat": "49.933333", "city": "Michellton", "lon": "-105.7"}, {"lat": "55.988056", "city": "Michel", "lon": "-109.095556"}, {"lat": "49.4", "city": "Midale", "lon": "-103.4"}, {"lat": "51.483333", "city": "Milden", "lon": "-107.516667"}, {"lat": "53.35", "city": "Mildred", "lon": "-107.333333"}, {"lat": "49.166667", "city": "Minton", "lon": "-104.583333"}, {"lat": "52.866667", "city": "Mistatim", "lon": "-103.366667"}, {"lat": "49.933333", "city": "Mitchellton", "lon": "-105.7"}, {"lat": "50.216667", "city": "Montmartre", "lon": "-103.45"}, {"lat": "54.05", "city": "Montreal Lake", "lon": "-105.783333"}, {"lat": "50.4", "city": "Moose Jaw", "lon": "-105.55"}, {"lat": "50.15", "city": "Moosomin", "lon": "-101.666667"}, {"lat": "49.716667", "city": "Moreland", "lon": "-104.6"}, {"lat": "54.035278", "city": "Morin Creek", "lon": "-108.733333"}, {"lat": "50.45", "city": "Mortlach", "lon": "-106.066667"}, {"lat": "49.933333", "city": "Mossbank", "lon": "-105.966667"}, {"lat": "54.1825", "city": "Mudie Lake", "lon": "-109.776389"}, {"lat": "52.2", "city": "Muenster", "lon": "-104.983333"}, {"lat": "53.083333", "city": "Mullingar", "lon": "-107.666667"}, {"lat": "52.416667", "city": "Naicam", "lon": "-104.5"}, {"lat": "52.866667", "city": "Naisberry", "lon": "-104.466667"}, {"lat": "50.233333", "city": "Neidpath", "lon": "-107.25"}, {"lat": "52.833333", "city": "Neilburg", "lon": "-109.633333"}, {"lat": "49.366667", "city": "Neptune", "lon": "-104.066667"}, {"lat": "51.466667", "city": "Netherhill", "lon": "-108.85"}, {"lat": "50.716667", "city": "Neudorf", "lon": "-103"}, {"lat": "52.983333", "city": "New Osgoode", "lon": "-103.8"}, {"lat": "53.366667", "city": "Nipawin", "lon": "-104.016667"}, {"lat": "51.516667", "city": "Nokomis", "lon": "-105.016667"}, {"lat": "52.366667", "city": "Nora", "lon": "-103.833333"}, {"lat": "52.766667", "city": "North Battleford", "lon": "-108.283333"}, {"lat": "49", "city": "Northgate", "lon": "-102.266667"}, {"lat": "52.116667", "city": "North Park", "lon": "-106.633333"}, {"lat": "49", "city": "North Portal", "lon": "-102.55"}, {"lat": "49.383333", "city": "Nottingham", "lon": "-101.716667"}, {"lat": "52.116667", "city": "Oban", "lon": "-108.133333"}, {"lat": "49.566667", "city": "Ogema", "lon": "-104.916667"}, {"lat": "50.2", "city": "Old Wives", "lon": "-106"}, {"lat": "53.716667", "city": "Onion Lake", "lon": "-110"}, {"lat": "53.266667", "city": "Ordale", "lon": "-106.7"}, {"lat": "49.133333", "city": "Oungre", "lon": "-103.8"}, {"lat": "51.5", "city": "Outlook", "lon": "-107.05"}, {"lat": "49.133333", "city": "Outram Station", "lon": "-103.316667"}, {"lat": "49.216667", "city": "Oxbow", "lon": "-102.166667"}, {"lat": "53.5", "city": "Paddockwood", "lon": "-105.566667"}, {"lat": "49.933333", "city": "Pambrun", "lon": "-107.45"}, {"lat": "49.933333", "city": "Pamburn", "lon": "-107.45"}, {"lat": "53.533333", "city": "Paradise Hill", "lon": "-109.45"}, {"lat": "50.45", "city": "Parkbeg", "lon": "-106.266667"}, {"lat": "51.35", "city": "Parkview", "lon": "-103.233333"}, {"lat": "53.516667", "city": "Pascal", "lon": "-107.133333"}, {"lat": "50.366667", "city": "Pasqua", "lon": "-105.383333"}, {"lat": "53.016667", "city": "Paynton", "lon": "-108.95"}, {"lat": "50.15", "city": "Peebles", "lon": "-102.933333"}, {"lat": "54.3475", "city": "Peerless", "lon": "-109.226667"}, {"lat": "55.166667", "city": "Pelican Narrows", "lon": "-102.95"}, {"lat": "51.866667", "city": "Pelly", "lon": "-101.916667"}, {"lat": "53.683333", "city": "Penn", "lon": "-107.7"}, {"lat": "51.066667", "city": "Penzance", "lon": "-105.433333"}, {"lat": "52.05", "city": "Perdue", "lon": "-107.55"}, {"lat": "49.983333", "city": "Piapot", "lon": "-109.116667"}, {"lat": "54.340278", "city": "Pierceland", "lon": "-109.776944"}, {"lat": "52.433333", "city": "Pilger", "lon": "-105.283333"}, {"lat": "50.466667", "city": "Pilot Butte", "lon": "-104.416667"}, {"lat": "54.1", "city": "Pinebluff", "lon": "-102.816667"}, {"lat": "51.433333", "city": "Pinkham", "lon": "-109.45"}, {"lat": "51.9", "city": "Plunkett", "lon": "-105.45"}, {"lat": "53.433333", "city": "Polwarth", "lon": "-106.733333"}, {"lat": "49.75", "city": "Ponteix", "lon": "-107.483333"}, {"lat": "52.6", "city": "Porcupine Plain", "lon": "-103.25"}, {"lat": "56.483333", "city": "Portage La Roche", "lon": "-109.433333"}, {"lat": "52.866667", "city": "Prairie River", "lon": "-102.983333"}, {"lat": "51.95", "city": "Preeceville", "lon": "-102.666667"}, {"lat": "53.2", "city": "Prince Albert", "lon": "-105.75"}, {"lat": "52.966667", "city": "Prince", "lon": "-108.383333"}, {"lat": "50.533333", "city": "Qu'Appelle", "lon": "-103.866667"}, {"lat": "52.066667", "city": "Quill Lake", "lon": "-104.25"}, {"lat": "53.133333", "city": "Rabbit Lake", "lon": "-107.766667"}, {"lat": "52.466667", "city": "Radisson", "lon": "-107.4"}, {"lat": "49.466667", "city": "Radville", "lon": "-104.283333"}, {"lat": "54.150556", "city": "Rapid View", "lon": "-108.809722"}, {"lat": "53.55", "city": "Ravendale", "lon": "-103.416667"}, {"lat": "51.4", "city": "Raymore", "lon": "-104.533333"}, {"lat": "53.016667", "city": "Red Deer Hill", "lon": "-105.8"}, {"lat": "52.45", "city": "Red Pheasant", "lon": "-108.266667"}, {"lat": "49.566667", "city": "Redvers", "lon": "-101.7"}, {"lat": "50.45", "city": "Regina", "lon": "-104.616667"}, {"lat": "52.466667", "city": "Reserve", "lon": "-102.65"}, {"lat": "52.266667", "city": "Revenue", "lon": "-108.9"}, {"lat": "52.3", "city": "Reward", "lon": "-109.366667"}, {"lat": "52.633333", "city": "Reynaud", "lon": "-105.45"}, {"lat": "51.35", "city": "Rhein", "lon": "-102.2"}, {"lat": "50.1", "city": "Riceton", "lon": "-104.316667"}, {"lat": "52.7", "city": "Richard", "lon": "-107.7"}, {"lat": "50.916667", "city": "Riverhurst", "lon": "-106.85"}, {"lat": "49.366667", "city": "Robsart", "lon": "-109.266667"}, {"lat": "50.383333", "city": "Rocanville", "lon": "-101.7"}, {"lat": "49.183333", "city": "Rockglen", "lon": "-105.95"}, {"lat": "50.45", "city": "Roseray", "lon": "-108.45"}, {"lat": "52.65", "city": "Rosethern", "lon": "-106.333333"}, {"lat": "51.55", "city": "Rosetown", "lon": "-107.983333"}, {"lat": "52.65", "city": "Rosthern", "lon": "-106.333333"}, {"lat": "50.183333", "city": "Rouleau", "lon": "-104.9"}, {"lat": "49.783333", "city": "Ryerson", "lon": "-101.666667"}, {"lat": "52.633333", "city": "Saint Brieux", "lon": "-104.883333"}, {"lat": "54.216389", "city": "Saint Cyr Lake", "lon": "-108.051944"}, {"lat": "55.882222", "city": "Saint George's Hill", "lon": "-108.951667"}, {"lat": "52.183333", "city": "Saint Gregor", "lon": "-104.833333"}, {"lat": "52.783333", "city": "Saint-Isidore-de-Bellevue", "lon": "-105.916667"}, {"lat": "52.916667", "city": "Saint Louis", "lon": "-105.8"}, {"lat": "53.633333", "city": "Saint Walberg", "lon": "-109.2"}, {"lat": "53.633333", "city": "Saint Walburg", "lon": "-109.2"}, {"lat": "51.033333", "city": "Saltcoats", "lon": "-102.166667"}, {"lat": "52.166667", "city": "Salvador", "lon": "-109.516667"}, {"lat": "50.983333", "city": "Sanctuary", "lon": "-108.083333"}, {"lat": "53.216667", "city": "Sandwith", "lon": "-108"}, {"lat": "56.983333", "city": "Sandy Lake", "lon": "-107.283333"}, {"lat": "55.066667", "city": "Sandy Narrows", "lon": "-103.066667"}, {"lat": "52.133333", "city": "Saskatoon", "lon": "-106.666667"}, {"lat": "49.716667", "city": "Scotsguard", "lon": "-108.133333"}, {"lat": "51.4", "city": "Semans", "lon": "-104.733333"}, {"lat": "52.5", "city": "Senlac", "lon": "-109.7"}, {"lat": "49.65", "city": "Shaunavon", "lon": "-108.416667"}, {"lat": "51.583333", "city": "Sheho", "lon": "-103.216667"}, {"lat": "53.216667", "city": "Shellbrook", "lon": "-106.4"}, {"lat": "53.3", "city": "Shell Lake", "lon": "-107.05"}, {"lat": "53.483333", "city": "Shipman", "lon": "-104.983333"}, {"lat": "50.8", "city": "Silton", "lon": "-104.916667"}, {"lat": "52.666667", "city": "Silver Park", "lon": "-104.533333"}, {"lat": "49.95", "city": "Simmie", "lon": "-108.1"}, {"lat": "51.45", "city": "Simpson", "lon": "-105.45"}, {"lat": "50.483333", "city": "Sintaluta", "lon": "-103.433333"}, {"lat": "53.483333", "city": "Snowden", "lon": "-104.666667"}, {"lat": "52.583333", "city": "Somme", "lon": "-102.966667"}, {"lat": "52.383333", "city": "Sonningdale", "lon": "-107.666667"}, {"lat": "56.333333", "city": "Southend", "lon": "-103.233333"}, {"lat": "50.933333", "city": "Southey", "lon": "-104.5"}, {"lat": "49.6", "city": "South Fork", "lon": "-108.716667"}, {"lat": "51.516667", "city": "Sovereign", "lon": "-107.716667"}, {"lat": "53.366667", "city": "Spiritwood", "lon": "-107.516667"}, {"lat": "49.95", "city": "Spring Valley", "lon": "-105.4"}, {"lat": "51.966667", "city": "Springwater", "lon": "-108.366667"}, {"lat": "50.6", "city": "Spy Hill", "lon": "-101.683333"}, {"lat": "51.233333", "city": "Stalwart", "lon": "-105.433333"}, {"lat": "55.416667", "city": "Stanley Mission", "lon": "-104.55"}, {"lat": "55.416667", "city": "Stanley", "lon": "-104.55"}, {"lat": "52.866667", "city": "Star City", "lon": "-104.333333"}, {"lat": "51.9", "city": "Stenen", "lon": "-102.35"}, {"lat": "50.6", "city": "Stewart Valley", "lon": "-107.816667"}, {"lat": "59.266667", "city": "Stony Rapids", "lon": "-105.833333"}, {"lat": "52.866667", "city": "Stony", "lon": "-104.6"}, {"lat": "49.683333", "city": "Stoughton", "lon": "-103.016667"}, {"lat": "51.7", "city": "Stranraer", "lon": "-108.483333"}, {"lat": "51.066667", "city": "Strasbourg Station", "lon": "-104.95"}, {"lat": "51.066667", "city": "Strasbourg", "lon": "-104.95"}, {"lat": "54.283333", "city": "Sturgeon Landing", "lon": "-101.816667"}, {"lat": "51.85", "city": "Sturgis", "lon": "-102.533333"}, {"lat": "50.45", "city": "Success", "lon": "-108.083333"}, {"lat": "51.883333", "city": "Superb", "lon": "-109.95"}, {"lat": "49.166667", "city": "Surprise Valley", "lon": "-104.6"}, {"lat": "52.133333", "city": "Sutherland", "lon": "-106.6"}, {"lat": "51.7", "city": "Swanson", "lon": "-107.133333"}, {"lat": "50.283333", "city": "Swift Current", "lon": "-107.766667"}, {"lat": "49.783333", "city": "Talmage", "lon": "-103.666667"}, {"lat": "51.8", "city": "Tessier", "lon": "-107.416667"}, {"lat": "51.433333", "city": "Theodore", "lon": "-102.916667"}, {"lat": "55.75", "city": "The Two Rivers", "lon": "-103.166667"}, {"lat": "51.266667", "city": "Tichfield", "lon": "-107.016667"}, {"lat": "50.066667", "city": "Tompkins", "lon": "-108.8"}, {"lat": "51.216667", "city": "Tonkin", "lon": "-102.25"}, {"lat": "49.133333", "city": "Torquay", "lon": "-103.483333"}, {"lat": "52.283333", "city": "Totzke", "lon": "-105.666667"}, {"lat": "52.133333", "city": "Tramping Lake", "lon": "-108.95"}, {"lat": "49.25", "city": "Tribune", "lon": "-103.816667"}, {"lat": "49.633333", "city": "Trossachs", "lon": "-104.216667"}, {"lat": "49.916667", "city": "Truax", "lon": "-104.95"}, {"lat": "53.383333", "city": "Turtleford", "lon": "-108.966667"}, {"lat": "50.583333", "city": "Tuxford", "lon": "-105.583333"}, {"lat": "52.733333", "city": "Tway", "lon": "-105.45"}, {"lat": "51.016667", "city": "Tyner", "lon": "-108.433333"}, {"lat": "52.433333", "city": "Unity", "lon": "-109.166667"}, {"lat": "59.566667", "city": "Uranium City", "lon": "-108.616667"}, {"lat": "52.25", "city": "Usherville", "lon": "-102.666667"}, {"lat": "50.75", "city": "Valeport", "lon": "-104.866667"}, {"lat": "51.8", "city": "Valley Centre", "lon": "-107.85"}, {"lat": "49.233333", "city": "Val Marie", "lon": "-107.733333"}, {"lat": "49.9", "city": "Vanguard", "lon": "-107.3"}, {"lat": "52", "city": "Vanscoy", "lon": "-106.983333"}, {"lat": "49.833333", "city": "Vantage", "lon": "-106.033333"}, {"lat": "50.316667", "city": "Verlo", "lon": "-108.616667"}, {"lat": "49.516667", "city": "Verwood", "lon": "-105.616667"}, {"lat": "51.95", "city": "Viscount", "lon": "-105.633333"}, {"lat": "52.316667", "city": "Vonda", "lon": "-106.1"}, {"lat": "51.95", "city": "Wadena", "lon": "-103.8"}, {"lat": "52.866667", "city": "Waitville", "lon": "-105.4"}, {"lat": "52.65", "city": "Wakaw", "lon": "-105.733333"}, {"lat": "50.366667", "city": "Waldeck", "lon": "-107.583333"}, {"lat": "52.616667", "city": "Waldheim", "lon": "-106.65"}, {"lat": "49.883333", "city": "Walpole", "lon": "-101.833333"}, {"lat": "50.25", "city": "Wapella", "lon": "-101.966667"}, {"lat": "52.316667", "city": "Warman", "lon": "-106.566667"}, {"lat": "50.416667", "city": "Wascana Centre", "lon": "-104.6"}, {"lat": "53.916667", "city": "Waskesiu Lake", "lon": "-106.083333"}, {"lat": "51.666667", "city": "Watrous", "lon": "-105.466667"}, {"lat": "52.133333", "city": "Watson", "lon": "-104.533333"}, {"lat": "49.9", "city": "Wawota", "lon": "-102.016667"}, {"lat": "50.183333", "city": "Webb", "lon": "-108.2"}, {"lat": "49.666667", "city": "Weyburn", "lon": "-103.85"}, {"lat": "54.035556", "city": "Whelan", "lon": "-109.475"}, {"lat": "50.883333", "city": "White Bear", "lon": "-108.2"}, {"lat": "53.45", "city": "White Fox", "lon": "-104.083333"}, {"lat": "50.333333", "city": "Whitewood", "lon": "-102.25"}, {"lat": "52.933333", "city": "Whitkow", "lon": "-107.866667"}, {"lat": "52.416667", "city": "Wilkie", "lon": "-108.7"}, {"lat": "51.2", "city": "Willowbrook", "lon": "-102.8"}, {"lat": "49.4", "city": "Willow Bunch", "lon": "-105.633333"}, {"lat": "52.916667", "city": "Wingard", "lon": "-106.4"}, {"lat": "52.616667", "city": "Winter", "lon": "-109.5"}, {"lat": "51.316667", "city": "Wiseton", "lon": "-107.65"}, {"lat": "51.55", "city": "Wishart", "lon": "-103.966667"}, {"lat": "52.3", "city": "Wolfe", "lon": "-108.516667"}, {"lat": "58.05", "city": "Wollaston Lake Post", "lon": "-103.55"}, {"lat": "50.416667", "city": "Wolseley", "lon": "-103.266667"}, {"lat": "49.366667", "city": "Wood Mountain Station", "lon": "-106.383333"}, {"lat": "49.366667", "city": "Wood Mountain", "lon": "-106.383333"}, {"lat": "53.65", "city": "Wrixon", "lon": "-106.983333"}, {"lat": "51.216667", "city": "Wroxton", "lon": "-101.883333"}, {"lat": "50.116667", "city": "Wymark", "lon": "-107.733333"}, {"lat": "51.766667", "city": "Wynyard", "lon": "-104.183333"}, {"lat": "49.816667", "city": "Yellow Grass", "lon": "-104.15"}, {"lat": "52.65", "city": "Yonker", "lon": "-109.666667"}, {"lat": "51.216667", "city": "Yorkton", "lon": "-102.466667"}, {"lat": "51.766667", "city": "Young", "lon": "-105.75"}, {"lat": "51.616667", "city": "Zealandia", "lon": "-107.75"}, {"lat": "50.566667", "city": "Zehner", "lon": "-104.45"}], "13": [{"lat": "68.216667", "city": "Aklavika", "lon": "-135"}, {"lat": "68.216667", "city": "Aklavik", "lon": "-135"}, {"lat": "69.733333", "city": "Anderson River", "lon": "-128.95"}, {"lat": "67.433333", "city": "Arctic Red River", "lon": "-133.75"}, {"lat": "60.016667", "city": "Bell Rock", "lon": "-112.1"}, {"lat": "69.45", "city": "Brabant", "lon": "-133.066667"}, {"lat": "60.883333", "city": "Buffalo River", "lon": "-115.033333"}, {"lat": "66.05", "city": "Cameron Bay", "lon": "-117.883333"}, {"lat": "62.983333", "city": "Camlaren", "lon": "-113.2"}, {"lat": "65.233333", "city": "Camp Canol", "lon": "-127.083333"}, {"lat": "65.233333", "city": "Canol Camp", "lon": "-127.083333"}, {"lat": "65.233333", "city": "Canol", "lon": "-127.083333"}, {"lat": "70.166667", "city": "Cape Parry", "lon": "-124.666667"}, {"lat": "71.616667", "city": "Collinson", "lon": "-117.95"}, {"lat": "67.033333", "city": "Colville Lake", "lon": "-126.116667"}, {"lat": "60.033333", "city": "Cunningham Landing", "lon": "-112.133333"}, {"lat": "65.183333", "city": "Deline", "lon": "-123.416667"}, {"lat": "66.083333", "city": "Echo Bay", "lon": "-118.033333"}, {"lat": "62.783333", "city": "Edzo", "lon": "-116.033333"}, {"lat": "60.55", "city": "Enterprise", "lon": "-116.133333"}, {"lat": "60.883333", "city": "Fork Lake", "lon": "-111.083333"}, {"lat": "71.616667", "city": "Fort Collinson", "lon": "-117.95"}, {"lat": "64.483333", "city": "Fort Enterprise", "lon": "-113.166667"}, {"lat": "65.183333", "city": "Fort Franklin", "lon": "-123.416667"}, {"lat": "66.266667", "city": "Fort Good Hope", "lon": "-128.633333"}, {"lat": "60.233333", "city": "Fort Liard", "lon": "-123.483333"}, {"lat": "67.433333", "city": "Fort McPherson", "lon": "-134.866667"}, {"lat": "64.9", "city": "Fort Norman", "lon": "-125.583333"}, {"lat": "61.366667", "city": "Fort Providence", "lon": "-117.65"}, {"lat": "66.05", "city": "Fort Radium", "lon": "-117.883333"}, {"lat": "62.833333", "city": "Fort Rae", "lon": "-116.05"}, {"lat": "62.7", "city": "Fort Reliance", "lon": "-109.133333"}, {"lat": "61.166667", "city": "Fort Resolution", "lon": "-113.683333"}, {"lat": "61.85", "city": "Fort Simpson", "lon": "-121.333333"}, {"lat": "60", "city": "Fort Smith", "lon": "-111.883333"}, {"lat": "63.266667", "city": "Fort Wrigley", "lon": "-123.6"}, {"lat": "66.266667", "city": "Good Hope", "lon": "-128.633333"}, {"lat": "60.85", "city": "Hay River", "lon": "-115.7"}, {"lat": "70.733333", "city": "Holman", "lon": "-117.75"}, {"lat": "70.733333", "city": "Holman Island", "lon": "-117.75"}, {"lat": "68.35", "city": "Inuvik", "lon": "-133.7"}, {"lat": "61.516667", "city": "Jean Marie River", "lon": "-120.633333"}, {"lat": "60.933333", "city": "Kakisa", "lon": "-117.416667"}, {"lat": "69.35", "city": "Kittigagzyt", "lon": "-133.716667"}, {"lat": "69.35", "city": "Kittigaruit", "lon": "-133.716667"}, {"lat": "69.35", "city": "Kittigaryuit", "lon": "-133.716667"}, {"lat": "69.35", "city": "Kittigazuit", "lon": "-133.716667"}, {"lat": "63.133333", "city": "Lac la Martre", "lon": "-117.266667"}, {"lat": "69.85", "city": "Letty Harbour", "lon": "-124.433333"}, {"lat": "60.233333", "city": "Liard", "lon": "-123.483333"}, {"lat": "62.4", "city": "Lutselk'e", "lon": "-110.733333"}, {"lat": "66.5", "city": "Marten House", "lon": "-133.066667"}, {"lat": "66.5", "city": "Martin House", "lon": "-133.066667"}, {"lat": "67.433333", "city": "McPherson", "lon": "-134.866667"}, {"lat": "61.3", "city": "Mills Lake", "lon": "-118.666667"}, {"lat": "76.233333", "city": "Mould Bay", "lon": "-119.333333"}, {"lat": "61.05", "city": "Nahanni Butte", "lon": "-123.366667"}, {"lat": "64.9", "city": "Norman", "lon": "-125.583333"}, {"lat": "65.283333", "city": "Norman Wells", "lon": "-126.85"}, {"lat": "69.383333", "city": "Paulatuk", "lon": "-123.983333"}, {"lat": "60.833333", "city": "Pine Point", "lon": "-114.466667"}, {"lat": "69.45", "city": "Port Brabant", "lon": "-133.066667"}, {"lat": "66.05", "city": "Port Radium", "lon": "-117.883333"}, {"lat": "61.366667", "city": "Providence", "lon": "-117.65"}, {"lat": "62.833333", "city": "Rae", "lon": "-116.05"}, {"lat": "61.116667", "city": "Rat River", "lon": "-112.583333"}, {"lat": "68.7", "city": "Reindeer Depot", "lon": "-134.116667"}, {"lat": "62.7", "city": "Reliance", "lon": "-109.133333"}, {"lat": "61.166667", "city": "Resolution", "lon": "-113.683333"}, {"lat": "61.383333", "city": "Rocher River", "lon": "-112.75"}, {"lat": "71.983333", "city": "Sachs Harbour", "lon": "-125.2"}, {"lat": "60.1", "city": "Salt River", "lon": "-112.233333"}, {"lat": "61.85", "city": "Simpson", "lon": "-121.333333"}, {"lat": "64.183333", "city": "Snare Lake", "lon": "-114.183333"}, {"lat": "64.183333", "city": "Snare Lakes", "lon": "-114.183333"}, {"lat": "62.4", "city": "Snowdrift", "lon": "-110.733333"}, {"lat": "61.05", "city": "South Nahanni", "lon": "-123.366667"}, {"lat": "69.75", "city": "Stanton", "lon": "-128.866667"}, {"lat": "61.383333", "city": "Talston River", "lon": "-112.75"}, {"lat": "61.383333", "city": "Taltson River", "lon": "-112.75"}, {"lat": "62.616667", "city": "Thompson Lake", "lon": "-113.466667"}, {"lat": "60.433333", "city": "Trout Lake", "lon": "-121.25"}, {"lat": "67.433333", "city": "Tsiigehtchic", "lon": "-133.75"}, {"lat": "61.05", "city": "Tthenaagoo", "lon": "-123.366667"}, {"lat": "69.45", "city": "Tuktoyaktuk", "lon": "-133.066667"}, {"lat": "69.45", "city": "Tuktuk", "lon": "-133.066667"}, {"lat": "64.9", "city": "Tulita", "lon": "-125.583333"}, {"lat": "61.95", "city": "Tungsten", "lon": "-128.266667"}, {"lat": "69", "city": "Tununuk", "lon": "-134.666667"}, {"lat": "70.733333", "city": "Ulusaktuk", "lon": "-117.75"}, {"lat": "64.183333", "city": "Wekweti", "lon": "-114.183333"}, {"lat": "63.133333", "city": "Wha Ti", "lon": "-117.266667"}, {"lat": "63.266667", "city": "Wrigley", "lon": "-123.6"}, {"lat": "62.45", "city": "Yellowknife", "lon": "-114.35"}], "01": [{"lat": "54.233333", "city": "Abee", "lon": "-113.016667"}, {"lat": "51.15", "city": "Acadia Valley", "lon": "-110.2"}, {"lat": "51.5", "city": "Acme", "lon": "-113.5"}, {"lat": "58.383333", "city": "Adams Landing", "lon": "-115.116667"}, {"lat": "51.266667", "city": "Airdrie", "lon": "-114.016667"}, {"lat": "55.266667", "city": "Albright", "lon": "-119.5"}, {"lat": "50.283333", "city": "Alderson", "lon": "-111.35"}, {"lat": "52.466667", "city": "Alexo", "lon": "-115.783333"}, {"lat": "52.4", "city": "Alix", "lon": "-113.183333"}, {"lat": "52.433333", "city": "Alliance", "lon": "-111.783333"}, {"lat": "54.426111", "city": "Alpen", "lon": "-112.923611"}, {"lat": "54.4275", "city": "Alpen Siding", "lon": "-112.954722"}, {"lat": "54.733333", "city": "Amber Valley", "lon": "-112.930833"}, {"lat": "55.081944", "city": "Amesbury", "lon": "-112.496667"}, {"lat": "53.883333", "city": "Andrew", "lon": "-112.333333"}, {"lat": "54.332222", "city": "Ardmore", "lon": "-110.477222"}, {"lat": "53.55", "city": "Ardrossan", "lon": "-113.133333"}, {"lat": "54.129722", "city": "Ashmont", "lon": "-111.568056"}, {"lat": "49.933333", "city": "Askow", "lon": "-111.7"}, {"lat": "54.716667", "city": "Athabasca", "lon": "-113.266667"}, {"lat": "54.716667", "city": "Athabaska", "lon": "-113.266667"}, {"lat": "55.916667", "city": "Atikameg", "lon": "-115.65"}, {"lat": "50.85", "city": "Atlee", "lon": "-110.95"}, {"lat": "54.819444", "city": "Atmore", "lon": "-112.548056"}, {"lat": "55.037778", "city": "Avenir", "lon": "-112.279722"}, {"lat": "51.216667", "city": "Balzac", "lon": "-114.016667"}, {"lat": "51.166667", "city": "Banff", "lon": "-115.566667"}, {"lat": "54.180833", "city": "Barich", "lon": "-112.626944"}, {"lat": "49.983333", "city": "Barons", "lon": "-113.083333"}, {"lat": "54.116667", "city": "Barrhead", "lon": "-114.4"}, {"lat": "52.583333", "city": "Bashaw", "lon": "-112.966667"}, {"lat": "50.783333", "city": "Bassano", "lon": "-112.466667"}, {"lat": "54.181389", "city": "Beacon Corner", "lon": "-111.151389"}, {"lat": "53.37", "city": "Beaumont", "lon": "-113.41"}, {"lat": "54.361944", "city": "Beaver Crossing", "lon": "-110.205833"}, {"lat": "54.203611", "city": "Beaverdam", "lon": "-110.306667"}, {"lat": "54.759722", "city": "Beaver Lake", "lon": "-111.9125"}, {"lat": "55.2", "city": "Beaverlodge", "lon": "-119.45"}, {"lat": "54.37", "city": "Beaver River", "lon": "-110.270833"}, {"lat": "51.383333", "city": "Beiseker", "lon": "-113.533333"}, {"lat": "49.583333", "city": "Bellevue", "lon": "-114.366667"}, {"lat": "54.143056", "city": "Bellis", "lon": "-112.151111"}, {"lat": "55.75", "city": "Belloy", "lon": "-118.233333"}, {"lat": "52.3", "city": "Benalto", "lon": "-114.283333"}, {"lat": "52.466667", "city": "Bentley", "lon": "-114.05"}, {"lat": "51.35", "city": "Benton", "lon": "-110.333333"}, {"lat": "51.35", "city": "Benton Station", "lon": "-110.333333"}, {"lat": "51.7", "city": "Bergen", "lon": "-114.633333"}, {"lat": "56.15", "city": "Berwyn", "lon": "-117.75"}, {"lat": "53.566667", "city": "Beverly", "lon": "-113.4"}, {"lat": "53.55", "city": "Bickerdike", "lon": "-116.633333"}, {"lat": "54.395556", "city": "Big Meadow", "lon": "-110.653889"}, {"lat": "52.033333", "city": "Big Valley", "lon": "-112.75"}, {"lat": "53.7", "city": "Bilby", "lon": "-114.1"}, {"lat": "50.883333", "city": "Bindloss", "lon": "-110.266667"}, {"lat": "53", "city": "Bittern Lake", "lon": "-113.05"}, {"lat": "57.383333", "city": "Bitumount", "lon": "-111.633333"}, {"lat": "50.7", "city": "Black Diamond", "lon": "-114.233333"}, {"lat": "52.383333", "city": "Blackfalds", "lon": "-113.8"}, {"lat": "50.6", "city": "Blackie", "lon": "-113.616667"}, {"lat": "49.6", "city": "Blairmore", "lon": "-114.433333"}, {"lat": "54.879722", "city": "Blue Jay", "lon": "-112.5225"}, {"lat": "54.116667", "city": "Blue Ridge", "lon": "-115.383333"}, {"lat": "56.066667", "city": "Bluesky", "lon": "-118.25"}, {"lat": "52.75", "city": "Bluffton", "lon": "-114.283333"}, {"lat": "52.15", "city": "Bodo", "lon": "-110.083333"}, {"lat": "53.833333", "city": "Bon Accord", "lon": "-113.416667"}, {"lat": "54.595278", "city": "Bondiss", "lon": "-112.701944"}, {"lat": "54.229722", "city": "Bonnyville Beach", "lon": "-110.862778"}, {"lat": "54.267778", "city": "Bonnyville", "lon": "-110.750833"}, {"lat": "54.152778", "city": "Boscombe", "lon": "-111.43"}, {"lat": "51.916667", "city": "Bowden", "lon": "-114.033333"}, {"lat": "49.866667", "city": "Bow Island", "lon": "-111.366667"}, {"lat": "51.083333", "city": "Bowness", "lon": "-114.166667"}, {"lat": "49.933333", "city": "Bow River", "lon": "-111.7"}, {"lat": "54.590833", "city": "Boyle", "lon": "-112.809167"}, {"lat": "52.466667", "city": "Brazeau", "lon": "-116.083333"}, {"lat": "52.466667", "city": "Brazeou", "lon": "-116.083333"}, {"lat": "53.433333", "city": "Bretona", "lon": "-113.333333"}, {"lat": "53.116667", "city": "Breton", "lon": "-114.483333"}, {"lat": "55.141111", "city": "Breynat", "lon": "-112.493611"}, {"lat": "54.472778", "city": "Briereville", "lon": "-111.773889"}, {"lat": "49.55", "city": "Brocket", "lon": "-113.766667"}, {"lat": "50.566667", "city": "Brooks", "lon": "-111.9"}, {"lat": "56.116667", "city": "Brownvale", "lon": "-117.9"}, {"lat": "53.8", "city": "Bruederheim", "lon": "-112.916667"}, {"lat": "50.8", "city": "Buffalo", "lon": "-110.683333"}, {"lat": "53.95", "city": "Busby", "lon": "-113.9"}, {"lat": "51.083333", "city": "Calgary", "lon": "-114.083333"}, {"lat": "55.25", "city": "Calling Lake", "lon": "-113.2"}, {"lat": "55.091667", "city": "Calling River", "lon": "-112.887778"}, {"lat": "53.25", "city": "Calmar", "lon": "-113.783333"}, {"lat": "53.016667", "city": "Camrose", "lon": "-112.816667"}, {"lat": "51.1", "city": "Canmore", "lon": "-115.35"}, {"lat": "53.75", "city": "Carbondale", "lon": "-113.533333"}, {"lat": "49.2", "city": "Cardston", "lon": "-113.316667"}, {"lat": "52.083333", "city": "Caroline", "lon": "-114.75"}, {"lat": "50.85", "city": "Carseland", "lon": "-113.466667"}, {"lat": "51.533333", "city": "Carstairs", "lon": "-114.1"}, {"lat": "49.016667", "city": "Carway", "lon": "-113.383333"}, {"lat": "54.631667", "city": "Caslan", "lon": "-112.511667"}, {"lat": "50.583333", "city": "Cassils", "lon": "-112.05"}, {"lat": "51.266667", "city": "Castle Junction", "lon": "-115.916667"}, {"lat": "52.216667", "city": "Castor", "lon": "-111.9"}, {"lat": "50.816667", "city": "Cavendish", "lon": "-110.466667"}, {"lat": "50.45", "city": "Cayley", "lon": "-113.85"}, {"lat": "51.416667", "city": "Cereal", "lon": "-110.8"}, {"lat": "50.216667", "city": "Champion", "lon": "-113.15"}, {"lat": "55.846111", "city": "Chard", "lon": "-110.907222"}, {"lat": "52.683333", "city": "Chauvin", "lon": "-110.133333"}, {"lat": "51.016667", "city": "Cheadle", "lon": "-113.533333"}, {"lat": "53.816667", "city": "Cherhill", "lon": "-114.666667"}, {"lat": "54.355", "city": "Cherry Grove", "lon": "-110.08"}, {"lat": "56.183333", "city": "Cherry Point", "lon": "-119.95"}, {"lat": "51.03", "city": "Chestermere", "lon": "-113.83"}, {"lat": "49.766667", "city": "Chin", "lon": "-112.45"}, {"lat": "56.433333", "city": "Chinook Valley", "lon": "-117.6"}, {"lat": "58.716667", "city": "Chipewyan", "lon": "-111.15"}, {"lat": "53.616667", "city": "Chip Lake", "lon": "-115.45"}, {"lat": "53.7", "city": "Chipman", "lon": "-112.633333"}, {"lat": "54.916667", "city": "Chisholm", "lon": "-114.166667"}, {"lat": "54.916667", "city": "Chisholm Mills", "lon": "-114.166667"}, {"lat": "55.266667", "city": "Clairmont", "lon": "-118.8"}, {"lat": "53.583333", "city": "Clandonald", "lon": "-110.716667"}, {"lat": "50.033333", "city": "Claresholm", "lon": "-113.583333"}, {"lat": "56.533333", "city": "Clear Hills", "lon": "-117.883333"}, {"lat": "56.583333", "city": "Clear Prairie", "lon": "-119.5"}, {"lat": "52.483333", "city": "Clive", "lon": "-113.45"}, {"lat": "49.733333", "city": "Coaldale", "lon": "-112.616667"}, {"lat": "53.183333", "city": "Coalspar", "lon": "-117.016667"}, {"lat": "53.183333", "city": "Coalspur", "lon": "-117.016667"}, {"lat": "51.2", "city": "Cochrane", "lon": "-114.45"}, {"lat": "54.465", "city": "Cold Lake", "lon": "-110.183056"}, {"lat": "49.633333", "city": "Coleman", "lon": "-114.5"}, {"lat": "51.866667", "city": "Compeer", "lon": "-110.016667"}, {"lat": "55.6325", "city": "Conklin", "lon": "-111.082778"}, {"lat": "53.183333", "city": "Connelly", "lon": "-110.783333"}, {"lat": "53.183333", "city": "Connolly", "lon": "-110.783333"}, {"lat": "52.016667", "city": "Consort", "lon": "-110.8"}, {"lat": "52.083333", "city": "Coronation", "lon": "-111.45"}, {"lat": "49", "city": "Coutts", "lon": "-111.95"}, {"lat": "49.566667", "city": "Cowley", "lon": "-114.066667"}, {"lat": "54.595833", "city": "Craigend", "lon": "-111.921111"}, {"lat": "51.666667", "city": "Craigmyle", "lon": "-112.233333"}, {"lat": "51.55", "city": "Cremona", "lon": "-114.466667"}, {"lat": "51.433333", "city": "Crossfield", "lon": "-114.033333"}, {"lat": "50.816667", "city": "Crowfoot", "lon": "-112.666667"}, {"lat": "55.783333", "city": "Culp", "lon": "-117.533333"}, {"lat": "52.45", "city": "Czar", "lon": "-110.833333"}, {"lat": "54.799167", "city": "Dakin", "lon": "-112.573333"}, {"lat": "54.35", "city": "Dapp", "lon": "-113.916667"}, {"lat": "52.866667", "city": "Daysland", "lon": "-112.25"}, {"lat": "56.733333", "city": "Deadwood", "lon": "-117.516667"}, {"lat": "52.2", "city": "Delburne", "lon": "-113.233333"}, {"lat": "54.007222", "city": "Delph", "lon": "-112.678889"}, {"lat": "55.45", "city": "Demmitt", "lon": "-119.9"}, {"lat": "55.534722", "city": "Devenish", "lon": "-111.196667"}, {"lat": "53.366667", "city": "Devon", "lon": "-113.733333"}, {"lat": "51.666667", "city": "Didsbury", "lon": "-114.133333"}, {"lat": "52.933333", "city": "Dina", "lon": "-110.083333"}, {"lat": "56.533333", "city": "Dixonville", "lon": "-117.666667"}, {"lat": "51.466667", "city": "Dogpound", "lon": "-114.383333"}, {"lat": "52.583333", "city": "Donalda", "lon": "-112.566667"}, {"lat": "54.748056", "city": "Donatville", "lon": "-112.804167"}, {"lat": "55.733333", "city": "Donnelly", "lon": "-117.116667"}, {"lat": "51.283333", "city": "Dorothy", "lon": "-112.316667"}, {"lat": "55.616667", "city": "Doussal", "lon": "-116.833333"}, {"lat": "51.766667", "city": "Dowling", "lon": "-112"}, {"lat": "53.216667", "city": "Drayton Valley", "lon": "-114.983333"}, {"lat": "55.35", "city": "Driftpile", "lon": "-115.766667"}, {"lat": "53.433333", "city": "Drinnan", "lon": "-117.533333"}, {"lat": "51.466667", "city": "Drumheller", "lon": "-112.7"}, {"lat": "50.733333", "city": "Duchess", "lon": "-111.9"}, {"lat": "53.516667", "city": "Duffield", "lon": "-114.333333"}, {"lat": "49.966667", "city": "Dunmore", "lon": "-110.583333"}, {"lat": "54.284167", "city": "Durlingville", "lon": "-110.649444"}, {"lat": "53.783333", "city": "Duvernay", "lon": "-111.683333"}, {"lat": "51.816667", "city": "Eagle Hill", "lon": "-114.366667"}, {"lat": "55.783333", "city": "Eaglesham", "lon": "-117.9"}, {"lat": "51.333333", "city": "East Coulee", "lon": "-112.483333"}, {"lat": "52.75", "city": "Edgerton", "lon": "-110.45"}, {"lat": "53.55", "city": "Edmonton", "lon": "-113.5"}, {"lat": "53.583333", "city": "Edson", "lon": "-116.416667"}, {"lat": "54.143889", "city": "Edwand", "lon": "-112.275833"}, {"lat": "54.033333", "city": "Egremont", "lon": "-113.116667"}, {"lat": "51.266667", "city": "Eisenhower Junction", "lon": "-115.916667"}, {"lat": "53.9", "city": "Elk Point", "lon": "-110.9"}, {"lat": "54.503611", "city": "Ellscott", "lon": "-112.900833"}, {"lat": "58.45", "city": "Embarras Portage", "lon": "-111.5"}, {"lat": "50.966667", "city": "Empress", "lon": "-110.016667"}, {"lat": "50.166667", "city": "Enchant", "lon": "-112.416667"}, {"lat": "51.966667", "city": "Endiang", "lon": "-112.15"}, {"lat": "55.416667", "city": "Enilda", "lon": "-117.316667"}, {"lat": "50.466667", "city": "Ensign", "lon": "-113.433333"}, {"lat": "53.366667", "city": "Entrance", "lon": "-117.7"}, {"lat": "53.516667", "city": "Entwistle", "lon": "-114.966667"}, {"lat": "53.416667", "city": "Erith", "lon": "-116.683333"}, {"lat": "51.683333", "city": "Esther", "lon": "-110.25"}, {"lat": "49.483333", "city": "Etzikom", "lon": "-111.1"}, {"lat": "51.383333", "city": "Excel", "lon": "-110.566667"}, {"lat": "56.066667", "city": "Fairview", "lon": "-118.4"}, {"lat": "55.316667", "city": "Faust", "lon": "-115.716667"}, {"lat": "54.533333", "city": "Fawcett", "lon": "-114.083333"}, {"lat": "52.133333", "city": "Fenn", "lon": "-112.75"}, {"lat": "52.766667", "city": "Ferintosh", "lon": "-112.966667"}, {"lat": "52.366667", "city": "Ferrier", "lon": "-115.066667"}, {"lat": "51.133333", "city": "Finnegan", "lon": "-112.083333"}, {"lat": "59.866667", "city": "Fitgerald", "lon": "-111.6"}, {"lat": "59.866667", "city": "Fitzgerald", "lon": "-111.6"}, {"lat": "54.683333", "city": "Flatbush", "lon": "-114.15"}, {"lat": "54.130278", "city": "Flat Lake", "lon": "-111.151667"}, {"lat": "52.15", "city": "Fleet", "lon": "-111.733333"}, {"lat": "53.066667", "city": "Foothills", "lon": "-116.783333"}, {"lat": "49.483333", "city": "Foremost", "lon": "-111.433333"}, {"lat": "52.583333", "city": "Forestburg", "lon": "-112.066667"}, {"lat": "51.033333", "city": "Forest Lawn", "lon": "-113.966667"}, {"lat": "54.468889", "city": "Fork Lake", "lon": "-111.617778"}, {"lat": "54.333333", "city": "Fort Assiniboine", "lon": "-114.766667"}, {"lat": "58.716667", "city": "Fort Chipewyan", "lon": "-111.15"},