{"CG": {"11": [{"lat": "-3.36", "city": "Abala", "lon": "15.4758333"}, {"lat": "-4.1933333", "city": "Abankima", "lon": "14.4838889"}, {"lat": "-3.1827778", "city": "Adjipo", "lon": "16.1738889"}, {"lat": "-3.2294444", "city": "Amosabo", "lon": "15.8322222"}, {"lat": "-3.2333333", "city": "Ampo", "lon": "15.95"}, {"lat": "-3.4044444", "city": "Anka", "lon": "15.4308333"}, {"lat": "-3.1833333", "city": "Antanimpo", "lon": "16.0666667"}, {"lat": "-3.6391667", "city": "Bab\u00e9la", "lon": "14.485"}, {"lat": "-4.2958333", "city": "Bacongo", "lon": "15.2236111"}, {"lat": "-3.9716667", "city": "Bacoula", "lon": "15.8055556"}, {"lat": "-3.4013889", "city": "Bademousi", "lon": "14.595"}, {"lat": "-4.4141667", "city": "Badimo", "lon": "14.9641667"}, {"lat": "-4.5913889", "city": "Badimosi", "lon": "14.4272222"}, {"lat": "-4.5913889", "city": "Badimossi", "lon": "14.4272222"}, {"lat": "-3.975", "city": "Bakava", "lon": "15.7688889"}, {"lat": "-3.9716667", "city": "Bakoula", "lon": "15.8055556"}, {"lat": "-4.1330556", "city": "Balouro", "lon": "15.3505556"}, {"lat": "-4.2222222", "city": "Bamba", "lon": "14.1997222"}, {"lat": "-4.0875", "city": "Bambabamba", "lon": "14.6736111"}, {"lat": "-3.3427778", "city": "Bambala", "lon": "14.1425"}, {"lat": "-4.2744444", "city": "Bamboma", "lon": "15.1366667"}, {"lat": "-3.2166667", "city": "Bampo", "lon": "16.1833333"}, {"lat": "-4.355", "city": "Bandi", "lon": "14.7719444"}, {"lat": "-3.3136111", "city": "Bandzibiki\u00e9", "lon": "14.1222222"}, {"lat": "-3.9944444", "city": "Bangi", "lon": "15.6633333"}, {"lat": "-4.2005556", "city": "Bango", "lon": "14.6222222"}, {"lat": "-3.9413889", "city": "Bangou", "lon": "14.4094444"}, {"lat": "-4.0822222", "city": "Banianda", "lon": "14.4152778"}, {"lat": "-3.9527778", "city": "Banpakasa", "lon": "14.4605556"}, {"lat": "-4.6194444", "city": "Banza Baka", "lon": "14.4336111"}, {"lat": "-4.6861111", "city": "Banza Bemb\u00e9", "lon": "14.7702778"}, {"lat": "-4.5163889", "city": "Banza-Dounga", "lon": "15.0266667"}, {"lat": "-4.6433333", "city": "Banzagalangala", "lon": "14.8877778"}, {"lat": "-4.5686111", "city": "Banzageri", "lon": "14.9222222"}, {"lat": "-4.3286111", "city": "Banza-Gounga", "lon": "15.1566667"}, {"lat": "-4.5686111", "city": "Banzagueri", "lon": "14.9222222"}, {"lat": "-4.1438889", "city": "Banzamboma", "lon": "14.9505556"}, {"lat": "-4.0194444", "city": "Banzangoun", "lon": "14.5772222"}, {"lat": "-4.3458333", "city": "Banzangu\u00e9ri", "lon": "14.9908333"}, {"lat": "-4.6241667", "city": "Banza-Tombo", "lon": "14.5583333"}, {"lat": "-4.3505556", "city": "Banzi\u00e9mo", "lon": "14.7530556"}, {"lat": "-4.2958333", "city": "Baoongo", "lon": "15.2236111"}, {"lat": "-4.1541667", "city": "Baratier", "lon": "14.9019444"}, {"lat": "-3.5791667", "city": "Basongila", "lon": "14.3838889"}, {"lat": "-3.3666667", "city": "Bazam", "lon": "15.5"}, {"lat": "-4.5105556", "city": "B\u00e9b\u00e9zi", "lon": "14.7422222"}, {"lat": "-4.825", "city": "Bela", "lon": "14.7527778"}, {"lat": "-4.825", "city": "B\u00e9la-Bongo", "lon": "14.7527778"}, {"lat": "-3.2794444", "city": "Bemba", "lon": "14.3663889"}, {"lat": "-3.3833333", "city": "Bemba-Loisa", "lon": "14.4666667"}, {"lat": "-4.6247222", "city": "Bens\u00e9k\u00e9", "lon": "14.6897222"}, {"lat": "-3.8383333", "city": "B\u00e9sio", "lon": "15.3416667"}, {"lat": "-4.5447222", "city": "Biboua", "lon": "14.48"}, {"lat": "-4.7769444", "city": "Biboubou", "lon": "14.6555556"}, {"lat": "-3.2936111", "city": "Bibroua", "lon": "14.4252778"}, {"lat": "-4.2863889", "city": "Bikata", "lon": "14.1386111"}, {"lat": "-4.6013889", "city": "Bik\u00e9k\u00e9", "lon": "14.5738889"}, {"lat": "-4.5777778", "city": "Bikonga", "lon": "14.7733333"}, {"lat": "-4.1625", "city": "Bikoulou", "lon": "14.3216667"}, {"lat": "-3.0263889", "city": "Biliki", "lon": "16.1827778"}, {"lat": "-3.2969444", "city": "Bilolo", "lon": "14.5816667"}, {"lat": "-3.8247222", "city": "Bilongo", "lon": "14.5408333"}, {"lat": "-3.4483333", "city": "Bilouboudi", "lon": "14.5361111"}, {"lat": "-3.35", "city": "Bima Monziba", "lon": "15.5333333"}, {"lat": "-4.5125", "city": "Bimbouloulou", "lon": "14.5794444"}, {"lat": "-4.1555556", "city": "Bim\u00e9", "lon": "15.1808333"}, {"lat": "-3.465", "city": "Binkota", "lon": "14.425"}, {"lat": "-4.2975", "city": "Binnsounga", "lon": "14.5602778"}, {"lat": "-4.8675", "city": "Binnsounsou", "lon": "14.6097222"}, {"lat": "-4.3130556", "city": "Binou\u00e8", "lon": "14.6236111"}, {"lat": "-4.8675", "city": "Binsounsou", "lon": "14.6097222"}, {"lat": "-4.7466667", "city": "Bis\u00e9l\u00e9", "lon": "14.6716667"}, {"lat": "-4.7466667", "city": "Biss\u00e9l\u00e9", "lon": "14.6716667"}, {"lat": "-4.3969444", "city": "Bissindza", "lon": "15.1186111"}, {"lat": "-4.3969444", "city": "Bissinja", "lon": "15.1186111"}, {"lat": "-4.2555556", "city": "Bissinnza", "lon": "14.6930556"}, {"lat": "-4.265", "city": "Bitala", "lon": "15.0863889"}, {"lat": "-3.4463889", "city": "Bitanbala", "lon": "14.4672222"}, {"lat": "-4.1444444", "city": "Bitatolo", "lon": "15.2369444"}, {"lat": "-3.8486111", "city": "Bit\u00e9lomono", "lon": "14.8886111"}, {"lat": "-4.1947222", "city": "Bitobianoka", "lon": "14.6358333"}, {"lat": "-4.5908333", "city": "Bitsika I", "lon": "14.56"}, {"lat": "-4.5838889", "city": "Bitsika II", "lon": "14.5461111"}, {"lat": "-4.5838889", "city": "Bitsiki", "lon": "14.5461111"}, {"lat": "-4.1605556", "city": "Bitsoumani", "lon": "14.6041667"}, {"lat": "-3.1147222", "city": "Bokaba", "lon": "16.1683333"}, {"lat": "-3.5788889", "city": "Boka", "lon": "15.2491667"}, {"lat": "-4.1455556", "city": "Boko", "lon": "14.8805556"}, {"lat": "-3.3586111", "city": "Bokolo", "lon": "14.0444444"}, {"lat": "-4.7866667", "city": "Boko Village", "lon": "14.6288889"}, {"lat": "-4.3222222", "city": "Bolo", "lon": "14.6877778"}, {"lat": "-4.6094444", "city": "Bondo", "lon": "14.9152778"}, {"lat": "-4.6377778", "city": "Bondo I", "lon": "14.9213889"}, {"lat": "-4.6411111", "city": "Bondo II", "lon": "14.9047222"}, {"lat": "-4.5469444", "city": "Bonza", "lon": "14.9286111"}, {"lat": "-4.4119444", "city": "Bordo", "lon": "14.4866667"}, {"lat": "-4.2502778", "city": "Bouaboua", "lon": "14.1069444"}, {"lat": "-3.9894444", "city": "Bouaki", "lon": "15.6747222"}, {"lat": "-4.3786111", "city": "Bouanissa", "lon": "15.0836111"}, {"lat": "-4.5030556", "city": "Boudzouka", "lon": "14.7811111"}, {"lat": "-3.8466667", "city": "Boudzoumou", "lon": "14.4238889"}, {"lat": "-4.2516667", "city": "Bouend\u00e9 Nkombo", "lon": "14.9780556"}, {"lat": "-4.5505556", "city": "Bou\u00e8ngu\u00e9", "lon": "14.7669444"}, {"lat": "-4.6408333", "city": "Bouenz\u00e9", "lon": "14.7722222"}, {"lat": "-4.8616667", "city": "Boukala", "lon": "14.7158333"}, {"lat": "-3.4455556", "city": "Boukanzi", "lon": "14.5116667"}, {"lat": "-4.2083333", "city": "Bouk\u00e9ni", "lon": "14.5327778"}, {"lat": "-4.1986111", "city": "Bouki\u00e9ro", "lon": "15.285"}, {"lat": "-4.0833333", "city": "Boukondjo", "lon": "15.0"}, {"lat": "-3.4427778", "city": "Boukonzo", "lon": "14.435"}, {"lat": "-3.7666667", "city": "Boula N'Kio", "lon": "15.2833333"}, {"lat": "-3.8194444", "city": "Boulankio", "lon": "15.255"}, {"lat": "-3.7666667", "city": "Boulankio I", "lon": "15.2833333"}, {"lat": "-3.7333333", "city": "Boulankio II", "lon": "15.2833333"}, {"lat": "-4.0308333", "city": "Bouninnga", "lon": "14.5808333"}, {"lat": "-4.0227778", "city": "Bounkassi", "lon": "14.6186111"}, {"lat": "-3.6527778", "city": "Bounsana", "lon": "14.5469444"}, {"lat": "-3.7866667", "city": "Boutsana", "lon": "14.5569444"}, {"lat": "-3.8530556", "city": "Boutsari", "lon": "14.3752778"}, {"lat": "-4.36", "city": "Boutsouka", "lon": "15.07"}, {"lat": "-4.7163889", "city": "Bouyala", "lon": "14.6991667"}, {"lat": "-4.7297222", "city": "Bouyala I", "lon": "14.7208333"}, {"lat": "-4.7222222", "city": "Bouyala II", "lon": "14.7027778"}, {"lat": "-3.8222222", "city": "Bouyanou", "lon": "14.4113889"}, {"lat": "-4.2530556", "city": "Brusseaux", "lon": "14.5944444"}, {"lat": "-4.2530556", "city": "Brusseauz", "lon": "14.5944444"}, {"lat": "-3.1833333", "city": "Campement Antanimpo", "lon": "16.0666667"}, {"lat": "-3.7022222", "city": "Campement Ingou", "lon": "15.5027778"}, {"lat": "-3.9713889", "city": "Campement Inion", "lon": "15.3841667"}, {"lat": "-3.9186111", "city": "Campement Iny\u00e9", "lon": "15.4011111"}, {"lat": "-3.93", "city": "Campement Inyou\u00e9m\u00e9", "lon": "15.3855556"}, {"lat": "-3.2333333", "city": "Campo", "lon": "16.1833333"}, {"lat": "-4.1863889", "city": "Case Barnier", "lon": "15.2002778"}, {"lat": "-4.1480556", "city": "Comba", "lon": "15.1458333"}, {"lat": "-4.1044444", "city": "Compani", "lon": "14.9091667"}, {"lat": "-3.6397222", "city": "Dakar Mousolo", "lon": "14.5147222"}, {"lat": "-4.2197222", "city": "Dalat", "lon": "15.1752778"}, {"lat": "-4.2663889", "city": "De Chavannes", "lon": "14.0888889"}, {"lat": "-4.6030556", "city": "Dibengi", "lon": "14.5997222"}, {"lat": "-4.6030556", "city": "Dib\u00e8ngui", "lon": "14.5997222"}, {"lat": "-4.6219444", "city": "Dikok\u00e9l\u00e9", "lon": "14.8155556"}, {"lat": "-4.6575", "city": "Dimba", "lon": "14.6908333"}, {"lat": "-3.1669444", "city": "Djoko", "lon": "16.175"}, {"lat": "-3.4694444", "city": "Djoua", "lon": "15.4397222"}, {"lat": "-4.0444444", "city": "Doba", "lon": "14.6288889"}, {"lat": "-4.6080556", "city": "Doukabakoutala", "lon": "14.8936111"}, {"lat": "-3.8888889", "city": "Dzanza", "lon": "14.3158333"}, {"lat": "-3.4097222", "city": "Dziba", "lon": "15.3083333"}, {"lat": "-3.4925", "city": "Dzio-Dzio", "lon": "15.3091667"}, {"lat": "-3.5083333", "city": "Dzokotro", "lon": "14.0616667"}, {"lat": "-3.2441667", "city": "Dzouala", "lon": "14.4713889"}, {"lat": "-3.8911111", "city": "Dzoumbou", "lon": "14.3683333"}, {"lat": "-3.3316667", "city": "Ekomo", "lon": "14.1369444"}, {"lat": "-3.8277778", "city": "Emanika", "lon": "14.4322222"}, {"lat": "-3.2416667", "city": "Esasiba", "lon": "15.8463889"}, {"lat": "-3.8383333", "city": "Esio", "lon": "15.3416667"}, {"lat": "-3.2616667", "city": "Eti\u00e9l\u00e9", "lon": "15.8697222"}, {"lat": "-3.4308333", "city": "Fia", "lon": "14.8325"}, {"lat": "-4.6852778", "city": "Foota", "lon": "14.8855556"}, {"lat": "-4.6852778", "city": "Fota", "lon": "14.8855556"}, {"lat": "-4.1838889", "city": "Fouatou", "lon": "14.7230556"}, {"lat": "-4.7266667", "city": "Foumbou", "lon": "14.4613889"}, {"lat": "-4.8425", "city": "Foumo N'Zabi", "lon": "14.7208333"}, {"lat": "-4.7325", "city": "Foundiba", "lon": "14.6116667"}, {"lat": "-4.135", "city": "Foundou-Foundou", "lon": "14.3708333"}, {"lat": "-4.3227778", "city": "Founfoundou", "lon": "14.8177778"}, {"lat": "-4.8425", "city": "Fumu Zabi", "lon": "14.7208333"}, {"lat": "-4.1538889", "city": "Gabangola", "lon": "14.9169444"}, {"lat": "-4.3383333", "city": "Gabanou\u00e9", "lon": "14.7483333"}, {"lat": "-4.3702778", "city": "Gabanpakassa", "lon": "14.8438889"}, {"lat": "-4.0869444", "city": "Gaboumi", "lon": "14.6694444"}, {"lat": "-3.6697222", "city": "Galoumboma", "lon": "14.7127778"}, {"lat": "-4.0727778", "city": "Gamakala", "lon": "15.3908333"}, {"lat": "-4.0708333", "city": "Gamali\u00e9", "lon": "14.835"}, {"lat": "-4.2077778", "city": "Gamawolo", "lon": "14.5758333"}, {"lat": "-4.3238889", "city": "Gambari", "lon": "14.745"}, {"lat": "-4.4919444", "city": "Gamboulou", "lon": "14.7830556"}, {"lat": "-4.4361111", "city": "Gambouomo", "lon": "14.82"}, {"lat": "-4.4811111", "city": "Gamibakou", "lon": "14.7458333"}, {"lat": "-4.2597222", "city": "Gamikol\u00e9", "lon": "14.7519444"}, {"lat": "-4.2536111", "city": "Gamissakou", "lon": "14.9080556"}, {"lat": "-4.2783333", "city": "Gamissami", "lon": "14.6488889"}, {"lat": "-4.3336111", "city": "Gamissiba", "lon": "14.8"}, {"lat": "-3.5461111", "city": "Gamotala", "lon": "15.48"}, {"lat": "-4.275", "city": "Gampoko", "lon": "15.1655556"}, {"lat": "-3.3377778", "city": "Ganchou", "lon": "16.1975"}, {"lat": "-4.4044444", "city": "Ganda", "lon": "14.0580556"}, {"lat": "-4.0575", "city": "Gandou", "lon": "15.4786111"}, {"lat": "-3.9988889", "city": "Ganfou", "lon": "15.6486111"}, {"lat": "-4.3286111", "city": "Gangalingolo", "lon": "15.1566667"}, {"lat": "-3.9863889", "city": "Gankourou", "lon": "15.6827778"}, {"lat": "-3.3377778", "city": "Gantchou", "lon": "16.1975"}, {"lat": "-3.4408333", "city": "Gantchou Mok\u00e9", "lon": "16.1411111"}, {"lat": "-3.3513889", "city": "Gantchou Sainte-Marie", "lon": "16.1933333"}, {"lat": "-3.9616667", "city": "Gatsou", "lon": "15.4875"}, {"lat": "-4.4277778", "city": "Genzi\u00e9", "lon": "14.795"}, {"lat": "-4.0327778", "city": "Goma J.B.", "lon": "15.2344444"}, {"lat": "-4.2775", "city": "Gomansoussou", "lon": "15.0963889"}, {"lat": "-4.2288889", "city": "Gomatchitche", "lon": "15.1311111"}, {"lat": "-4.2288889", "city": "Goma Ts\u00e9ts\u00e9", "lon": "15.1311111"}, {"lat": "-4.4297222", "city": "Gomb\u00e9", "lon": "14.5319444"}, {"lat": "-4.0063889", "city": "Gom\u00e9ch\u00e9", "lon": "15.6188889"}, {"lat": "-4.6188889", "city": "Goulianza", "lon": "14.3963889"}, {"lat": "-4.4575", "city": "Gouma", "lon": "14.8397222"}, {"lat": "-3.7113889", "city": "Goumoukoutou", "lon": "14.7888889"}, {"lat": "-3.7113889", "city": "Goumounkoutou Biy\u00e9ri", "lon": "14.7888889"}, {"lat": "-3.8608333", "city": "Goungou", "lon": "14.6413889"}, {"lat": "-4.3466667", "city": "Gu\u00e9la", "lon": "14.9111111"}, {"lat": "-4.4277778", "city": "Guenzi\u00e9", "lon": "14.795"}, {"lat": "-4.1894444", "city": "Hamon", "lon": "14.8077778"}, {"lat": "-3.9677778", "city": "Haute Djouari", "lon": "15.0530556"}, {"lat": "-4.1894444", "city": "Haute Madzia", "lon": "14.8077778"}, {"lat": "-3.4630556", "city": "Ibaka", "lon": "15.3455556"}, {"lat": "-3.9602778", "city": "Ifourou", "lon": "15.7075"}, {"lat": "-3.6", "city": "Ikomi", "lon": "14.5169444"}, {"lat": "-3.3316667", "city": "Ikomo I", "lon": "14.1369444"}, {"lat": "-3.3316667", "city": "Ikomo", "lon": "14.1369444"}, {"lat": "-3.9061111", "city": "Ikouri", "lon": "15.6830556"}, {"lat": "-3.1019444", "city": "Ilolo", "lon": "15.7266667"}, {"lat": "-3.0933333", "city": "Ilouo", "lon": "14.2425"}, {"lat": "-3.1875", "city": "Imbali", "lon": "16.0094444"}, {"lat": "-3.465", "city": "Imbama", "lon": "15.6680556"}, {"lat": "-3.8055556", "city": "Imbouli", "lon": "15.1630556"}, {"lat": "-3.4655556", "city": "Imboulo", "lon": "15.3261111"}, {"lat": "-3.5822222", "city": "Imfono", "lon": "15.4027778"}, {"lat": "-3.2166667", "city": "Imfoumbi", "lon": "16.1666667"}, {"lat": "-3.6658333", "city": "Imfouna", "lon": "15.3511111"}, {"lat": "-3.9780556", "city": "Impani", "lon": "15.4119444"}, {"lat": "-3.7", "city": "Impfini Ntaso", "lon": "15.3666667"}, {"lat": "-3.3161111", "city": "Impfouba", "lon": "15.5833333"}, {"lat": "-3.5263889", "city": "Impo", "lon": "15.4297222"}, {"lat": "-3.6716667", "city": "Impoumbi", "lon": "15.4969444"}, {"lat": "-3.5286111", "city": "Impouni", "lon": "15.4491667"}, {"lat": "-3.3161111", "city": "Imvouba", "lon": "15.5833333"}, {"lat": "-3.4319444", "city": "Indoula", "lon": "15.435"}, {"lat": "-3.5463889", "city": "Indouna", "lon": "15.4747222"}, {"lat": "-3.4769444", "city": "Inga", "lon": "15.4955556"}, {"lat": "-3.6575", "city": "Ingamb\u00e9", "lon": "15.2230556"}, {"lat": "-3.4233333", "city": "Ingolo", "lon": "15.4302778"}, {"lat": "-3.2675", "city": "Ingouanzami", "lon": "14.2022222"}, {"lat": "-4.0166667", "city": "Ingouli", "lon": "15.5666667"}, {"lat": "-3.9713889", "city": "Ini\u00e9on", "lon": "15.3841667"}, {"lat": "-3.6613889", "city": "Inkala", "lon": "14.2872222"}, {"lat": "-3.6613889", "city": "Inkala-Matiba", "lon": "14.2872222"}, {"lat": "-3.3394444", "city": "Inki\u00e9", "lon": "15.5230556"}, {"lat": "-3.6588889", "city": "Inki\u00e9no", "lon": "15.3655556"}, {"lat": "-3.075", "city": "Inko", "lon": "15.6416667"}, {"lat": "-3.9888889", "city": "Inkolo", "lon": "15.3983333"}, {"lat": "-3.6", "city": "Inkomi", "lon": "14.5169444"}, {"lat": "-3.3166667", "city": "Inkore", "lon": "15.9"}, {"lat": "-3.5216667", "city": "Inkoubi", "lon": "15.44"}, {"lat": "-3.3166667", "city": "Inkou\u00e9", "lon": "15.9"}, {"lat": "-3.3166667", "city": "Inkoui", "lon": "15.9"}, {"lat": "-3.075", "city": "Inkouo", "lon": "15.6416667"}, {"lat": "-3.2166667", "city": "Inkoyo", "lon": "16.1666667"}, {"lat": "-3.0677778", "city": "Inon\u00e9", "lon": "15.6497222"}, {"lat": "-3.0233333", "city": "Inoni", "lon": "15.6627778"}, {"lat": "-2.9486111", "city": "Insini", "lon": "14.6583333"}, {"lat": "-3.5925", "city": "Insouni", "lon": "14.4530556"}, {"lat": "-4.15", "city": "Intel\u00e9", "lon": "15.3422222"}, {"lat": "-3.15", "city": "Inti\u00e9l\u00e9", "lon": "15.6219444"}, {"lat": "-3.4877778", "city": "Iokama", "lon": "15.2422222"}, {"lat": "-3.2275", "city": "Isoubi", "lon": "15.0716667"}, {"lat": "-4.1444444", "city": "Itatolo", "lon": "15.2369444"}, {"lat": "-3.35", "city": "Itsany", "lon": "15.8666667"}, {"lat": "-3.93", "city": "Ivou\u00e9ma", "lon": "15.3855556"}, {"lat": "-3.2275", "city": "Izoubi", "lon": "15.0716667"}, {"lat": "-3.6708333", "city": "Jeudi", "lon": "14.5633333"}, {"lat": "-3.5947222", "city": "Kaba", "lon": "16.05"}, {"lat": "-4.3136111", "city": "Kabi", "lon": "14.4119444"}, {"lat": "-3.8983333", "city": "Kaganbanzi", "lon": "15.9133333"}, {"lat": "-4.6283333", "city": "Kailzoumbi", "lon": "14.4494444"}, {"lat": "-4.4091667", "city": "Kaka", "lon": "15.04"}, {"lat": "-4.2405556", "city": "Kakamani", "lon": "14.5680556"}, {"lat": "-4.4375", "city": "Kamabangala", "lon": "14.7397222"}, {"lat": "-4.7613889", "city": "Kamba Makonko", "lon": "14.8122222"}, {"lat": "-4.2897222", "city": "Kamou", "lon": "14.5897222"}, {"lat": "-4.245", "city": "Kana", "lon": "14.6241667"}, {"lat": "-4.4697222", "city": "Kankata", "lon": "14.9169444"}, {"lat": "-3.6055556", "city": "Kanpama", "lon": "14.6158333"}, {"lat": "-4.7575", "city": "Kanzi", "lon": "14.5736111"}, {"lat": "-3.9008333", "city": "Kaonga", "lon": "14.8447222"}, {"lat": "-3.8844444", "city": "Kaounga Boudzoumou", "lon": "14.7608333"}, {"lat": "-4.0347222", "city": "Kaounga Dounga", "lon": "14.7288889"}, {"lat": "-3.0527778", "city": "Kaounga", "lon": "14.6083333"}, {"lat": "-3.8636111", "city": "Kaounga Kimbirima", "lon": "14.7197222"}, {"lat": "-3.9855556", "city": "Kaounga Ren\u00e9ville", "lon": "14.6294444"}, {"lat": "-3.9769444", "city": "Kaounga Sita", "lon": "14.6580556"}, {"lat": "-4.2183333", "city": "Karikari", "lon": "14.9486111"}, {"lat": "-4.7819444", "city": "Kay", "lon": "14.5508333"}, {"lat": "-3.6675", "city": "Kay Mboukou", "lon": "14.5241667"}, {"lat": "-4.3280556", "city": "K\u00e9l\u00e9k\u00e9l\u00e9", "lon": "15.1077778"}, {"lat": "-4.1863889", "city": "K\u00e9ma", "lon": "15.2108333"}, {"lat": "-4.1863889", "city": "K\u00e9man", "lon": "15.2108333"}, {"lat": "-4.6052778", "city": "Keng\u00e9", "lon": "14.4866667"}, {"lat": "-4.8163889", "city": "Keng\u00e9l\u00e9", "lon": "14.61"}, {"lat": "-3.1255556", "city": "Kialo", "lon": "14.155"}, {"lat": "-3.0886111", "city": "Kiani", "lon": "15.6330556"}, {"lat": "-3.545", "city": "Kiasala", "lon": "14.5175"}, {"lat": "-3.9894444", "city": "Kiasi", "lon": "15.3380556"}, {"lat": "-3.9894444", "city": "Kiassi", "lon": "15.3380556"}, {"lat": "-4.5930556", "city": "Kiazi", "lon": "14.6711111"}, {"lat": "-4.2244444", "city": "Kibangou", "lon": "14.6158333"}, {"lat": "-3.1241667", "city": "Kibemba", "lon": "14.1466667"}, {"lat": "-3.1241667", "city": "Kibembe", "lon": "14.1466667"}, {"lat": "-3.9233333", "city": "Kibendo", "lon": "14.6708333"}, {"lat": "-4.2052778", "city": "Kibossi", "lon": "15.01"}, {"lat": "-4.1858333", "city": "Kibouend\u00e9 II", "lon": "15.2513889"}, {"lat": "-4.1847222", "city": "Kibouend\u00e9 I", "lon": "15.1436111"}, {"lat": "-3.6355556", "city": "Kibouend\u00e9", "lon": "14.9269444"}, {"lat": "-4.2577778", "city": "Kibouend\u00e9 VIII", "lon": "15.1991667"}, {"lat": "-4.1772222", "city": "Kibouend\u00e9 X", "lon": "15.145"}, {"lat": "-4.205", "city": "Kibouilou", "lon": "14.3141667"}, {"lat": "-4.085", "city": "Kiboumbou", "lon": "14.9722222"}, {"lat": "-4.2883333", "city": "Kiboungama", "lon": "14.5127778"}, {"lat": "-4.1541667", "city": "Kibuende", "lon": "14.9019444"}, {"lat": "-3.5216667", "city": "Kidongo I", "lon": "15.2602778"}, {"lat": "-3.5216667", "city": "Kidongo", "lon": "15.2602778"}, {"lat": "-2.9222222", "city": "Ki\u00e9bo", "lon": "14.6927778"}, {"lat": "-4.1461111", "city": "Kigandou", "lon": "14.6838889"}, {"lat": "-4.5752778", "city": "Kihinda", "lon": "14.6530556"}, {"lat": "-4.5147222", "city": "Kihinnda", "lon": "14.68"}, {"lat": "-4.0", "city": "Kiinda", "lon": "14.7666667"}, {"lat": "-4.0", "city": "Kiinnda", "lon": "14.7666667"}, {"lat": "-4.2322222", "city": "Kikambo", "lon": "14.2022222"}, {"lat": "-4.2675", "city": "Kikanda", "lon": "14.1833333"}, {"lat": "-4.6358333", "city": "Kikay\u00e9", "lon": "14.7413889"}, {"lat": "-4.2322222", "city": "Kikembo", "lon": "14.2022222"}, {"lat": "-4.5975", "city": "Kikombo", "lon": "14.8069444"}, {"lat": "-4.3833333", "city": "Kikombolo", "lon": "14.7019444"}, {"lat": "-4.255", "city": "Kikompa I", "lon": "14.3144444"}, {"lat": "-4.1894444", "city": "Kikotokoto", "lon": "14.365"}, {"lat": "-4.0744444", "city": "Kikouangou", "lon": "14.3347222"}, {"lat": "-2.9705556", "city": "Kikouimba", "lon": "14.6444444"}, {"lat": "-4.8911111", "city": "Kilanga", "lon": "14.6533333"}, {"lat": "-3.8194444", "city": "Kil\u00e9ba", "lon": "14.5786111"}, {"lat": "-3.8661111", "city": "Kil\u00e9b\u00e9-Moussia", "lon": "14.3619444"}, {"lat": "-4.7344444", "city": "Kilemba", "lon": "14.7894444"}, {"lat": "-4.1736111", "city": "Kiloba", "lon": "14.8147222"}, {"lat": "-3.675", "city": "Kilouanba", "lon": "14.5294444"}, {"lat": "-4.3936111", "city": "Kiloubi", "lon": "14.4813889"}, {"lat": "-4.5986111", "city": "Kiloumbou", "lon": "14.3822222"}, {"lat": "-3.4763889", "city": "Kilouoni", "lon": "14.5111111"}, {"lat": "-4.1819444", "city": "Kiloutou", "lon": "14.7369444"}, {"lat": "-3.9886111", "city": "Kimanika", "lon": "14.4144444"}, {"lat": "-3.3952778", "city": "Kimba", "lon": "14.1916667"}, {"lat": "-4.8708333", "city": "Kimbala", "lon": "14.4233333"}, {"lat": "-4.1911111", "city": "Kimbama", "lon": "14.9733333"}, {"lat": "-4.2813889", "city": "Kimbanda", "lon": "14.5330556"}, {"lat": "-4.4758333", "city": "Kimbanza", "lon": "14.6744444"}, {"lat": "-4.2030556", "city": "Kimbanz\u00e9", "lon": "14.5805556"}, {"lat": "-4.7238889", "city": "Kimbasssi", "lon": "14.4722222"}, {"lat": "-4.2944444", "city": "Kimbedi", "lon": "13.9672222"}, {"lat": "-4.5169444", "city": "Kimb\u00e9l\u00e9 II", "lon": "14.6366667"}, {"lat": "-4.4905556", "city": "Kimb\u00e9l\u00e9 I", "lon": "14.6438889"}, {"lat": "-4.0669444", "city": "Kimb\u00e9l\u00e9", "lon": "14.7641667"}, {"lat": "-4.2816667", "city": "Kimbemb\u00e9", "lon": "15.0113889"}, {"lat": "-4.7238889", "city": "Kimbesi", "lon": "14.4722222"}, {"lat": "-4.2616667", "city": "Kimb\u00e9ti", "lon": "14.6341667"}, {"lat": "-4.2016667", "city": "Kimbimi", "lon": "14.0891667"}, {"lat": "-4.7877778", "city": "Kimbosi", "lon": "14.61"}, {"lat": "-4.7877778", "city": "Kimbossi", "lon": "14.61"}, {"lat": "-3.8422222", "city": "Kimboua", "lon": "14.3813889"}, {"lat": "-4.25", "city": "Kimbouala", "lon": "14.9219444"}, {"lat": "-4.085", "city": "Kimboubou", "lon": "14.9722222"}, {"lat": "-4.2341667", "city": "Kimboukou", "lon": "14.6483333"}, {"lat": "-4.2530556", "city": "Kimboungou II", "lon": "14.1875"}, {"lat": "-4.255", "city": "Kimboungou I", "lon": "14.1972222"}, {"lat": "-4.6577778", "city": "Kimbouta", "lon": "14.4288889"}, {"lat": "-4.0244444", "city": "Kimfoula", "lon": "14.6388889"}, {"lat": "-4.8016667", "city": "Kimfoutila", "lon": "14.6955556"}, {"lat": "-4.3227778", "city": "Kimfoutou", "lon": "14.0430556"}, {"lat": "-4.3155556", "city": "Kimoanza", "lon": "14.5616667"}, {"lat": "-3.4386111", "city": "Kimpakasa", "lon": "14.4744444"}, {"lat": "-4.3202778", "city": "Kimpala II", "lon": "14.0219444"}, {"lat": "-4.2558333", "city": "Kimpala", "lon": "14.4122222"}, {"lat": "-4.515", "city": "Kimpalala", "lon": "14.4872222"}, {"lat": "-4.1322222", "city": "Kimpandzou", "lon": "14.3008333"}, {"lat": "-4.6269444", "city": "Kimpanza", "lon": "14.6686111"}, {"lat": "-4.57", "city": "Kimpanzon", "lon": "14.9511111"}, {"lat": "-4.1913889", "city": "Kimpanzou", "lon": "15.1936111"}, {"lat": "-3.9602778", "city": "Kimpelo", "lon": "14.6861111"}, {"lat": "-4.8097222", "city": "Kimp\u00e9nga", "lon": "14.7925"}, {"lat": "-4.7605556", "city": "Kimp\u00e9zi", "lon": "14.6452778"}, {"lat": "-3.3141667", "city": "Kimpika", "lon": "14.5452778"}, {"lat": "-4.6355556", "city": "Kimpila IV", "lon": "14.7963889"}, {"lat": "-3.5466667", "city": "Kimpila", "lon": "14.5580556"}, {"lat": "-4.2783333", "city": "Kimpombo", "lon": "14.5536111"}, {"lat": "-4.3438889", "city": "Kimponzi", "lon": "13.9513889"}, {"lat": "-4.6913889", "city": "Kimpougi", "lon": "14.8461111"}, {"lat": "-4.6913889", "city": "Kimpougui", "lon": "14.8461111"}, {"lat": "-4.6913889", "city": "Kimpoungui", "lon": "14.8461111"}, {"lat": "-3.5894444", "city": "Kimpouo", "lon": "14.5163889"}, {"lat": "-4.5383333", "city": "Kimsembo", "lon": "14.4094444"}, {"lat": "-4.1527778", "city": "Kimvimba", "lon": "15.0733333"}, {"lat": "-3.6575", "city": "Kinbanba", "lon": "14.2963889"}, {"lat": "-4.0580556", "city": "Kindamba Gou\u00e9ri", "lon": "14.5111111"}, {"lat": "-3.7275", "city": "Kindamba", "lon": "14.5211111"}, {"lat": "-4.0580556", "city": "Kindamba-Ngou\u00e9di", "lon": "14.5111111"}, {"lat": "-4.1961111", "city": "Kindamba Nkana", "lon": "14.5655556"}, {"lat": "-3.2875", "city": "Kindanba", "lon": "14.3975"}, {"lat": "-3.6936111", "city": "Kindanba May\u00e9la", "lon": "14.9166667"}, {"lat": "-3.8263889", "city": "Kindanba Poto", "lon": "14.7288889"}, {"lat": "-3.7275", "city": "Kindemba", "lon": "14.5211111"}, {"lat": "-4.3416667", "city": "Kindibou", "lon": "14.3930556"}, {"lat": "-3.8833333", "city": "Kindonga", "lon": "14.8202778"}, {"lat": "-3.4666667", "city": "Kindongo II", "lon": "15.35"}, {"lat": "-3.5216667", "city": "Kindongo", "lon": "15.2602778"}, {"lat": "-4.4030556", "city": "Kindouga", "lon": "15.0116667"}, {"lat": "-4.0547222", "city": "Kindounga", "lon": "14.9177778"}, {"lat": "-4.4030556", "city": "Kindouoga", "lon": "15.0116667"}, {"lat": "-4.4422222", "city": "Kindouta", "lon": "15.0102778"}, {"lat": "-4.3227778", "city": "Kinfoutou", "lon": "14.0430556"}, {"lat": "-4.0380556", "city": "Kingala", "lon": "15.0225"}, {"lat": "-4.2747222", "city": "Kingambo", "lon": "14.1519444"}, {"lat": "-3.8638889", "city": "Kinganboma", "lon": "14.4241667"}, {"lat": "-3.3108333", "city": "Kingandou", "lon": "14.4791667"}, {"lat": "-4.2977778", "city": "Kingila", "lon": "14.4747222"}, {"lat": "-4.0166667", "city": "Kingimi", "lon": "14.73"}, {"lat": "-3.3", "city": "Kingoi", "lon": "14.4677778"}, {"lat": "-4.0947222", "city": "Kingola", "lon": "14.7605556"}, {"lat": "-4.145", "city": "Kingoli", "lon": "14.5880556"}, {"lat": "-4.15", "city": "Kingoma III", "lon": "15.2533333"}, {"lat": "-4.1733333", "city": "Kingoma I", "lon": "15.2563889"}, {"lat": "-3.72", "city": "Kingoma", "lon": "14.535"}, {"lat": "-3.5227778", "city": "Kingonongo", "lon": "14.4325"}, {"lat": "-3.7552778", "city": "Kingouala", "lon": "14.9547222"}, {"lat": "-3.7366667", "city": "Kingouala Mb\u00f4la", "lon": "14.9175"}, {"lat": "-4.3722222", "city": "Kingouanga", "lon": "14.0036111"}, {"lat": "-4.7836111", "city": "Kingoudi", "lon": "14.7819444"}, {"lat": "-3.7552778", "city": "Kingouila", "lon": "14.9547222"}, {"lat": "-4.3655556", "city": "Kingoy\u00e9", "lon": "15.0333333"}, {"lat": "-4.6052778", "city": "Kingu\u00e9", "lon": "14.4866667"}, {"lat": "-4.7925", "city": "Kingu\u00e9l\u00e9", "lon": "14.6675"}, {"lat": "-4.1805556", "city": "Kinianbi", "lon": "14.5305556"}, {"lat": "-4.3163889", "city": "Kiniati", "lon": "14.5205556"}, {"lat": "-3.3311111", "city": "Kinimbi", "lon": "14.5238889"}, {"lat": "-3.7313889", "city": "Kinimbi Moul\u00e9ri", "lon": "14.8105556"}, {"lat": "-3.7286111", "city": "Kinimbi Nzouala", "lon": "14.6305556"}, {"lat": "-3.6908333", "city": "Kinkakasa", "lon": "14.3463889"}, {"lat": "-3.6908333", "city": "Kinkakassa", "lon": "14.3463889"}, {"lat": "-4.3747222", "city": "Kinkala II", "lon": "14.7805556"}, {"lat": "-4.3613889", "city": "Kinkala", "lon": "14.7644444"}, {"lat": "-4.45", "city": "Kinkala Sud", "lon": "15.0616667"}, {"lat": "-4.5608333", "city": "Kinkambou", "lon": "14.3702778"}, {"lat": "-4.2858333", "city": "Kinkanda", "lon": "14.2072222"}, {"lat": "-4.1538889", "city": "Kinkaya", "lon": "14.3419444"}, {"lat": "-4.2322222", "city": "Kinkembo", "lon": "14.2022222"}, {"lat": "-3.6230556", "city": "Kinkol\u00e9sa", "lon": "14.3852778"}, {"lat": "-3.9977778", "city": "Kinkousou II", "lon": "14.7163889"}, {"lat": "-3.9908333", "city": "Kinkousou I", "lon": "14.7133333"}, {"lat": "-4.0955556", "city": "Kinkousou", "lon": "14.4625"}, {"lat": "-4.2861111", "city": "Kinkozo", "lon": "15.1758333"}, {"lat": "-4.3166667", "city": "Kinkua", "lon": "14.3166667"}, {"lat": "-4.0616667", "city": "Kinndamba Bouninnga", "lon": "14.6561111"}, {"lat": "-4.2016667", "city": "Kinndamba", "lon": "14.4611111"}, {"lat": "-4.1961111", "city": "Kinndamba-Mouyondzi", "lon": "14.5655556"}, {"lat": "-4.0580556", "city": "Kinndamba Ngou\u00e9ri", "lon": "14.5111111"}, {"lat": "-4.3416667", "city": "Kinndibou", "lon": "14.3930556"}, {"lat": "-4.0547222", "city": "Kinndounga", "lon": "14.9177778"}, {"lat": "-4.6119444", "city": "Kinndouta", "lon": "14.8291667"}, {"lat": "-4.1561111", "city": "Kinngandou", "lon": "14.9866667"}, {"lat": "-4.0947222", "city": "Kinngola", "lon": "14.7605556"}, {"lat": "-4.145", "city": "Kinngoli", "lon": "14.5880556"}, {"lat": "-4.8816667", "city": "Kinngoma", "lon": "14.6341667"}, {"lat": "-4.1186111", "city": "Kinngouala", "lon": "14.3505556"}, {"lat": "-4.3722222", "city": "Kinngouanga", "lon": "14.0036111"}, {"lat": "-4.7836111", "city": "Kinngoudi", "lon": "14.7819444"}, {"lat": "-4.0630556", "city": "Kinngu\u00e8mbo", "lon": "14.3341667"}, {"lat": "-4.1141667", "city": "Kinnguila", "lon": "14.2802778"}, {"lat": "-4.1794444", "city": "Kinnkakassa", "lon": "14.7311111"}, {"lat": "-4.5608333", "city": "Kinnkambou", "lon": "14.3702778"}, {"lat": "-4.2858333", "city": "Kinnkanda", "lon": "14.2072222"}, {"lat": "-4.1538889", "city": "Kinnkaya", "lon": "14.3419444"}, {"lat": "-4.0786111", "city": "Kinnkie", "lon": "14.5041667"}, {"lat": "-4.2975", "city": "Kinnkila", "lon": "14.725"}, {"lat": "-4.2866667", "city": "Kinnkoumba", "lon": "14.1391667"}, {"lat": "-4.0955556", "city": "Kinnkoussou", "lon": "14.4625"}, {"lat": "-4.7772222", "city": "Kinnsakou", "lon": "14.7486111"}, {"lat": "-4.8833333", "city": "Kinnsambo", "lon": "14.6497222"}, {"lat": "-4.0894444", "city": "Kinnsassa", "lon": "14.9108333"}, {"lat": "-4.7269444", "city": "Kinnsatou", "lon": "14.6411111"}, {"lat": "-4.4608333", "city": "Kinns\u00e9l\u00e9", "lon": "14.6836111"}, {"lat": "-4.0744444", "city": "Kinnsoumi", "lon": "14.3719444"}, {"lat": "-4.3236111", "city": "Kinnsoundi IV", "lon": "14.9511111"}, {"lat": "-4.0033333", "city": "Kinnsoundi", "lon": "14.6316667"}, {"lat": "-4.0461111", "city": "Kinnssassa", "lon": "14.5980556"}, {"lat": "-4.3180556", "city": "Kinntaba", "lon": "14.5561111"}, {"lat": "-4.1022222", "city": "Kinntamou", "lon": "14.65"}, {"lat": "-4.0919444", "city": "Kinntoumba", "lon": "14.2408333"}, {"lat": "-4.1052778", "city": "Kinnzamba", "lon": "14.3866667"}, {"lat": "-4.8211111", "city": "Kinnz\u00e9mba", "lon": "14.6661111"}, {"lat": "-4.0366667", "city": "Kinnzoumi", "lon": "14.3219444"}, {"lat": "-4.2961111", "city": "Kinnzoundi", "lon": "14.5977778"}, {"lat": "-4.2611111", "city": "Kinnzoundou", "lon": "14.4783333"}, {"lat": "-4.6972222", "city": "Kinouani", "lon": "14.5197222"}, {"lat": "-4.7772222", "city": "Kinsakou", "lon": "14.7486111"}, {"lat": "-4.8833333", "city": "Kinsambo", "lon": "14.6497222"}, {"lat": "-4.3197222", "city": "Kinsana", "lon": "15.1738889"}, {"lat": "-4.7269444", "city": "Kinsatou", "lon": "14.6411111"}, {"lat": "-4.4811111", "city": "Kins\u00e9l\u00e9", "lon": "14.6808333"}, {"lat": "-4.0744444", "city": "Kinsoumi", "lon": "14.3719444"}, {"lat": "-3.7916667", "city": "Kinsoundi", "lon": "14.5547222"}, {"lat": "-4.1055556", "city": "Kinsoundi Malonga", "lon": "14.6277778"}, {"lat": "-3.9880556", "city": "Kinsounga", "lon": "14.79"}, {"lat": "-3.6386111", "city": "Kintaba", "lon": "14.4558333"}, {"lat": "-3.9488889", "city": "Kintamou", "lon": "14.8869444"}, {"lat": "-3.7888889", "city": "Kintangoma", "lon": "14.4111111"}, {"lat": "-4.15", "city": "Kint\u00e9l\u00e9", "lon": "15.3422222"}, {"lat": "-3.7175", "city": "Kintoua", "lon": "14.5058333"}, {"lat": "-4.0919444", "city": "Kintoumba", "lon": "14.2408333"}, {"lat": "-3.8358333", "city": "Kintounga", "lon": "14.8552778"}, {"lat": "-3.8591667", "city": "Kintsaka", "lon": "14.3722222"}, {"lat": "-4.3197222", "city": "Kintsana", "lon": "15.1738889"}, {"lat": "-4.3877778", "city": "Kintsembo", "lon": "15.1261111"}, {"lat": "-4.1994444", "city": "Kintsoundi II", "lon": "15.2572222"}, {"lat": "-4.2855556", "city": "Kintsoundi", "lon": "15.2138889"}, {"lat": "-4.1527778", "city": "Kinvimba X", "lon": "15.0733333"}, {"lat": "-4.0744444", "city": "Kinzoumi", "lon": "14.3719444"}, {"lat": "-4.2961111", "city": "Kinzoundi", "lon": "14.5977778"}, {"lat": "-4.2611111", "city": "Kinzoundou", "lon": "14.4783333"}, {"lat": "-4.8025", "city": "Kioua", "lon": "14.5866667"}, {"lat": "-4.8025", "city": "Kiowa", "lon": "14.5866667"}, {"lat": "-3.3522222", "city": "Kisanga", "lon": "14.5797222"}, {"lat": "-3.3213889", "city": "Kiseng\u00e9l\u00e9", "lon": "14.2041667"}, {"lat": "-3.8902778", "city": "Kiseng\u00e9l\u00e9 May\u00e9la", "lon": "14.6861111"}, {"lat": "-4.2441667", "city": "Kisonga", "lon": "14.5288889"}, {"lat": "-4.3180556", "city": "Kissanga", "lon": "14.4733333"}, {"lat": "-3.3213889", "city": "Kissengu\u00e9l\u00e9", "lon": "14.2041667"}, {"lat": "-3.1241667", "city": "Kitemb\u00e9", "lon": "14.1466667"}, {"lat": "-4.095", "city": "Kitengui", "lon": "14.6372222"}, {"lat": "-3.7983333", "city": "Kitoko", "lon": "14.5111111"}, {"lat": "-4.1725", "city": "Kitouma", "lon": "14.67"}, {"lat": "-4.305", "city": "Kitoundou", "lon": "13.9552778"}, {"lat": "-4.26", "city": "Kitounga", "lon": "14.5738889"}, {"lat": "-4.2394444", "city": "Kitsonga", "lon": "14.5880556"}, {"lat": "-3.9041667", "city": "Kitsounga", "lon": "14.7488889"}, {"lat": "-3.3313889", "city": "Kitzoa", "lon": "14.1219444"}, {"lat": "-3.8836111", "city": "Kivimba", "lon": "14.975"}, {"lat": "-3.9963889", "city": "Kivoudi", "lon": "14.5047222"}, {"lat": "-3.9963889", "city": "Kivouti", "lon": "14.5047222"}, {"lat": "-3.5866667", "city": "Kiyala", "lon": "15.2388889"}, {"lat": "-3.7566667", "city": "Kiynda", "lon": "14.4619444"}, {"lat": "-3.5391667", "city": "Kiyndou", "lon": "14.5180556"}, {"lat": "-3.9113889", "city": "Koaunga-Balawa", "lon": "14.9125"}, {"lat": "-3.3333333", "city": "Kobi", "lon": "15.55"}, {"lat": "-3.9583333", "city": "Kodia", "lon": "15.3369444"}, {"lat": "-4.1930556", "city": "Kokabikoulou", "lon": "14.7483333"}, {"lat": "-3.455", "city": "Kololo", "lon": "14.4441667"}, {"lat": "-4.1797222", "city": "Kombana", "lon": "14.9777778"}, {"lat": "-4.4927778", "city": "Kongo", "lon": "14.47"}, {"lat": "-4.1044444", "city": "Konpanyi", "lon": "14.9091667"}, {"lat": "-4.2291667", "city": "Kouaka", "lon": "14.2925"}, {"lat": "-4.1333333", "city": "Kouamba", "lon": "15.0666667"}, {"lat": "-4.3583333", "city": "Koubansaki", "lon": "15.1488889"}, {"lat": "-3.7822222", "city": "Koubemba", "lon": "14.3841667"}, {"lat": "-4.4236111", "city": "Kouboulankoutou", "lon": "15.1097222"}, {"lat": "-3.9158333", "city": "Kouimba", "lon": "15.0433333"}, {"lat": "-3.8019444", "city": "Kouka", "lon": "14.4755556"}, {"lat": "-3.8019444", "city": "Kouka Loko", "lon": "14.4755556"}, {"lat": "-4.1530556", "city": "Koulou", "lon": "14.8111111"}, {"lat": "-3.0111111", "city": "Koulouo", "lon": "16.1825"}, {"lat": "-4.7177778", "city": "Koumbi Touzou", "lon": "14.6469444"}, {"lat": "-3.5572222", "city": "Koundzoulou-Miranda", "lon": "16.0838889"}, {"lat": "-4.8461111", "city": "Kounga", "lon": "14.6075"}, {"lat": "-3.4652778", "city": "Kounzoulou Fran\u00e7ais", "lon": "16.1191667"}, {"lat": "-3.4747222", "city": "Kounzoulou Idouani", "lon": "16.1166667"}, {"lat": "-3.455", "city": "Kounzoulou Marinoni", "lon": "16.1288889"}, {"lat": "-3.5572222", "city": "Kounzoulou Miranda", "lon": "16.0838889"}, {"lat": "-3.5069444", "city": "Kounzoulou Mok\u00e9", "lon": "16.1080556"}, {"lat": "-3.0405556", "city": "Koura", "lon": "16.1777778"}, {"lat": "-4.4605556", "city": "Kouta", "lon": "15.0847222"}, {"lat": "-3.7741667", "city": "Koutsaya", "lon": "14.6272222"}, {"lat": "-3.7741667", "city": "Koutsaya Loub\u00e9oua", "lon": "14.6272222"}, {"lat": "-4.2997222", "city": "Kouya", "lon": "14.8825"}, {"lat": "-4.4683333", "city": "Landamambou", "lon": "15.0811111"}, {"lat": "-4.0541667", "city": "Lari", "lon": "14.6986111"}, {"lat": "-3.8408333", "city": "L\u00e9chia", "lon": "15.93"}, {"lat": "-4.2666667", "city": "Le F\u00e9rik", "lon": "15.1166667"}, {"lat": "-3.6575", "city": "Leka", "lon": "14.3347222"}, {"lat": "-3.2311111", "city": "L\u00e9kana", "lon": "14.1533333"}, {"lat": "-4.84", "city": "Lemba", "lon": "14.4583333"}, {"lat": "-4.0302778", "city": "Lengo", "lon": "15.1233333"}, {"lat": "-3.0308333", "city": "Lenion", "lon": "15.195"}, {"lat": "-3.2633333", "city": "L\u00e9r\u00e9panda", "lon": "14.6022222"}, {"lat": "-3.8408333", "city": "Leshia", "lon": "15.93"}, {"lat": "-3.8408333", "city": "Lessia", "lon": "15.93"}, {"lat": "-3.7666667", "city": "L\u00e9ssio", "lon": "15.35"}, {"lat": "-3.21", "city": "L\u00e9zou", "lon": "14.5747222"}, {"lat": "-4.5688889", "city": "Li\u00e9m\u00e9", "lon": "14.8647222"}, {"lat": "-4.0977778", "city": "Lifoula", "lon": "15.4222222"}, {"lat": "-3.3419444", "city": "Lik\u00e9", "lon": "14.8991667"}, {"lat": "-3.3419444", "city": "Liki\u00e9", "lon": "14.8991667"}, {"lat": "-3.7641667", "city": "Liko", "lon": "15.5563889"}, {"lat": "-4.6666667", "city": "Likouakoua", "lon": "14.5991667"}, {"lat": "-4.6666667", "city": "Likwakwa", "lon": "14.5991667"}, {"lat": "-3.9619444", "city": "Lingo", "lon": "15.0711111"}, {"lat": "-4.4122222", "city": "Linzolo", "lon": "15.1127778"}, {"lat": "-3.9572222", "city": "Liongoli", "lon": "15.8597222"}, {"lat": "-3.55", "city": "Lissi\u00e9lo", "lon": "15.25"}, {"lat": "-4.3655556", "city": "Loengo", "lon": "14.4883333"}, {"lat": "-4.3102778", "city": "Lombolo", "lon": "14.0777778"}, {"lat": "-4.2563889", "city": "Lond\u00e9 Boundou", "lon": "14.9127778"}, {"lat": "-3.9572222", "city": "Longoli", "lon": "15.8597222"}, {"lat": "-3.2783333", "city": "Louanba", "lon": "14.5894444"}, {"lat": "-4.3983333", "city": "Louanga", "lon": "13.945"}, {"lat": "-4.5230556", "city": "Loub\u00e9b\u00e9zi", "lon": "14.7569444"}, {"lat": "-4.5858333", "city": "Loubitoukou", "lon": "14.8222222"}, {"lat": "-4.0225", "city": "Loubota", "lon": "14.3502778"}, {"lat": "-4.0597222", "city": "Louboukou", "lon": "15.3316667"}, {"lat": "-4.6119444", "city": "Lou\u00e9mo", "lon": "14.6733333"}, {"lat": "-4.1886111", "city": "Louend\u00e9", "lon": "14.3372222"}, {"lat": "-4.7388889", "city": "Louenga", "lon": "14.5469444"}, {"lat": "-4.3655556", "city": "Louengo", "lon": "14.4883333"}, {"lat": "-4.6119444", "city": "Lougu\u00e9mo", "lon": "14.6733333"}, {"lat": "-3.5866667", "city": "Louhoumou", "lon": "14.6238889"}, {"lat": "-4.0941667", "city": "Louila", "lon": "14.2380556"}, {"lat": "-4.5577778", "city": "Louingi", "lon": "14.6791667"}, {"lat": "-4.5577778", "city": "Louingui", "lon": "14.6791667"}, {"lat": "-4.5577778", "city": "Louinngui", "lon": "14.6791667"}, {"lat": "-3.8019444", "city": "Loukakou", "lon": "14.5555556"}, {"lat": "-4.3425", "city": "Loukanga", "lon": "15.1433333"}, {"lat": "-4.7425", "city": "Loukengo", "lon": "14.6222222"}, {"lat": "-4.2347222", "city": "Loukesi", "lon": "14.2383333"}, {"lat": "-4.2347222", "city": "Louk\u00e9ssi", "lon": "14.2383333"}, {"lat": "-4.4697222", "city": "Loukoko", "lon": "14.945"}, {"lat": "-4.0172222", "city": "Loukonga", "lon": "14.5322222"}, {"lat": "-3.5833333", "city": "Loukoulou", "lon": "14.4333333"}, {"lat": "-4.3347222", "city": "Loukounga", "lon": "14.7286111"}, {"lat": "-4.1330556", "city": "Loukouni", "lon": "14.5369444"}, {"lat": "-3.6358333", "city": "Loukouo", "lon": "14.6622222"}, {"lat": "-4.1675", "city": "Loukouta", "lon": "15.0355556"}, {"lat": "-4.2663889", "city": "Loulombo", "lon": "14.0888889"}, {"lat": "-3.9833333", "city": "Loumingou", "lon": "14.95"}, {"lat": "-4.6466667", "city": "Loumo", "lon": "14.4791667"}, {"lat": "-3.4833333", "city": "Loumou", "lon": "15.35"}, {"lat": "-4.7108333", "city": "Loundala", "lon": "14.6983333"}, {"lat": "-4.8305556", "city": "Loundou", "lon": "14.7030556"}, {"lat": "-3.0308333", "city": "Lounoua", "lon": "15.195"}, {"lat": "-3.9830556", "city": "Louolo", "lon": "14.5041667"}, {"lat": "-3.6616667", "city": "Louo", "lon": "14.3391667"}, {"lat": "-4.5594444", "city": "Lous\u00e9ka", "lon": "14.3969444"}, {"lat": "-4.5594444", "city": "Louss\u00e9ka", "lon": "14.3969444"}, {"lat": "-3.6133333", "city": "Louza", "lon": "14.6102778"}, {"lat": "-3.755", "city": "Louzouri", "lon": "14.3805556"}, {"lat": "-4.5055556", "city": "Loyakou", "lon": "14.9758333"}, {"lat": "-3.0061111", "city": "Loyotcho", "lon": "16.1827778"}, {"lat": "-3.3444444", "city": "Maa", "lon": "15.4858333"}, {"lat": "-4.6575", "city": "Mababa", "lon": "14.6458333"}, {"lat": "-4.5", "city": "Mabahassa", "lon": "15.0302778"}, {"lat": "-4.5", "city": "Mabassa", "lon": "15.0302778"}, {"lat": "-3.9841667", "city": "Mabaya", "lon": "15.7036111"}, {"lat": "-4.3663889", "city": "Mabenga", "lon": "15.1261111"}, {"lat": "-4.3663889", "city": "Mabengo", "lon": "15.1261111"}, {"lat": "-3.6833333", "city": "Mabima", "lon": "14.5269444"}, {"lat": "-3.2916667", "city": "Mabiti", "lon": "14.2052778"}, {"lat": "-4.5688889", "city": "Mabomb\u00e9", "lon": "14.6611111"}, {"lat": "-4.2161111", "city": "Maboulou", "lon": "14.7047222"}, {"lat": "-3.8480556", "city": "Mad\u00e9ba", "lon": "14.6225"}, {"lat": "-4.6786111", "city": "Madiamilina", "lon": "14.6622222"}, {"lat": "-4.31", "city": "Madibou", "lon": "15.1916667"}, {"lat": "-4.3338889", "city": "Madidi", "lon": "14.7008333"}, {"lat": "-3.5063889", "city": "Madzaka", "lon": "14.5808333"}, {"lat": "-4.1894444", "city": "Madzia", "lon": "14.8077778"}, {"lat": "-3.3311111", "city": "Mafamba", "lon": "16.1980556"}, {"lat": "-4.3333333", "city": "Mafouka", "lon": "14.75"}, {"lat": "-4.3825", "city": "Mafoulou", "lon": "14.0038889"}, {"lat": "-4.5447222", "city": "Mafousi", "lon": "14.5416667"}, {"lat": "-4.5447222", "city": "Mafoussi", "lon": "14.5416667"}, {"lat": "-3.3352778", "city": "Mahantsa", "lon": "14.5791667"}, {"lat": "-4.3194444", "city": "Mahitou", "lon": "15.0805556"}, {"lat": "-4.3194444", "city": "Mahitoutou", "lon": "15.0805556"}, {"lat": "-3.3444444", "city": "Mah", "lon": "15.4858333"}, {"lat": "-4.0", "city": "Mahoukou", "lon": "15.3333333"}, {"lat": "-3.9197222", "city": "Ma\u00efdomb\u00e9", "lon": "15.9063889"}, {"lat": "-3.9197222", "city": "Ma\u00ef-Domb\u00e9", "lon": "15.9063889"}, {"lat": "-4.5908333", "city": "Ma\u00efnama", "lon": "14.5872222"}, {"lat": "-3.7283333", "city": "Ma\u00efpili", "lon": "15.9916667"}, {"lat": "-4.6561111", "city": "Ma\u00efta", "lon": "14.73"}, {"lat": "-4.3211111", "city": "Makanad\u00e9", "lon": "15.0833333"}, {"lat": "-3.6480556", "city": "Makana II", "lon": "14.6497222"}, {"lat": "-3.6425", "city": "Makana I", "lon": "14.6380556"}, {"lat": "-4.0183333", "city": "Makana", "lon": "14.9463889"}, {"lat": "-4.265", "city": "Makangala", "lon": "14.4541667"}, {"lat": "-4.2186111", "city": "Makansala", "lon": "14.3775"}, {"lat": "-4.4347222", "city": "Makaya", "lon": "15.1025"}, {"lat": "-3.7616667", "city": "Mak\u00e9la", "lon": "14.45"}, {"lat": "-3.5808333", "city": "Mak\u00e9ninga", "lon": "14.5122222"}, {"lat": "-4.3183333", "city": "Makokosa", "lon": "14.69"}, {"lat": "-4.3183333", "city": "Makokossa", "lon": "14.69"}, {"lat": "-4.6555556", "city": "Makou\u00e9kou\u00e9", "lon": "14.7613889"}, {"lat": "-3.0333333", "city": "Makouhou", "lon": "14.2"}, {"lat": "-3.0444444", "city": "Makou", "lon": "14.2697222"}, {"lat": "-3.4538889", "city": "Makounbou", "lon": "14.5061111"}, {"lat": "-4.5527778", "city": "Makoundi", "lon": "14.7163889"}, {"lat": "-4.2861111", "city": "Makouti", "lon": "14.3375"}, {"lat": "-4.5186111", "city": "Malaba", "lon": "14.8427778"}, {"lat": "-3.92", "city": "Malala", "lon": "14.4777778"}, {"lat": "-3.1302778", "city": "Malamouloura", "lon": "15.6216667"}, {"lat": "-4.235", "city": "Malanta", "lon": "15.1158333"}, {"lat": "-3.4119444", "city": "Mal\u00e9b\u00e9", "lon": "14.5886111"}, {"lat": "-3.3697222", "city": "Mal\u00e9la Bomb\u00e9", "lon": "14.5133333"}, {"lat": "-4.2133333", "city": "Malengo", "lon": "14.9591667"}, {"lat": "-3.7727778", "city": "Malima", "lon": "14.4969444"}, {"lat": "-4.5752778", "city": "Malodi", "lon": "14.7375"}, {"lat": "-3.8522222", "city": "Malonga", "lon": "15.0233333"}, {"lat": "-4.1225", "city": "Maloukou-Bambou", "lon": "15.4783333"}, {"lat": "-4.0713889", "city": "Maloukou", "lon": "15.4902778"}, {"lat": "-4.0713889", "city": "Maloukou-M\u00e9l\u00e9z\u00e9", "lon": "15.4902778"}, {"lat": "-4.0166667", "city": "Maloukou-Tr\u00e9chot", "lon": "15.5836111"}, {"lat": "-3.2263889", "city": "Ma", "lon": "14.2602778"}, {"lat": "-4.2016667", "city": "Mamba", "lon": "14.5325"}, {"lat": "-3.4377778", "city": "Mambio", "lon": "14.3797222"}, {"lat": "-3.3302778", "city": "Mam\u00e9l\u00e9", "lon": "14.1991667"}, {"lat": "-3.9808333", "city": "Mampoumou", "lon": "15.7277778"}, {"lat": "-3.9677778", "city": "Mampouya", "lon": "15.3238889"}, {"lat": "-4.1886111", "city": "Mana", "lon": "14.8094444"}, {"lat": "-3.2919444", "city": "Manami\u00e9", "lon": "14.4141667"}, {"lat": "-4.6575", "city": "Manbaba", "lon": "14.6458333"}, {"lat": "-3.4377778", "city": "Manbia", "lon": "14.3797222"}, {"lat": "-3.4377778", "city": "Manbio", "lon": "14.3797222"}, {"lat": "-3.5894444", "city": "Manboumol\u00e9", "lon": "14.5783333"}, {"lat": "-3.9222222", "city": "Mandaka", "lon": "15.3466667"}, {"lat": "-3.9691667", "city": "Mandi\u00e9l\u00e9", "lon": "15.6025"}, {"lat": "-4.8905556", "city": "Mandomb\u00e9", "lon": "14.6344444"}, {"lat": "-4.8905556", "city": "Mandonb\u00e9", "lon": "14.6344444"}, {"lat": "-4.5333333", "city": "Mandoundou", "lon": "14.6911111"}, {"lat": "-4.3825", "city": "Manfoutou", "lon": "14.0038889"}, {"lat": "-4.2172222", "city": "Mangala", "lon": "15.1483333"}, {"lat": "-4.1977778", "city": "Manga", "lon": "14.8208333"}, {"lat": "-4.3136111", "city": "Mangola II", "lon": "14.1066667"}, {"lat": "-4.2844444", "city": "Mangola I", "lon": "14.14"}, {"lat": "-4.2844444", "city": "Mangola", "lon": "14.14"}, {"lat": "-4.3413889", "city": "Mangoungou", "lon": "14.5583333"}, {"lat": "-3.5986111", "city": "Manguili", "lon": "14.4163889"}, {"lat": "-3.5986111", "city": "Manguiri", "lon": "14.4163889"}, {"lat": "-4.1641667", "city": "Manianga", "lon": "15.3125"}, {"lat": "-4.0738889", "city": "Mani\u00e9to", "lon": "14.8186111"}, {"lat": "-4.7275", "city": "Maniyonzi", "lon": "14.6130556"}, {"lat": "-4.6058333", "city": "Mankami", "lon": "14.7791667"}, {"lat": "-3.8205556", "city": "Mankisa", "lon": "14.4088889"}, {"lat": "-3.4383333", "city": "Mankondi", "lon": "14.5194444"}, {"lat": "-4.5888889", "city": "Mankondo", "lon": "14.8661111"}, {"lat": "-4.5727778", "city": "Mankonongo", "lon": "14.8222222"}, {"lat": "-4.7194444", "city": "Mankousou", "lon": "14.4644444"}, {"lat": "-4.7194444", "city": "Mankoussa", "lon": "14.4644444"}, {"lat": "-4.7194444", "city": "Mankoussou", "lon": "14.4644444"}, {"lat": "-3.9516667", "city": "Manpimpa", "lon": "14.405"}, {"lat": "-3.9808333", "city": "Manpounou", "lon": "15.7277778"}, {"lat": "-4.2683333", "city": "Mans\u00e9kess\u00e9", "lon": "15.0866667"}, {"lat": "-4.2994444", "city": "Mansi\u00e9di", "lon": "14.6691667"}, {"lat": "-4.2088889", "city": "Mansoulou", "lon": "15.2083333"}, {"lat": "-4.5386111", "city": "Mantaba", "lon": "14.9788889"}, {"lat": "-4.2377778", "city": "Mantari", "lon": "14.2411111"}, {"lat": "-4.3794444", "city": "Mant\u00e9b\u00e9", "lon": "15.0741667"}, {"lat": "-4.5488889", "city": "Mant\u00e9k\u00e9", "lon": "14.9775"}, {"lat": "-4.3091667", "city": "Mant\u00e9lo", "lon": "14.7422222"}, {"lat": "-4.0811111", "city": "Mantsanira", "lon": "14.6875"}, {"lat": "-4.1641667", "city": "Many\u00e1nga", "lon": "15.3125"}, {"lat": "-4.5163889", "city": "Manzadonga", "lon": "15.0266667"}, {"lat": "-4.855", "city": "Maouila", "lon": "14.5894444"}, {"lat": "-4.2088889", "city": "Maouno", "lon": "14.5447222"}, {"lat": "-4.4455556", "city": "Maoutani", "lon": "14.8758333"}, {"lat": "-3.9816667", "city": "Mapakou", "lon": "15.3313889"}, {"lat": "-3.9841667", "city": "Mapaya", "lon": "15.7036111"}, {"lat": "-4.2741667", "city": "Marchand", "lon": "14.4880556"}, {"lat": "-4.2322222", "city": "Marche", "lon": "14.2022222"}, {"lat": "-4.54", "city": "Mardi", "lon": "14.7619444"}, {"lat": "-4.2086111", "city": "Masala", "lon": "14.8833333"}, {"lat": "-3.7561111", "city": "Masa", "lon": "15.4833333"}, {"lat": "-3.8780556", "city": "Masamasa", "lon": "14.8841667"}, {"lat": "-3.6322222", "city": "Masanba", "lon": "14.4105556"}, {"lat": "-3.8205556", "city": "Masanba Mout\u00e9l\u00e9l\u00e9", "lon": "14.4425"}, {"lat": "-3.4297222", "city": "Mas\u00e9k\u00e9", "lon": "14.3488889"}, {"lat": "-3.4277778", "city": "Masengo", "lon": "14.2025"}, {"lat": "-4.6172222", "city": "Mas\u00e9s\u00e9", "lon": "14.6780556"}, {"lat": "-3.0747222", "city": "Masina", "lon": "14.2122222"}, {"lat": "-3.8025", "city": "Masoumou", "lon": "14.4722222"}, {"lat": "-3.7561111", "city": "Massaha", "lon": "15.4833333"}, {"lat": "-3.2166667", "city": "Massala", "lon": "16.1666667"}, {"lat": "-3.7561111", "city": "Massa", "lon": "15.4833333"}, {"lat": "-3.8780556", "city": "Massamassa", "lon": "14.8841667"}, {"lat": "-4.2530556", "city": "Massembo-Loubaki", "lon": "14.5944444"}, {"lat": "-4.6172222", "city": "Mass\u00e9ss\u00e9", "lon": "14.6780556"}, {"lat": "-3.7561111", "city": "Massi", "lon": "15.4833333"}, {"lat": "-4.1333333", "city": "Massina", "lon": "15.3166667"}, {"lat": "-4.3083333", "city": "Massissia", "lon": "15.2022222"}, {"lat": "-3.4522222", "city": "Matadi", "lon": "14.5655556"}, {"lat": "-4.4275", "city": "Matakall", "lon": "14.74"}, {"lat": "-4.4733333", "city": "Mataka", "lon": "14.7527778"}, {"lat": "-4.3344444", "city": "Matakani", "lon": "14.2455556"}, {"lat": "-4.2613889", "city": "Matala", "lon": "14.8788889"}, {"lat": "-4.2663889", "city": "Mat\u00e9la", "lon": "14.4205556"}, {"lat": "-3.755", "city": "Matensama", "lon": "14.3508333"}, {"lat": "-4.5777778", "city": "Mat\u00e8ntsama", "lon": "14.6869444"}, {"lat": "-3.6613889", "city": "Matiba", "lon": "14.2872222"}, {"lat": "-3.9113889", "city": "Matingou", "lon": "14.9125"}, {"lat": "-4.3330556", "city": "Matinsama", "lon": "15.0911111"}, {"lat": "-4.6511111", "city": "Matondo", "lon": "14.7011111"}, {"lat": "-4.2702778", "city": "Matoumbou", "lon": "14.7116667"}, {"lat": "-3.7922222", "city": "Matouridi", "lon": "14.4725"}, {"lat": "-4.3219444", "city": "Matoutou", "lon": "14.5805556"}, {"lat": "-3.7816667", "city": "Maty-Centre", "lon": "15.8955556"}, {"lat": "-3.5063889", "city": "Matzaka", "lon": "14.5808333"}, {"lat": "-3.7147222", "city": "Matzou\u00e9l\u00e9", "lon": "14.5711111"}, {"lat": "-4.2644444", "city": "Mavou\u00e9la", "lon": "14.8836111"}, {"lat": "-4.855", "city": "Mawila", "lon": "14.5894444"}, {"lat": "-3.7711111", "city": "Mayala", "lon": "14.3575"}, {"lat": "-3.8472222", "city": "Mayama", "lon": "14.8916667"}, {"lat": "-4.7783333", "city": "Mayamboula", "lon": "14.84"}, {"lat": "-4.4469444", "city": "Mayanou Kinndamba", "lon": "14.8833333"}, {"lat": "-4.4469444", "city": "Mayanou", "lon": "14.8833333"}, {"lat": "-3.6936111", "city": "Mayela", "lon": "14.9166667"}, {"lat": "-3.8597222", "city": "May\u00e9", "lon": "14.525"}, {"lat": "-3.6061111", "city": "May\u00e9nani", "lon": "14.3338889"}, {"lat": "-4.1083333", "city": "Mayoko", "lon": "14.315"}, {"lat": "-4.0502778", "city": "Mayola", "lon": "14.9491667"}, {"lat": "-4.6830556", "city": "Mayomb\u00e9", "lon": "14.5386111"}, {"lat": "-4.7275", "city": "Mayondzi", "lon": "14.6130556"}, {"lat": "-4.4925", "city": "Mazi", "lon": "14.595"}, {"lat": "-3.9544444", "city": "Mbakidi", "lon": "14.6277778"}, {"lat": "-3.4008333", "city": "Mbakou II", "lon": "14.3330556"}, {"lat": "-3.4177778", "city": "Mbakou", "lon": "14.3452778"}, {"lat": "-4.1330556", "city": "Mbalourou", "lon": "15.3505556"}, {"lat": "-3.8605556", "city": "Mbama Diari", "lon": "14.3655556"}, {"lat": "-3.5938889", "city": "Mbama", "lon": "14.4663889"}, {"lat": "-3.7522222", "city": "Mba", "lon": "15.2008333"}, {"lat": "-4.2930556", "city": "Mbamba", "lon": "14.0830556"}, {"lat": "-4.7416667", "city": "Mbami", "lon": "14.6130556"}, {"lat": "-4.2786111", "city": "Mbamou", "lon": "14.8797222"}, {"lat": "-3.4483333", "city": "Mbanba II", "lon": "14.3875"}, {"lat": "-3.4541667", "city": "Mbanba I", "lon": "14.4147222"}, {"lat": "-3.7591667", "city": "Mbanba", "lon": "14.5011111"}, {"lat": "-4.7486111", "city": "Mbandza-Nkaka", "lon": "14.7297222"}, {"lat": "-4.7058333", "city": "Mbandza-Sanda", "lon": "14.6197222"}, {"lat": "-3.8366667", "city": "Mbantounga", "lon": "14.3830556"}, {"lat": "-4.6194444", "city": "Mbanza Baka", "lon": "14.4336111"}, {"lat": "-4.7211111", "city": "Mbanza Bangou", "lon": "14.5311111"}, {"lat": "-4.6861111", "city": "Mbanza B\u00e8mb\u00e9", "lon": "14.7702778"}, {"lat": "-4.6433333", "city": "Mbanza Galangala", "lon": "14.8877778"}, {"lat": "-3.9883333", "city": "Mbanza Gounga", "lon": "14.5333333"}, {"lat": "-4.5686111", "city": "Mbanza Gu\u00e9ri", "lon": "14.9222222"}, {"lat": "-4.7486111", "city": "Mbanza Kaka", "lon": "14.7297222"}, {"lat": "-4.8536111", "city": "Mbanza Kimoukou", "lon": "14.4211111"}, {"lat": "-4.7005556", "city": "Mbanza Kolo", "lon": "14.5225"}, {"lat": "-4.6661111", "city": "Mbanza Loukaya", "lon": "14.7591667"}, {"lat": "-4.625", "city": "Mbanza Mankondi", "lon": "14.8838889"}, {"lat": "-4.7961111", "city": "Mbanza Mik\u00e9ng\u00e9", "lon": "14.5919444"}, {"lat": "-4.7961111", "city": "Mbanza Mik\u00e8ngu\u00e9", "lon": "14.5919444"}, {"lat": "-4.5163889", "city": "Mbanza-Ndounga", "lon": "15.0266667"}, {"lat": "-4.59", "city": "Mbanza Nganga", "lon": "14.4230556"}, {"lat": "-4.1819444", "city": "Mbanzang\u00e9ri X", "lon": "15.0605556"}, {"lat": "-4.6241667", "city": "Mbanza-Ntombo", "lon": "14.5583333"}, {"lat": "-4.5641667", "city": "Mbanza Ouamba", "lon": "14.4366667"}, {"lat": "-4.6586111", "city": "Mbanza Poudi", "lon": "14.4752778"}, {"lat": "-4.7058333", "city": "Mbanza Sanda", "lon": "14.6197222"}, {"lat": "-4.6241667", "city": "Mbanza Tombo", "lon": "14.5583333"}, {"lat": "-4.7377778", "city": "Mbanza Zanga", "lon": "14.4136111"}, {"lat": "-3.7966667", "city": "Mb\u00e9bagandou", "lon": "14.5580556"}, {"lat": "-4.4730556", "city": "Mb\u00e9ha", "lon": "14.7172222"}, {"lat": "-4.4855556", "city": "Mb\u00e9ho", "lon": "14.7238889"}, {"lat": "-4.8713889", "city": "Mbelo", "lon": "14.7016667"}, {"lat": "-3.5016667", "city": "Mbemba", "lon": "14.5066667"}, {"lat": "-3.2938889", "city": "Mbemba Ndouala", "lon": "14.5252778"}, {"lat": "-3.305", "city": "Mb\u00e9", "lon": "15.8941667"}, {"lat": "-3.3538889", "city": "Mbemb\u00e9", "lon": "14.5169444"}, {"lat": "-4.5663889", "city": "Mbi\u00e9di II", "lon": "14.5947222"}, {"lat": "-4.5663889", "city": "Mbi\u00e9di I", "lon": "14.6086111"}, {"lat": "-3.4102778", "city": "M'Bima", "lon": "15.4266667"}, {"lat": "-3.3980556", "city": "Mbina", "lon": "15.4438889"}, {"lat": "-3.35", "city": "Mbina-Monsiba", "lon": "15.5333333"}, {"lat": "-3.4177778", "city": "Mbokou I", "lon": "14.3452778"}, {"lat": "-4.5566667", "city": "Mbonza", "lon": "14.9675"}, {"lat": "-4.2502778", "city": "Mbouaboua", "lon": "14.1069444"}, {"lat": "-3.9322222", "city": "Mbouala Maouolo", "lon": "14.5613889"}, {"lat": "-4.2133333", "city": "Mbou\u00e9ya", "lon": "14.5169444"}, {"lat": "-3.4605556", "city": "Mboulou", "lon": "14.5158333"}, {"lat": "-4.7538889", "city": "Mbouma", "lon": "14.7366667"}, {"lat": "-4.2458333", "city": "Mbou", "lon": "14.5916667"}, {"lat": "-4.6994444", "city": "Mbounda II", "lon": "14.7302778"}, {"lat": "-4.6861111", "city": "Mbounda I", "lon": "14.7352778"}, {"lat": "-4.6744444", "city": "Mbounda IV", "lon": "14.7491667"}, {"lat": "-3.5636111", "city": "Mboutoutou", "lon": "14.3863889"}, {"lat": "-3.4572222", "city": "Mbouza", "lon": "14.5652778"}, {"lat": "-3.0169444", "city": "M\u00e9ango", "lon": "14.5991667"}, {"lat": "-3.5666667", "city": "M\u00e9l\u00e9z\u00e9", "lon": "16.0833333"}, {"lat": "-4.4202778", "city": "Menang\u00e9la", "lon": "14.8780556"}, {"lat": "-4.405", "city": "M\u00e9nangu\u00e9la", "lon": "14.8747222"}, {"lat": "-3.8238889", "city": "M\u00e9pab\u00e9", "lon": "15.4027778"}, {"lat": "-3.8877778", "city": "M\u00e9ya", "lon": "14.5219444"}, {"lat": "-3.4308333", "city": "M'Fia", "lon": "14.8325"}, {"lat": "-3.4022222", "city": "Miami", "lon": "14.3316667"}, {"lat": "-3.0169444", "city": "Miango", "lon": "14.5991667"}, {"lat": "-4.1694444", "city": "Mibilou", "lon": "14.7516667"}, {"lat": "-4.205", "city": "Miboti", "lon": "14.4597222"}, {"lat": "-4.3338889", "city": "Mibouba", "lon": "14.4788889"}, {"lat": "-3.6308333", "city": "Mibouri Mountoubouna", "lon": "14.6872222"}, {"lat": "-3.9113889", "city": "Mienanzambi", "lon": "14.9125"}, {"lat": "-3.5127778", "city": "Mi\u00e9ni", "lon": "14.5222222"}, {"lat": "-4.4411111", "city": "Mifouma", "lon": "14.5847222"}, {"lat": "-4.4186111", "city": "Migeng\u00e9", "lon": "14.5786111"}, {"lat": "-4.2613889", "city": "Mig\u00e9t\u00e9", "lon": "14.8113889"}, {"lat": "-4.2519444", "city": "Migu\u00e8ngu\u00e9", "lon": "14.1405556"}, {"lat": "-4.2613889", "city": "Migu\u00e9t\u00e9", "lon": "14.8113889"}, {"lat": "-4.23", "city": "Mih\u00e9t\u00e9", "lon": "14.8461111"}, {"lat": "-4.2780556", "city": "Mikatou", "lon": "15.1352778"}, {"lat": "-4.2019444", "city": "Mikinndou", "lon": "14.5130556"}, {"lat": "-4.1344444", "city": "Mikizou", "lon": "14.5897222"}, {"lat": "-3.6372222", "city": "Mikoua", "lon": "14.4347222"}, {"lat": "-4.2922222", "city": "Mikoudi", "lon": "14.8963889"}, {"lat": "-3.9769444", "city": "Mikouimba", "lon": "15.2497222"}, {"lat": "-3.2611111", "city": "Mil\u00e9l\u00e9", "lon": "14.7466667"}, {"lat": "-3.9041667", "city": "Millongi", "lon": "15.1397222"}, {"lat": "-3.9041667", "city": "Millongui", "lon": "15.1397222"}, {"lat": "-4.0419444", "city": "Milombo", "lon": "14.3108333"}, {"lat": "-3.5066667", "city": "Milou", "lon": "14.4019444"}, {"lat": "-4.3202778", "city": "MimpalaII", "lon": "14.0219444"}, {"lat": "-4.2683333", "city": "Mindouli", "lon": "14.3838889"}, {"lat": "-4.3197222", "city": "Mindou", "lon": "13.985"}, {"lat": "-3.5208333", "city": "Mindzo Dzoulou", "lon": "14.59"}, {"lat": "-3.1955556", "city": "Mingali", "lon": "14.2280556"}, {"lat": "-4.1275", "city": "Ming\u00e9l\u00e9", "lon": "14.4063889"}, {"lat": "-4.2519444", "city": "Minguengu\u00e9", "lon": "14.1405556"}, {"lat": "-4.2519444", "city": "Minguerigue", "lon": "14.1405556"}, {"lat": "-4.1275", "city": "Minngu\u00e9l\u00e9", "lon": "14.4063889"}, {"lat": "-4.0480556", "city": "Minnkamou", "lon": "14.5733333"}, {"lat": "-3.2188889", "city": "Minsa Minsa", "lon": "14.5819444"}, {"lat": "-3.4766667", "city": "Mins\u00e9r\u00e9", "lon": "14.3325"}, {"lat": "-3.4766667", "city": "Minz\u00e8re", "lon": "14.3325"}, {"lat": "-3.71", "city": "Misafou", "lon": "14.5061111"}, {"lat": "-2.8380556", "city": "Misa", "lon": "14.6997222"}, {"lat": "-3.2561111", "city": "Misamou", "lon": "14.6008333"}, {"lat": "-4.0980556", "city": "Misanda", "lon": "14.4405556"}, {"lat": "-3.8625", "city": "Misanvi Banda", "lon": "14.5922222"}, {"lat": "-3.5619444", "city": "Misio", "lon": "15.4080556"}, {"lat": "-3.8480556", "city": "Misousounbi", "lon": "14.5319444"}, {"lat": "-4.275", "city": "Missafou", "lon": "14.4883333"}, {"lat": "-2.8380556", "city": "Missa", "lon": "14.6997222"}, {"lat": "-4.0980556", "city": "Missanda", "lon": "14.4405556"}, {"lat": "-4.0327778", "city": "Miss\u00e8nga", "lon": "14.4947222"}, {"lat": "-3.4277778", "city": "Mitimi\u00e9l\u00e9", "lon": "15.4352778"}, {"lat": "-4.1125", "city": "Mitoko", "lon": "14.4752778"}, {"lat": "-3.8", "city": "Mitolo", "lon": "14.45"}, {"lat": "-3.2419444", "city": "Mitouomi", "lon": "14.2891667"}, {"lat": "-4.3097222", "city": "Mitoya", "lon": "14.2827778"}, {"lat": "-3.2419444", "city": "Mituomi", "lon": "14.2891667"}, {"lat": "-4.2269444", "city": "Miyaya II", "lon": "14.2522222"}, {"lat": "-4.2261111", "city": "Miyaya I", "lon": "14.2769444"}, {"lat": "-4.3197222", "city": "Mkasou", "lon": "13.9577778"}, {"lat": "-4.3311111", "city": "M. Nkoye", "lon": "15.0652778"}, {"lat": "-4.7783333", "city": "Moalou", "lon": "14.6502778"}, {"lat": "-3.7825", "city": "Moanga Mapita", "lon": "14.3413889"}, {"lat": "-3.7830556", "city": "Moanga Moungoro", "lon": "14.4516667"}, {"lat": "-4.3163889", "city": "Moangangoba", "lon": "14.7525"}, {"lat": "-3.6702778", "city": "Moanga Ngouba", "lon": "14.6027778"}, {"lat": "-3.0169444", "city": "Moango", "lon": "14.5991667"}, {"lat": "-3.805", "city": "Mobili", "lon": "15.1263889"}, {"lat": "-4.1986111", "city": "Mont Bouki\u00e9ro", "lon": "15.285"}, {"lat": "-3.1597222", "city": "Mosandjoko", "lon": "16.1730556"}, {"lat": "-3.4086111", "city": "Mosingi", "lon": "16.1655556"}, {"lat": "-3.0891667", "city": "Motanpa", "lon": "16.1647222"}, {"lat": "-3.3241667", "city": "Mouabi", "lon": "14.3530556"}, {"lat": "-3.0694444", "city": "Mouala", "lon": "16.1686111"}, {"lat": "-4.39", "city": "Mouanda", "lon": "14.7633333"}, {"lat": "-4.0425", "city": "Moubanza", "lon": "14.7927778"}, {"lat": "-4.0705556", "city": "Moubidi", "lon": "14.6863889"}, {"lat": "-4.3033333", "city": "Moubiri\u00e9", "lon": "14.1975"}, {"lat": "-3.4538889", "city": "Mouboma", "lon": "15.2436111"}, {"lat": "-3.4086111", "city": "Mouchinga", "lon": "16.1655556"}, {"lat": "-4.2102778", "city": "Mougoumi", "lon": "14.7733333"}, {"lat": "-4.2102778", "city": "Mouhoumi", "lon": "14.7733333"}, {"lat": "-4.3197222", "city": "Moukombo", "lon": "14.82"}, {"lat": "-4.5361111", "city": "Moukossi", "lon": "15.0080556"}, {"lat": "-4.2727778", "city": "Moukoulakenzo", "lon": "15.0125"}, {"lat": "-4.5519444", "city": "Moukounkou II", "lon": "14.6347222"}, {"lat": "-4.5483333", "city": "Moukounkou", "lon": "14.6258333"}, {"lat": "-3.8088889", "city": "Moulala", "lon": "14.5408333"}, {"lat": "-3.0694444", "city": "Moula", "lon": "16.1686111"}, {"lat": "-4.3622222", "city": "Moulandou", "lon": "14.0063889"}, {"lat": "-4.4688889", "city": "Moulenda", "lon": "14.5622222"}, {"lat": "-3.6072222", "city": "Moulengo", "lon": "14.3313889"}, {"lat": "-3.7313889", "city": "Moul\u00e9ri", "lon": "14.8105556"}, {"lat": "-4.2522222", "city": "Moumanga", "lon": "14.2152778"}, {"lat": "-4.1716667", "city": "Moumani", "lon": "14.9358333"}, {"lat": "-3.6222222", "city": "Moum\u00e9n\u00e9", "lon": "14.4366667"}, {"lat": "-4.1716667", "city": "Moum\u00e9ni", "lon": "14.9358333"}, {"lat": "-3.7830556", "city": "Moungoro", "lon": "14.4516667"}, {"lat": "-3.3238889", "city": "Moungou\u00e9ri", "lon": "14.4963889"}, {"lat": "-4.4155556", "city": "Moungoumi", "lon": "14.5197222"}, {"lat": "-3.5241667", "city": "Mounkala", "lon": "14.5241667"}, {"lat": "-4.5280556", "city": "Mounkasa", "lon": "14.6811111"}, {"lat": "-4.5280556", "city": "Mounkassa", "lon": "14.6811111"}, {"lat": "-3.4077778", "city": "Mounkomo II", "lon": "14.2219444"}, {"lat": "-3.3997222", "city": "Mounkomo I", "lon": "14.2505556"}, {"lat": "-3.4030556", "city": "Mounoko", "lon": "14.4236111"}, {"lat": "-4.4597222", "city": "Mounpoko", "lon": "14.865"}, {"lat": "-3.4191667", "city": "Mouns\u00e9n\u00e9", "lon": "14.2063889"}, {"lat": "-4.5313889", "city": "Mounsou\u00e9l\u00e9", "lon": "14.5536111"}, {"lat": "-4.7119444", "city": "Mounsounsou", "lon": "14.8708333"}, {"lat": "-4.4005556", "city": "Mount\u00e9lembisa", "lon": "14.5877778"}, {"lat": "-4.4005556", "city": "Mount\u00e9l\u00e8mbissa", "lon": "14.5877778"}, {"lat": "-4.2536111", "city": "Mount\u00e9l\u00e9", "lon": "14.6711111"}, {"lat": "-3.6863889", "city": "Mountenb\u00e9sa", "lon": "14.3869444"}, {"lat": "-4.2272222", "city": "Mountissa", "lon": "14.5736111"}, {"lat": "-3.7111111", "city": "Mountoko", "lon": "14.5805556"}, {"lat": "-3.3830556", "city": "Mountota", "lon": "14.5752778"}, {"lat": "-3.3830556", "city": "Mountote", "lon": "14.5752778"}, {"lat": "-4.1736111", "city": "Mounzaba", "lon": "14.9783333"}, {"lat": "-4.5191667", "city": "Mouossou\u00e9l\u00e9", "lon": "14.5488889"}, {"lat": "-4.1925", "city": "Moupanou", "lon": "14.8941667"}, {"lat": "-4.0505556", "city": "Moupou", "lon": "14.3136111"}, {"lat": "-3.4338889", "city": "Mous\u00e9l\u00e9", "lon": "14.4997222"}, {"lat": "-3.3855556", "city": "Mousenga", "lon": "14.5866667"}, {"lat": "-4.1219444", "city": "Mousenongo", "lon": "14.8405556"}, {"lat": "-3.8661111", "city": "Mousia", "lon": "14.3619444"}, {"lat": "-3.7880556", "city": "Mousiengo", "lon": "14.3808333"}, {"lat": "-3.7908333", "city": "Mousinga", "lon": "14.4066667"}, {"lat": "-4.3316667", "city": "Mouss\u00e8nga", "lon": "14.5736111"}, {"lat": "-4.1219444", "city": "Mouss\u00e9nongo", "lon": "14.8405556"}, {"lat": "-3.8661111", "city": "Moussia", "lon": "14.3619444"}, {"lat": "-3.6397222", "city": "Moussolo Dakar", "lon": "14.5147222"}, {"lat": "-4.1661111", "city": "Moutalango", "lon": "14.9291667"}, {"lat": "-4.2605556", "city": "Moutampa", "lon": "14.9055556"}, {"lat": "-3.4341667", "city": "Mout\u00e9l\u00e9", "lon": "14.0302778"}, {"lat": "-3.6863889", "city": "Moutembessa", "lon": "14.3869444"}, {"lat": "-4.1425", "city": "Moutenbisa", "lon": "14.7388889"}, {"lat": "-4.1425", "city": "Mout\u00e8nbissa", "lon": "14.7388889"}, {"lat": "-4.1822222", "city": "Moutesi", "lon": "14.8933333"}, {"lat": "-4.1822222", "city": "Mout\u00e9ssi", "lon": "14.8933333"}, {"lat": "-4.2925", "city": "Mout\u00e9t\u00e9", "lon": "14.5244444"}, {"lat": "-4.235", "city": "Moutimoulou", "lon": "14.3744444"}, {"lat": "-3.3836111", "city": "Moutoko", "lon": "14.1858333"}, {"lat": "-3.6238889", "city": "Moutoua", "lon": "14.4280556"}, {"lat": "-3.6727778", "city": "Moutouasala", "lon": "14.4147222"}, {"lat": "-4.4341667", "city": "Moutsila", "lon": "14.6533333"}, {"lat": "-3.9669444", "city": "Mouvimba", "lon": "14.8183333"}, {"lat": "-4.3858333", "city": "Mouyami", "lon": "14.6608333"}, {"lat": "-4.1641667", "city": "Mouyanga", "lon": "15.3125"}, {"lat": "-4.1675", "city": "Mouyani", "lon": "14.6925"}, {"lat": "-3.2927778", "city": "Mouy\u00e9", "lon": "14.5077778"}, {"lat": "-4.5686111", "city": "Mouz\u00e8nbalala", "lon": "14.4869444"}, {"lat": "-4.5530556", "city": "Mouz\u00e8nz\u00e9", "lon": "14.7530556"}, {"lat": "-4.2166667", "city": "Mouzi\u00e9to", "lon": "14.9147222"}, {"lat": "-3.1627778", "city": "Movimba", "lon": "14.2102778"}, {"lat": "-4.7913889", "city": "Mpakamatadi II", "lon": "14.6952778"}, {"lat": "-4.8080556", "city": "Mpakamatadi I", "lon": "14.6894444"}, {"lat": "-3.565", "city": "Mpaka", "lon": "14.5552778"}, {"lat": "-3.8547222", "city": "Mpasa", "lon": "14.4427778"}, {"lat": "-3.6597222", "city": "Mpasitolo", "lon": "14.6177778"}, {"lat": "-4.3091667", "city": "Mpassa", "lon": "14.0994444"}, {"lat": "-3.8547222", "city": "Mpassa-Village", "lon": "14.4427778"}, {"lat": "-4.0955556", "city": "Mpayaka", "lon": "14.8772222"}, {"lat": "-4.2397222", "city": "Mp\u00e9ho", "lon": "14.9272222"}, {"lat": "-4.5438889", "city": "Mp\u00e9lo", "lon": "14.8722222"}, {"lat": "-3.7525", "city": "Mp\u00e9mo", "lon": "14.4816667"}, {"lat": "-2.9038889", "city": "Mp\u00e9", "lon": "14.7175"}, {"lat": "-4.2230556", "city": "Mp\u00e9oula", "lon": "14.6825"}, {"lat": "-3.9752778", "city": "Mpika", "lon": "15.1297222"}, {"lat": "-4.0836111", "city": "Mpila", "lon": "14.6622222"}, {"lat": "-4.3047222", "city": "Mpita", "lon": "13.9502778"}, {"lat": "-3.9141667", "city": "Mpoka", "lon": "14.4941667"}, {"lat": "-4.795", "city": "Mpombo", "lon": "14.5427778"}, {"lat": "-3.6266667", "city": "Mpouli", "lon": "15.2288889"}, {"lat": "-3.1111111", "city": "Mpoumako", "lon": "15.6122222"}, {"lat": "-4.1791667", "city": "Mpoumou", "lon": "14.8319444"}, {"lat": "-3.5525", "city": "Mpouomo", "lon": "14.4302778"}, {"lat": "-3.4758333", "city": "Mpouo", "lon": "14.3697222"}, {"lat": "-3.7716667", "city": "Mvouaka", "lon": "14.5041667"}, {"lat": "-3.8816667", "city": "Mvounda", "lon": "14.5247222"}, {"lat": "-4.1605556", "city": "Mvouta", "lon": "14.7930556"}, {"lat": "-4.0261111", "city": "Ndamba", "lon": "14.5847222"}, {"lat": "-3.9075", "city": "Ndandou", "lon": "14.4738889"}, {"lat": "-3.7452778", "city": "Nd\u00e9ba", "lon": "14.5738889"}, {"lat": "-4.8488889", "city": "Ndembo", "lon": "14.6397222"}, {"lat": "-3.7019444", "city": "Ndoba", "lon": "14.4658333"}, {"lat": "-3.8583333", "city": "Ndoma", "lon": "15.3630556"}, {"lat": "-3.8633333", "city": "Ndoulou", "lon": "14.5488889"}, {"lat": "-4.2197222", "city": "Ndouo", "lon": "15.1955556"}, {"lat": "-3.2147222", "city": "N'Gaba", "lon": "16.1736111"}, {"lat": "-3.2375", "city": "Ngab\u00e9 Mok\u00e9", "lon": "16.1741667"}, {"lat": "-3.1986111", "city": "Ngab\u00e9", "lon": "16.1816667"}, {"lat": "-3.8758333", "city": "Ngal\u00e9", "lon": "15.4136111"}, {"lat": "-4.3258333", "city": "Ngamanbou", "lon": "14.8475"}, {"lat": "-4.3702778", "city": "Ngaman", "lon": "14.8438889"}, {"lat": "-4.3619444", "city": "Ngamiboulou", "lon": "14.735"}, {"lat": "-4.3627778", "city": "Ngamisiba", "lon": "14.8255556"}, {"lat": "-4.3627778", "city": "Ngamissiba", "lon": "14.8255556"}, {"lat": "-4.3627778", "city": "Ngamississa", "lon": "14.8255556"}, {"lat": "-4.235", "city": "Ngamou\u00e9ri", "lon": "15.2277778"}, {"lat": "-3.2980556", "city": "Ngamoulouoni", "lon": "14.4188889"}, {"lat": "-3.6905556", "city": "Nganbaka", "lon": "14.3636111"}, {"lat": "-3.8144444", "city": "Nganba", "lon": "14.4075"}, {"lat": "-3.3377778", "city": "Nganchou", "lon": "16.1975"}, {"lat": "-3.9788889", "city": "Ngandoulou", "lon": "14.3586111"}, {"lat": "-3.3591667", "city": "Ngandou", "lon": "14.2002778"}, {"lat": "-4.3286111", "city": "Nganga-Lingolo", "lon": "15.1566667"}, {"lat": "-3.3377778", "city": "N'Gantchou", "lon": "16.1975"}, {"lat": "-3.825", "city": "Ngantoko", "lon": "14.4072222"}, {"lat": "-3.9672222", "city": "Ngapimi", "lon": "15.8277778"}, {"lat": "-3.4986111", "city": "Ngasala", "lon": "14.2833333"}, {"lat": "-4.3466667", "city": "Ng\u00e9la", "lon": "14.9111111"}, {"lat": "-4.0661111", "city": "Ngidi", "lon": "15.0844444"}, {"lat": "-3.8216667", "city": "Ngila", "lon": "14.5716667"}, {"lat": "-4.1813889", "city": "Ngina", "lon": "14.5844444"}, {"lat": "-4.1872222", "city": "Ngodivoua", "lon": "14.7633333"}, {"lat": "-4.315", "city": "Ngola", "lon": "13.9516667"}, {"lat": "-3.345", "city": "Ngol\u00e9", "lon": "14.5361111"}, {"lat": "-3.8002778", "city": "Ngoma Loupesi", "lon": "14.4444444"}, {"lat": "-4.2288889", "city": "Ngoma Ts\u00e9-Ts\u00e9", "lon": "15.1311111"}, {"lat": "-4.4919444", "city": "Ngomboulou", "lon": "14.7830556"}, {"lat": "-3.5091667", "city": "Ngomo", "lon": "14.4411111"}, {"lat": "-3.9808333", "city": "Ngomoutcha", "lon": "15.7363889"}, {"lat": "-3.7947222", "city": "Ngonda", "lon": "14.415"}, {"lat": "-3.695", "city": "N'Gouani", "lon": "15.2130556"}, {"lat": "-3.3788889", "city": "Ngoulou", "lon": "14.2794444"}, {"lat": "-3.8633333", "city": "N'Goulou", "lon": "14.5488889"}, {"lat": "-4.1763889", "city": "Ngoumbou", "lon": "14.3719444"}, {"lat": "-3.6863889", "city": "Ngoungou", "lon": "14.45"}, {"lat": "-3.8141667", "city": "Ngouni", "lon": "15.0908333"}, {"lat": "-3.695", "city": "Ngouomi", "lon": "15.2130556"}, {"lat": "-4.0661111", "city": "Nguidi", "lon": "15.0844444"}, {"lat": "-4.1813889", "city": "Nguina", "lon": "14.5844444"}, {"lat": "-4.0661111", "city": "N'Guiri", "lon": "15.0844444"}, {"lat": "-4.5055556", "city": "Nianga", "lon": "14.8661111"}, {"lat": "-3.4925", "city": "Nkala", "lon": "15.3091667"}, {"lat": "-4.6588889", "city": "Nkama", "lon": "14.6630556"}, {"lat": "-4.0691667", "city": "Nkana", "lon": "14.7058333"}, {"lat": "-3.4791667", "city": "Nk\u00e9 II", "lon": "14.5833333"}, {"lat": "-3.4669444", "city": "Nk\u00e9 I", "lon": "14.5858333"}, {"lat": "-3.5508333", "city": "Nk\u00e9", "lon": "14.6083333"}, {"lat": "-3.6458333", "city": "Nkenzo", "lon": "14.5458333"}, {"lat": "-3.6819444", "city": "Nk\u00e9wa Mp\u00e9mo", "lon": "14.5825"}, {"lat": "-3.6380556", "city": "Nkit\u00e9b\u00e9", "lon": "15.2263889"}, {"lat": "-3.7702778", "city": "Nkodia", "lon": "14.4497222"}, {"lat": "-3.6625", "city": "Nkodia Nzanzi", "lon": "14.5147222"}, {"lat": "-3.4936111", "city": "Nkoi", "lon": "14.3852778"}, {"lat": "-4.6744444", "city": "Nkoki", "lon": "14.5388889"}, {"lat": "-4.7033333", "city": "Nkola", "lon": "14.6722222"}, {"lat": "-4.7663889", "city": "Nkolo", "lon": "14.6466667"}, {"lat": "-3.7841667", "city": "Nkombo", "lon": "14.4211111"}, {"lat": "-3.4936111", "city": "Nko", "lon": "14.3852778"}, {"lat": "-3.4936111", "city": "Nkoo", "lon": "14.3852778"}, {"lat": "-4.7005556", "city": "Nkoudi", "lon": "14.6155556"}, {"lat": "-3.9488889", "city": "Nkou\u00e9", "lon": "14.9861111"}, {"lat": "-3.8327778", "city": "Nkounga", "lon": "14.3902778"}, {"lat": "-3.6077778", "city": "Nkou", "lon": "15.3338889"}, {"lat": "-3.7022222", "city": "Nkouo", "lon": "15.5027778"}, {"lat": "-3.4397222", "city": "Nkouta", "lon": "14.5083333"}, {"lat": "-3.9833333", "city": "Nkoye", "lon": "14.6333333"}, {"lat": "-4.4477778", "city": "Nkoy", "lon": "14.9747222"}, {"lat": "-4.3094444", "city": "Nounouka", "lon": "14.6697222"}, {"lat": "-4.6277778", "city": "Nsaka", "lon": "14.5011111"}, {"lat": "-4.3477778", "city": "Nsamouna", "lon": "14.6175"}, {"lat": "-4.4194444", "city": "Nsomo", "lon": "14.9397222"}, {"lat": "-4.1922222", "city": "Nsou\u00e9l\u00e9", "lon": "15.1866667"}, {"lat": "-3.4755556", "city": "Nsound\u00e9", "lon": "14.5552778"}, {"lat": "-4.12", "city": "Nsoundi", "lon": "14.9669444"}, {"lat": "-3.8108333", "city": "Nsounson", "lon": "14.4455556"}, {"lat": "-3.8108333", "city": "Nsounsou Moana", "lon": "14.4455556"}, {"lat": "-4.0180556", "city": "Ntari Binnz\u00e8mba", "lon": "14.3427778"}, {"lat": "-4.0180556", "city": "Ntari Binzemba", "lon": "14.3427778"}, {"lat": "-4.0386111", "city": "Ntari", "lon": "14.3875"}, {"lat": "-4.3880556", "city": "Ntembo", "lon": "14.0975"}, {"lat": "-4.8638889", "city": "Ntombo-Manyanga", "lon": "14.4330556"}, {"lat": "-3.6944444", "city": "Ntoni", "lon": "14.53"}, {"lat": "-4.6525", "city": "Ntsakabilou", "lon": "14.7302778"}, {"lat": "-3.7638889", "city": "Ntsami", "lon": "15.3030556"}, {"lat": "-4.7116667", "city": "Ntsatointoto", "lon": "14.69"}, {"lat": "-3.5652778", "city": "Ntsimou", "lon": "15.2066667"}, {"lat": "-3.3044444", "city": "Ntsinankio", "lon": "15.4455556"}, {"lat": "-4.7872222", "city": "Nzabi", "lon": "14.8336111"}, {"lat": "-3.3377778", "city": "Nzagamani", "lon": "14.6541667"}, {"lat": "-4.6366667", "city": "Nzaka", "lon": "14.4766667"}, {"lat": "-4.3872222", "city": "Nzala", "lon": "14.1905556"}, {"lat": "-3.4275", "city": "Nzaon", "lon": "15.2219444"}, {"lat": "-4.6294444", "city": "Nzaza II", "lon": "14.6294444"}, {"lat": "-4.5888889", "city": "Nzaza I", "lon": "14.6441667"}, {"lat": "-3.5752778", "city": "Nzend\u00e9", "lon": "14.4002778"}, {"lat": "-4.8380556", "city": "Nzi\u00e9to", "lon": "14.6294444"}, {"lat": "-3.4925", "city": "Nzila", "lon": "14.55"}, {"lat": "-3.3075", "city": "Nzomo", "lon": "14.2066667"}, {"lat": "-4.7861111", "city": "Nzonzo", "lon": "14.6025"}, {"lat": "-3.1963889", "city": "Nzoulou", "lon": "16.0011111"}, {"lat": "-4.6813889", "city": "Nzoungui", "lon": "14.6566667"}, {"lat": "-3.8944444", "city": "Odoua", "lon": "15.2880556"}, {"lat": "-3.5777778", "city": "Odziba", "lon": "15.5144444"}, {"lat": "-3.3255556", "city": "Ohou\u00e9", "lon": "15.57"}, {"lat": "-3.5788889", "city": "Oka", "lon": "15.2491667"}, {"lat": "-3.1816667", "city": "Oki\u00e9n\u00e9", "lon": "16.0311111"}, {"lat": "-3.6180556", "city": "Ong\u00e9ne", "lon": "15.2305556"}, {"lat": "-3.4", "city": "Ooua", "lon": "14.7333333"}, {"lat": "-4.3202778", "city": "Oualala", "lon": "14.4511111"}, {"lat": "-3.3861111", "city": "Ouanda-Mpassa", "lon": "14.275"}, {"lat": "-3.4061111", "city": "Ouanda", "lon": "14.3488889"}, {"lat": "-4.4325", "city": "Ouaoua", "lon": "14.8322222"}, {"lat": "-3.9763889", "city": "Ouenzia", "lon": "15.7458333"}, {"lat": "-3.9186111", "city": "Oy\u00e9", "lon": "15.4011111"}, {"lat": "-4.3702778", "city": "Pakasa", "lon": "14.8438889"}, {"lat": "-4.3702778", "city": "Pakassa", "lon": "14.8438889"}, {"lat": "-3.3163889", "city": "Pangala", "lon": "14.5741667"}, {"lat": "-4.6652778", "city": "Pangou", "lon": "14.4536111"}, {"lat": "-4.2633333", "city": "Paris", "lon": "14.1688889"}, {"lat": "-4.0102778", "city": "Pasitolo", "lon": "14.6972222"}, {"lat": "-4.0102778", "city": "Passitolo", "lon": "14.6972222"}, {"lat": "-4.4502778", "city": "Pati", "lon": "14.5291667"}, {"lat": "-3.825", "city": "P\u00e9ola", "lon": "14.6191667"}, {"lat": "-4.1869444", "city": "Pi\u00e9m\u00e9", "lon": "14.36"}, {"lat": "-3.0752778", "city": "Pi\u00e9", "lon": "15.6602778"}, {"lat": "-4.2683333", "city": "Pikamand\u00e9la", "lon": "14.5708333"}, {"lat": "-4.3502778", "city": "Pot\u00e9", "lon": "15.0325"}, {"lat": "-4.3502778", "city": "Poti", "lon": "15.0325"}, {"lat": "-4.1302778", "city": "Poto Poto", "lon": "14.9158333"}, {"lat": "-4.0011111", "city": "Poukoulou", "lon": "14.4427778"}, {"lat": "-3.0925", "city": "Poumako", "lon": "15.6316667"}, {"lat": "-4.57", "city": "Quimpanza", "lon": "14.9511111"}, {"lat": "-3.9855556", "city": "Ren\u00e9ville", "lon": "14.6294444"}, {"lat": "-4.3613889", "city": "Sakala", "lon": "13.9919444"}, {"lat": "-4.5591667", "city": "Sakameso", "lon": "14.625"}, {"lat": "-4.5591667", "city": "Sakam\u00e8sso", "lon": "14.625"}, {"lat": "-3.6083333", "city": "Salabiakou", "lon": "14.6091667"}, {"lat": "-4.1472222", "city": "Salamb\u00e9", "lon": "14.6419444"}, {"lat": "-4.3816667", "city": "Sala", "lon": "13.9983333"}, {"lat": "-4.26", "city": "Samba", "lon": "15.1977778"}, {"lat": "-3.6433333", "city": "Sangamvila", "lon": "14.3875"}, {"lat": "-4.1741667", "city": "Sanga-Mvila", "lon": "14.6961111"}, {"lat": "-4.1741667", "city": "Sanga Vila", "lon": "14.6961111"}, {"lat": "-4.6927778", "city": "Sangavimba II", "lon": "14.4516667"}, {"lat": "-4.71", "city": "Sangavimba I", "lon": "14.4458333"}, {"lat": "-4.2608333", "city": "Sansfil", "lon": "14.3633333"}, {"lat": "-3.3513889", "city": "Santa Maria", "lon": "16.1933333"}, {"lat": "-3.3730556", "city": "S\u00e9d\u00e8k", "lon": "16.1866667"}, {"lat": "-3.2325", "city": "S\u00e9l\u00e9k\u00e9", "lon": "14.5883333"}, {"lat": "-3.3513889", "city": "S\u00e9mo", "lon": "14.5025"}, {"lat": "-4.0630556", "city": "S\u00e8ngo", "lon": "14.3541667"}, {"lat": "-4.7522222", "city": "S\u00e9s\u00e9", "lon": "14.6008333"}, {"lat": "-4.7522222", "city": "S\u00e9ss\u00e9", "lon": "14.6008333"}, {"lat": "-3.4202778", "city": "Sietamapoto", "lon": "14.5797222"}, {"lat": "-4.2302778", "city": "Sinabatsoa", "lon": "15.1944444"}, {"lat": "-4.7455556", "city": "Singabanana", "lon": "14.6333333"}, {"lat": "-4.7455556", "city": "Sinngabanana", "lon": "14.6333333"}, {"lat": "-4.7311111", "city": "Songa", "lon": "14.6736111"}, {"lat": "-4.1813889", "city": "Souaka", "lon": "14.7469444"}, {"lat": "-4.8875", "city": "Souki", "lon": "14.6563889"}, {"lat": "-4.6144444", "city": "Soukou", "lon": "14.9241667"}, {"lat": "-4.0558333", "city": "Souou", "lon": "15.3061111"}, {"lat": "-4.1652778", "city": "Taba", "lon": "14.3677778"}, {"lat": "-4.6563889", "city": "Tadi", "lon": "14.6611111"}, {"lat": "-3.2677778", "city": "Talinga", "lon": "16.1763889"}, {"lat": "-4.1", "city": "Tchaba", "lon": "15.2833333"}, {"lat": "-4.0633333", "city": "Tchikouimba", "lon": "14.5730556"}, {"lat": "-3.3947222", "city": "Tchilamana", "lon": "14.5966667"}, {"lat": "-4.2213889", "city": "Tchipouka", "lon": "14.4725"}, {"lat": "-2.9844444", "city": "Tchitchounga", "lon": "14.6322222"}, {"lat": "-4.1752778", "city": "T\u00e9l\u00e9mono", "lon": "14.3544444"}, {"lat": "-3.6666667", "city": "Tension", "lon": "14.5997222"}, {"lat": "-4.8186111", "city": "Tenta", "lon": "14.7897222"}, {"lat": "-4.2741667", "city": "Tiboungama", "lon": "14.4880556"}, {"lat": "-4.2741667", "city": "Tibungama", "lon": "14.4880556"}, {"lat": "-4.3655556", "city": "Tingoy", "lon": "15.0333333"}, {"lat": "-4.7680556", "city": "Tomba", "lon": "14.5794444"}, {"lat": "-4.7680556", "city": "Tombi", "lon": "14.5794444"}, {"lat": "-4.6241667", "city": "Tombo Kolo", "lon": "14.5583333"}, {"lat": "-4.8638889", "city": "Tombo", "lon": "14.4330556"}, {"lat": "-4.0286111", "city": "Tonato", "lon": "14.3294444"}, {"lat": "-4.3747222", "city": "Tonkama", "lon": "15.0058333"}, {"lat": "-4.5683333", "city": "Totodombi", "lon": "14.4236111"}, {"lat": "-4.1902778", "city": "Touala", "lon": "14.1594444"}, {"lat": "-4.2877778", "city": "Toual", "lon": "14.4922222"}, {"lat": "-4.3694444", "city": "Touboula", "lon": "15.1397222"}, {"lat": "-4.2477778", "city": "Toundou", "lon": "14.2186111"}, {"lat": "-3.8477778", "city": "Touo", "lon": "14.3816667"}, {"lat": "-4.2794444", "city": "Traversbanc", "lon": "14.3491667"}, {"lat": "-3.4986111", "city": "Tsaba", "lon": "14.2686111"}, {"lat": "-4.2608333", "city": "Tsabouka", "lon": "14.4280556"}, {"lat": "-4.3436111", "city": "Ts\u00e9ts\u00e9k\u00e9", "lon": "14.9002778"}, {"lat": "-4.2269444", "city": "Tsi\u00e9m\u00e9-Mandi\u00e9l\u00e9", "lon": "15.2875"}, {"lat": "-3.7083333", "city": "Tsouma", "lon": "14.5772222"}, {"lat": "-4.5316667", "city": "Vanza", "lon": "14.7633333"}, {"lat": "-4.2958333", "city": "Village Bacongo", "lon": "15.2236111"}, {"lat": "-3.4180556", "city": "Vindza", "lon": "14.55"}, {"lat": "-4.1197222", "city": "Vinnza", "lon": "14.4563889"}, {"lat": "-3.4180556", "city": "Vinza", "lon": "14.55"}, {"lat": "-4.6711111", "city": "Voka", "lon": "14.6736111"}, {"lat": "-4.5316667", "city": "Vouanza", "lon": "14.7633333"}, {"lat": "-3.1044444", "city": "Vouka", "lon": "13.5275"}, {"lat": "-4.3602778", "city": "Voula", "lon": "14.8438889"}, {"lat": "-4.1552778", "city": "Vouloumamba", "lon": "14.6847222"}, {"lat": "-4.4522222", "city": "Vouloumanba", "lon": "14.8380556"}, {"lat": "-4.6477778", "city": "Voulou", "lon": "14.7375"}, {"lat": "-4.3869444", "city": "Voungouta", "lon": "14.5633333"}, {"lat": "-4.2044444", "city": "Vouvou", "lon": "14.9633333"}, {"lat": "-4.3202778", "city": "Walala", "lon": "14.4511111"}, {"lat": "-4.3108333", "city": "Wanda", "lon": "14.6755556"}, {"lat": "-3.2833333", "city": "Yabongo", "lon": "16.1833333"}, {"lat": "-4.3575", "city": "Yaka-yaka", "lon": "15.145"}, {"lat": "-3.3666667", "city": "Yakou", "lon": "14.1958333"}, {"lat": "-4.6991667", "city": "Yalalakissi", "lon": "14.8266667"}, {"lat": "-4.3286111", "city": "Yalala", "lon": "14.8061111"}, {"lat": "-4.4169444", "city": "Yalavounga", "lon": "14.7572222"}, {"lat": "-4.4169444", "city": "Yala Vounga", "lon": "14.7572222"}, {"lat": "-4.7708333", "city": "Yana", "lon": "14.6430556"}, {"lat": "-4.745", "city": "Yanga Dzala", "lon": "14.6444444"}, {"lat": "-4.1861111", "city": "Yanga", "lon": "14.6316667"}, {"lat": "-4.2883333", "city": "Yangi", "lon": "14.6566667"}, {"lat": "-4.2883333", "city": "Yangui", "lon": "14.6566667"}, {"lat": "-4.5205556", "city": "Yanou", "lon": "15.0105556"}, {"lat": "-4.1561111", "city": "Yetila", "lon": "14.8702778"}, {"lat": "-3.8836111", "city": "Y\u00e9", "lon": "15.4094444"}, {"lat": "-4.2905556", "city": "Yokama", "lon": "14.7380556"}, {"lat": "-4.2472222", "city": "Youlou Bienge", "lon": "14.3425"}, {"lat": "-4.2472222", "city": "Youlou Bi\u00e8ngu\u00e9", "lon": "14.3425"}, {"lat": "-4.2716667", "city": "Youlou Mokila", "lon": "14.3291667"}, {"lat": "-4.8122222", "city": "Zabi", "lon": "14.8127778"}, {"lat": "-4.8638889", "city": "Zamba", "lon": "14.5916667"}, {"lat": "-4.7902778", "city": "Zedimba", "lon": "14.6694444"}, {"lat": "-4.8380556", "city": "Zi\u00e9to", "lon": "14.6294444"}, {"lat": "-4.8425", "city": "Zinga", "lon": "14.7208333"}, {"lat": "-4.8425", "city": "Zinnga", "lon": "14.7208333"}, {"lat": "-4.8177778", "city": "Zolabantou", "lon": "14.6816667"}, {"lat": "-4.4075", "city": "Zouloukabi", "lon": "14.5433333"}, {"lat": "-4.755", "city": "Zouloumongo", "lon": "14.6686111"}, {"lat": "-3.8058333", "city": "Zoulou", "lon": "14.6997222"}, {"lat": "-4.2963889", "city": "Zoumbou", "lon": "14.545"}, {"lat": "-3.0019444", "city": "Zouno P\u00e9na", "lon": "16.1822222"}, {"lat": "-3.7836111", "city": "Zou", "lon": "14.4352778"}], "03": [{"lat": "-0.5813889", "city": "Aba", "lon": "15.9902778"}, {"lat": "-0.4208333", "city": "Abala", "lon": "15.2002778"}, {"lat": "-1.0380556", "city": "Abalaga", "lon": "14.6919444"}, {"lat": "-1.0380556", "city": "Abalaka", "lon": "14.6919444"}, {"lat": "-0.6333333", "city": "Abana", "lon": "15.0666667"}, {"lat": "-1.2147222", "city": "Ab\u00e9a", "lon": "16.1997222"}, {"lat": "-0.9666667", "city": "Ab\u00e9k\u00e9", "lon": "14.55"}, {"lat": "0.0444444", "city": "Ab\u00e9la", "lon": "15.1175"}, {"lat": "-0.2947222", "city": "Abenga", "lon": "15.7616667"}, {"lat": "-0.6397222", "city": "Ab\u00e9ya", "lon": "15.9116667"}, {"lat": "-0.2947222", "city": "Abinga", "lon": "15.7616667"}, {"lat": "-1.1855556", "city": "Abo", "lon": "16.0475"}, {"lat": "-0.9636111", "city": "Aboko", "lon": "16.2819444"}, {"lat": "-1.1855556", "city": "Aboko I", "lon": "16.0475"}, {"lat": "-1.195", "city": "Aboko II", "lon": "16.0608333"}, {"lat": "0.1361111", "city": "Abolo", "lon": "14.2266667"}, {"lat": "0.1361111", "city": "Abolo I", "lon": "14.2266667"}, {"lat": "0.1461111", "city": "Abolo II", "lon": "14.2266667"}, {"lat": "0.1063889", "city": "Aboua", "lon": "15.5863889"}, {"lat": "-0.3011111", "city": "Abouma", "lon": "15.7969444"}, {"lat": "-0.02", "city": "Aboundji", "lon": "14.3388889"}, {"lat": "-0.3983333", "city": "Abvoura", "lon": "14.8944444"}, {"lat": "-0.1205556", "city": "Adiba", "lon": "15.8325"}, {"lat": "-0.0422222", "city": "Adinga", "lon": "14.7988889"}, {"lat": "0.0608333", "city": "Adinnga", "lon": "15.4388889"}, {"lat": "-1.2208333", "city": "Adzi\u00e9", "lon": "14.9752778"}, {"lat": "-1.2208333", "city": "Adzi\u00e9 I", "lon": "14.9752778"}, {"lat": "-1.2327778", "city": "Adzi\u00e9 II", "lon": "14.9747222"}, {"lat": "0.0858333", "city": "A\u00e9ko", "lon": "15.4644444"}, {"lat": "-0.0341667", "city": "Afoudou", "lon": "15.5983333"}, {"lat": "0.1", "city": "Ahouma", "lon": "16.0833333"}, {"lat": "-1.5977778", "city": "Akaband\u00e9l\u00e9", "lon": "14.7286111"}, {"lat": "-0.9116667", "city": "Akalamba", "lon": "14.8988889"}, {"lat": "0.0258333", "city": "Akamo", "lon": "14.3202778"}, {"lat": "-0.0177778", "city": "Akamou", "lon": "14.3316667"}, {"lat": "-0.125", "city": "Akana", "lon": "14.9116667"}, {"lat": "-0.125", "city": "Akana I", "lon": "14.9116667"}, {"lat": "-0.1630556", "city": "Akana II", "lon": "14.9186111"}, {"lat": "-0.1175", "city": "Akananga", "lon": "14.5358333"}, {"lat": "-1.6947222", "city": "Akara", "lon": "14.7230556"}, {"lat": "-1.2166667", "city": "Akaya", "lon": "14.6666667"}, {"lat": "-1.5913889", "city": "Akaymbala", "lon": "14.8013889"}, {"lat": "-1.6222222", "city": "Ak\u00e9l\u00e9", "lon": "14.6363889"}, {"lat": "-0.1061111", "city": "Akombo", "lon": "14.5608333"}, {"lat": "-0.2391667", "city": "Akomou", "lon": "14.6558333"}, {"lat": "0.4088889", "city": "Akongo", "lon": "14.6527778"}, {"lat": "-0.5847222", "city": "Akoua", "lon": "14.8927778"}, {"lat": "-1.0058333", "city": "Akou", "lon": "14.8611111"}, {"lat": "0.365", "city": "Akoualebango", "lon": "14.3180556"}, {"lat": "0.0030556", "city": "Akounda", "lon": "15.5205556"}, {"lat": "-0.7055556", "city": "Al\u00e9bo", "lon": "15.6730556"}, {"lat": "-0.9625", "city": "Al\u00e8mba", "lon": "15.5838889"}, {"lat": "-0.7980556", "city": "Al\u00e9m\u00e9", "lon": "14.8608333"}, {"lat": "-1.0691667", "city": "Ali\u00e9m\u00e9", "lon": "14.5627778"}, {"lat": "-0.0308333", "city": "Ali\u00e9ni", "lon": "14.675"}, {"lat": "-0.0238889", "city": "Ali\u00e9ni I", "lon": "14.7041667"}, {"lat": "-0.0308333", "city": "Ali\u00e9ni II", "lon": "14.675"}, {"lat": "-0.9625", "city": "Alimba", "lon": "15.5838889"}, {"lat": "-0.7055556", "city": "All\u00e9bo", "lon": "15.6730556"}, {"lat": "-0.445", "city": "Allembe", "lon": "15.5380556"}, {"lat": "-0.7980556", "city": "Alleme", "lon": "14.8608333"}, {"lat": "-0.0308333", "city": "Alli\u00e9ni", "lon": "14.675"}, {"lat": "-0.1241667", "city": "Ambangui", "lon": "15.8063889"}, {"lat": "-0.6036111", "city": "Amb\u00e9la", "lon": "14.8572222"}, {"lat": "0.4125", "city": "Amb\u00e8nd\u00e9", "lon": "14.63"}, {"lat": "-1.1180556", "city": "Ambimi", "lon": "14.9222222"}, {"lat": "-0.4663889", "city": "Amboangu\u00e9", "lon": "15.8455556"}, {"lat": "-0.3194444", "city": "Ambomi", "lon": "14.6591667"}, {"lat": "-1.5966667", "city": "Ambomo", "lon": "14.8138889"}, {"lat": "-0.4166667", "city": "Ambosso", "lon": "15.7833333"}, {"lat": "-0.3194444", "city": "Amboumi", "lon": "14.6591667"}, {"lat": "-1.5905556", "city": "Amina", "lon": "14.7325"}, {"lat": "0.0438889", "city": "Amo", "lon": "14.2752778"}, {"lat": "-0.6036111", "city": "Anb\u00e9la", "lon": "14.8572222"}, {"lat": "-1.1869444", "city": "Ancien Bibaya", "lon": "14.7097222"}, {"lat": "0.3655556", "city": "Ancien Ngonb\u00e9", "lon": "16.9883333"}, {"lat": "-0.1525", "city": "Ancien Otala", "lon": "14.7419444"}, {"lat": "-1.0644444", "city": "And\u00e9b\u00e9", "lon": "15.9622222"}, {"lat": "-0.0333333", "city": "Andeko", "lon": "15.0166667"}, {"lat": "-0.0388889", "city": "Andjala", "lon": "15.5983333"}, {"lat": "-0.0333333", "city": "Andjoko", "lon": "14.4588889"}, {"lat": "-0.5472222", "city": "Andjoko II", "lon": "14.9222222"}, {"lat": "-0.8680556", "city": "Ando", "lon": "16.1605556"}, {"lat": "-0.9552778", "city": "Andouma", "lon": "14.8472222"}, {"lat": "-0.0333333", "city": "Andzoko", "lon": "14.4588889"}, {"lat": "0.2777778", "city": "Angal\u00e9", "lon": "15.4897222"}, {"lat": "0.2777778", "city": "Angali", "lon": "15.4897222"}, {"lat": "-0.4686111", "city": "Ango", "lon": "15.8369444"}, {"lat": "-0.0166667", "city": "Angomo", "lon": "15.0333333"}, {"lat": "0.0441667", "city": "Angomon", "lon": "15.0044444"}, {"lat": "0.0461111", "city": "Angomon II", "lon": "15.0572222"}, {"lat": "-0.9116667", "city": "Ankalaba", "lon": "14.8988889"}, {"lat": "-0.1313889", "city": "Antchoko", "lon": "14.3955556"}, {"lat": "-0.1313889", "city": "Antsoukou", "lon": "14.3955556"}, {"lat": "-0.1433333", "city": "Apoko", "lon": "15.7266667"}, {"lat": "-1.0630556", "city": "Apombo", "lon": "16.115"}, {"lat": "-0.3161111", "city": "Apoto", "lon": "15.7544444"}, {"lat": "-1.6544444", "city": "Asi\u00e9n\u00e9", "lon": "14.5380556"}, {"lat": "-1.2533333", "city": "Asigi", "lon": "15.1355556"}, {"lat": "-0.4166667", "city": "Asoko", "lon": "15.7833333"}, {"lat": "0.2377778", "city": "Assaki", "lon": "15.4972222"}, {"lat": "0.2277778", "city": "Assaki-Mok\u00e9", "lon": "15.5169444"}, {"lat": "-0.5419444", "city": "Assala", "lon": "15.9622222"}, {"lat": "-0.5419444", "city": "Assali", "lon": "15.9622222"}, {"lat": "-1.6544444", "city": "Assi\u00e9n\u00e9", "lon": "14.5380556"}, {"lat": "-1.6544444", "city": "Assi\u00e9n\u00e9 I", "lon": "14.5380556"}, {"lat": "-1.2533333", "city": "Assingui", "lon": "15.1355556"}, {"lat": "0.0469444", "city": "Assoko", "lon": "15.7741667"}, {"lat": "0.2086111", "city": "Assouangui", "lon": "15.7122222"}, {"lat": "-0.0161111", "city": "Assoukou", "lon": "15.6983333"}, {"lat": "0.0666667", "city": "Atali", "lon": "15.4166667"}, {"lat": "-0.1208333", "city": "At\u00e9kou", "lon": "15.8061111"}, {"lat": "-0.1325", "city": "At\u00e9kou I", "lon": "15.8488889"}, {"lat": "-0.1480556", "city": "At\u00e9kou II", "lon": "15.82"}, {"lat": "-0.1427778", "city": "At\u00e9kou III", "lon": "15.8030556"}, {"lat": "-1.5711111", "city": "Ayali", "lon": "14.9105556"}, {"lat": "-0.8797222", "city": "Ayandza", "lon": "14.9663889"}, {"lat": "-1.6047222", "city": "Ayari", "lon": "14.8294444"}, {"lat": "-1.6072222", "city": "Ayina", "lon": "14.8227778"}, {"lat": "-1.0522222", "city": "Bak\u00e9lo", "lon": "17.0097222"}, {"lat": "-0.7705556", "city": "Bakouango", "lon": "17.1094444"}, {"lat": "-0.7705556", "city": "Bakouengo", "lon": "17.1094444"}, {"lat": "-0.7705556", "city": "Bakouenngo", "lon": "17.1094444"}, {"lat": "0.6647222", "city": "Bandza", "lon": "14.5519444"}, {"lat": "-0.5833333", "city": "Bandza Mok\u00e9", "lon": "15.3986111"}, {"lat": "0.3638889", "city": "Bangui-Sal\u00e9", "lon": "14.7902778"}, {"lat": "-0.7280556", "city": "Banyanba", "lon": "15.6536111"}, {"lat": "0.0427778", "city": "Banzana-Gou\u00e9nd\u00e9", "lon": "15.6522222"}, {"lat": "-1.0847222", "city": "Bara", "lon": "15.9236111"}, {"lat": "-1.0847222", "city": "Bara I", "lon": "15.9236111"}, {"lat": "-1.075", "city": "Bara II", "lon": "15.9094444"}, {"lat": "-0.4886111", "city": "Baya", "lon": "16.0933333"}, {"lat": "-0.8316667", "city": "Bayengu\u00e9", "lon": "17.2033333"}, {"lat": "0.0697222", "city": "Bela", "lon": "14.2436111"}, {"lat": "0.6272222", "city": "Bemb\u00e9", "lon": "14.5019444"}, {"lat": "0.2855556", "city": "Bend\u00e9", "lon": "14.8472222"}, {"lat": "0.5452778", "city": "Bendza", "lon": "14.4094444"}, {"lat": "0.0427778", "city": "Bendz\u00e9-Nagou\u00e9nd\u00e9", "lon": "15.6522222"}, {"lat": "-1.4958333", "city": "B\u00e9n\u00e9", "lon": "16.4038889"}, {"lat": "-0.0711111", "city": "B\u00e8nz\u00e9", "lon": "15.8083333"}, {"lat": "-0.5622222", "city": "B\u00e9y\u00e9-Mboulou", "lon": "14.6202778"}, {"lat": "-0.8458333", "city": "Bia", "lon": "14.57"}, {"lat": "-1.1686111", "city": "Biala", "lon": "16.0033333"}, {"lat": "-1.0411111", "city": "Bibaya", "lon": "14.8713889"}, {"lat": "-0.9333333", "city": "Bilemb\u00e9", "lon": "17.0719444"}, {"lat": "-0.4794444", "city": "Bimb\u00e9", "lon": "15.8636111"}, {"lat": "-1.1411111", "city": "Binzou", "lon": "15.9583333"}, {"lat": "-1.0905556", "city": "Bisel", "lon": "16.7841667"}, {"lat": "-1.1780556", "city": "Bobongo", "lon": "16.5766667"}, {"lat": "-1.05", "city": "Bobousa", "lon": "16.9155556"}, {"lat": "-0.4202778", "city": "Bobu\u00e9ta", "lon": "16.5416667"}, {"lat": "-0.6547222", "city": "Boganda", "lon": "16.3816667"}, {"lat": "-1.5044444", "city": "Bogi", "lon": "15.0236111"}, {"lat": "-0.4230556", "city": "Bogo", "lon": "15.7475"}, {"lat": "-1.5044444", "city": "Bogui", "lon": "15.0236111"}, {"lat": "-1.3413889", "city": "Bohoulou", "lon": "16.6597222"}, {"lat": "-0.9713889", "city": "Boka", "lon": "15.5386111"}, {"lat": "-0.4622222", "city": "Bokanda", "lon": "16.6336111"}, {"lat": "-0.4697222", "city": "Bokangue", "lon": "15.8430556"}, {"lat": "0.0663889", "city": "Bokania", "lon": "15.25"}, {"lat": "-0.3402778", "city": "Boko", "lon": "16.0633333"}, {"lat": "-1.3355556", "city": "Bokola", "lon": "16.5427778"}, {"lat": "-0.3719444", "city": "Bokoma", "lon": "17.1397222"}, {"lat": "-1.2247222", "city": "Bokombo", "lon": "16.47"}, {"lat": "-1.245", "city": "Bokonko", "lon": "16.4658333"}, {"lat": "-1.1775", "city": "Bokoso", "lon": "16.77"}, {"lat": "-1.1491667", "city": "Bokoso II", "lon": "16.7186111"}, {"lat": "-1.1566667", "city": "Bokoso III", "lon": "16.7319444"}, {"lat": "-1.1566667", "city": "Bokoso Three", "lon": "16.7319444"}, {"lat": "-1.1491667", "city": "Bokoso Two", "lon": "16.7186111"}, {"lat": "-1.0275", "city": "Bokou\u00e9l\u00e9", "lon": "16.3155556"}, {"lat": "-1.0275", "city": "Bokw\u00e9l\u00e9", "lon": "16.3155556"}, {"lat": "-0.8030556", "city": "Bol\u00e9ko", "lon": "17.2311111"}, {"lat": "0.5766667", "city": "Bomadjokou", "lon": "14.385"}, {"lat": "-0.4341667", "city": "Boma-Essengu\u00e9", "lon": "15.6766667"}, {"lat": "0.5766667", "city": "Bomandjokou", "lon": "14.385"}, {"lat": "0.5766667", "city": "Bomandzokou", "lon": "14.385"}, {"lat": "-0.4341667", "city": "Bomassingu\u00e9", "lon": "15.6766667"}, {"lat": "-1.315", "city": "Bomioko", "lon": "16.5172222"}, {"lat": "0.5577778", "city": "Bomo", "lon": "14.3919444"}, {"lat": "0.0013889", "city": "Bonanga", "lon": "16.3619444"}, {"lat": "-1.4372222", "city": "Bonb\u00e9", "lon": "16.6094444"}, {"lat": "-1.0691667", "city": "Bonbokouta", "lon": "16.2419444"}, {"lat": "0.0594444", "city": "Bondjo", "lon": "15.8816667"}, {"lat": "0.4208333", "city": "Bondjodjouala", "lon": "14.2713889"}, {"lat": "-1.1125", "city": "Bonga", "lon": "16.8752778"}, {"lat": "-1.48", "city": "Boniala", "lon": "16.5502778"}, {"lat": "-0.5555556", "city": "Bonngoma-Botouali", "lon": "16.6205556"}, {"lat": "-1.1325", "city": "Bonzonda", "lon": "16.4283333"}, {"lat": "-1.0941667", "city": "Bosalo", "lon": "16.5138889"}, {"lat": "-0.3047222", "city": "Bossaki", "lon": "16.5461111"}, {"lat": "0.4677778", "city": "Bossouaka", "lon": "14.4891667"}, {"lat": "0.0166667", "city": "Bossoungui", "lon": "16.3666667"}, {"lat": "-1.0275", "city": "Botando", "lon": "16.7588889"}, {"lat": "-1.4347222", "city": "Botch\u00e9b\u00e9", "lon": "16.475"}, {"lat": "0.3738889", "city": "Bot\u00e9chiami", "lon": "14.1697222"}, {"lat": "-1.1908333", "city": "Bot\u00e9na", "lon": "16.7972222"}, {"lat": "-0.8975", "city": "Botonou", "lon": "17.3722222"}, {"lat": "-0.5908333", "city": "Botouali", "lon": "16.6261111"}, {"lat": "-0.3255556", "city": "Boua", "lon": "15.7744444"}, {"lat": "-1.0294444", "city": "Bou\u00e9gni", "lon": "16.4536111"}, {"lat": "-0.7538889", "city": "Boui", "lon": "16.0177778"}, {"lat": "-1.2919444", "city": "Bouligi", "lon": "15.1219444"}, {"lat": "-1.2919444", "city": "Boulingui", "lon": "15.1219444"}, {"lat": "-0.9047222", "city": "Boulou", "lon": "14.53"}, {"lat": "0.5766667", "city": "Boumandjokou", "lon": "14.385"}, {"lat": "-0.7819444", "city": "Bouma Ollemb\u00e9", "lon": "15.7555556"}, {"lat": "0.0016667", "city": "Boumba", "lon": "15.8008333"}, {"lat": "-1.0275", "city": "Boundji", "lon": "15.3591667"}, {"lat": "-0.9916667", "city": "Bounga", "lon": "15.4725"}, {"lat": "-0.4216667", "city": "Bouniangoulou", "lon": "15.3883333"}, {"lat": "0.0775", "city": "Bouya", "lon": "15.7372222"}, {"lat": "-0.4216667", "city": "Bouyengoulou", "lon": "15.3883333"}, {"lat": "0.0775", "city": "Boya", "lon": "15.7372222"}, {"lat": "-0.7394444", "city": "Boyaka", "lon": "15.9516667"}, {"lat": "-0.8316667", "city": "Boyengh\u00e9", "lon": "17.2033333"}, {"lat": "-0.8316667", "city": "Boyengu\u00e9", "lon": "17.2033333"}, {"lat": "-0.8316667", "city": "Boyenngu\u00e9", "lon": "17.2033333"}, {"lat": "-1.1263889", "city": "Boyoko-Biri", "lon": "16.5355556"}, {"lat": "-1.1908333", "city": "Boyoko", "lon": "16.4766667"}, {"lat": "-0.1441667", "city": "Bozongo", "lon": "15.9138889"}, {"lat": "-0.9841667", "city": "Campement Yama", "lon": "14.7313889"}, {"lat": "-0.0883333", "city": "Ch\u00e9r\u00e9", "lon": "14.7680556"}, {"lat": "0.3361111", "city": "Diba", "lon": "14.7913889"}, {"lat": "-0.2952778", "city": "Diki", "lon": "16.0025"}, {"lat": "0.1333333", "city": "Dinga", "lon": "15.95"}, {"lat": "-0.7472222", "city": "Djabaka", "lon": "15.6411111"}, {"lat": "-0.7472222", "city": "Djadaka", "lon": "15.6411111"}, {"lat": "0.4216667", "city": "Djanga", "lon": "14.68"}, {"lat": "-0.3180556", "city": "Djio", "lon": "16.0275"}, {"lat": "-1.3561111", "city": "Djoko", "lon": "14.5063889"},