{"CK": {"00": [{"lat": "-18.8538889", "city": "Amuri", "lon": "-159.7963889"}, {"lat": "-20.0066667", "city": "Areora", "lon": "-158.1122222"}, {"lat": "-21.2316667", "city": "Arorangi", "lon": "-159.8277778"}, {"lat": "-18.8686111", "city": "Arutanga", "lon": "-159.8"}, {"lat": "-18.8686111", "city": "Arutunga", "lon": "-159.8"}, {"lat": "-21.2077778", "city": "Avarua", "lon": "-159.775"}, {"lat": "-21.2055556", "city": "Avatiu", "lon": "-159.7866667"}, {"lat": "-18.0608333", "city": "Home", "lon": "-163.1933333"}, {"lat": "-21.9177778", "city": "Ivirua", "lon": "-157.8986111"}, {"lat": "-21.9177778", "city": "Ivirua Village", "lon": "-157.8986111"}, {"lat": "-21.9083333", "city": "Karanga Village", "lon": "-157.905"}, {"lat": "-21.9247222", "city": "Kaumata Village", "lon": "-157.965"}, {"lat": "-20.1466667", "city": "Kimiangatau Village", "lon": "-157.35"}, {"lat": "-19.6972222", "city": "Mangarei Village", "lon": "-157.7166667"}, {"lat": "-19.9877778", "city": "Mapumai", "lon": "-158.1188889"}, {"lat": "-21.2244444", "city": "Matavera", "lon": "-159.7333333"}, {"lat": "-21.2566667", "city": "Muri", "lon": "-159.7319444"}, {"lat": "-20.0166667", "city": "Natikitea", "lon": "-158.1166667"}, {"lat": "-21.2402778", "city": "Ngatangiia", "lon": "-159.7291667"}, {"lat": "-19.9986111", "city": "Ngatiarua", "lon": "-158.1333333"}, {"lat": "-21.2066667", "city": "Nikao", "lon": "-159.8094444"}, {"lat": "-18.87", "city": "Nikaupara", "lon": "-159.8033333"}, {"lat": "-19.8166667", "city": "Nukatere", "lon": "-157.7166667"}, {"lat": "-20.1333333", "city": "Nukuao", "lon": "-157.3666667"}, {"lat": "-8.9816667", "city": "Omoka", "lon": "-158.0605556"}, {"lat": "-8.9816667", "city": "Omoko", "lon": "-158.0605556"}, {"lat": "-21.92", "city": "Oneroa", "lon": "-157.9602778"}, {"lat": "-18.0608333", "city": "Palmerston Island Village", "lon": "-163.1933333"}, {"lat": "-18.0608333", "city": "Palmerston", "lon": "-163.1933333"}, {"lat": "-13.8333333", "city": "Papaolematuu", "lon": "-172.0833333"}, {"lat": "-13.9333333", "city": "Papapapaitai", "lon": "-171.75"}, {"lat": "-13.9333333", "city": "Papapapaiuta", "lon": "-171.75"}, {"lat": "-21.2047222", "city": "Pue", "lon": "-159.7583333"}, {"lat": "-18.8669444", "city": "Reureu", "lon": "-159.8011111"}, {"lat": "-10.8833333", "city": "Roto", "lon": "-165.8333333"}, {"lat": "-21.9530556", "city": "Tamarua", "lon": "-157.925"}, {"lat": "-21.9530556", "city": "Tamarua Village", "lon": "-157.925"}, {"lat": "-10.425", "city": "Tauhunu", "lon": "-161.0352778"}, {"lat": "-10.425", "city": "Tauhunu Village", "lon": "-161.0352778"}, {"lat": "-8.9602778", "city": "Tautua", "lon": "-157.9311111"}, {"lat": "-18.88", "city": "Tautu", "lon": "-159.7816667"}, {"lat": "-21.9186111", "city": "Tava'enga Village", "lon": "-157.96"}, {"lat": "-19.9869444", "city": "Teenui", "lon": "-158.1291667"}, {"lat": "-19.9869444", "city": "Te Enui", "lon": "-158.1291667"}, {"lat": "-21.92", "city": "Temakatea Village", "lon": "-157.9602778"}, {"lat": "-19.9991667", "city": "Tengatangi", "lon": "-158.1155556"}, {"lat": "-19.9991667", "city": "Tengatangi Village", "lon": "-158.1155556"}, {"lat": "-8.9602778", "city": "Te Tautua", "lon": "-157.9311111"}, {"lat": "-21.2719444", "city": "Titikaveka", "lon": "-159.755"}, {"lat": "-21.2719444", "city": "Titikaweka", "lon": "-159.755"}, {"lat": "-13.8", "city": "Toamua", "lon": "-171.7833333"}, {"lat": "-10.3763889", "city": "Tukao", "lon": "-160.0116667"}, {"lat": "-10.3763889", "city": "Tuko", "lon": "-160.0116667"}, {"lat": "-10.3763889", "city": "Tuko Village", "lon": "-160.0116667"}, {"lat": "-18.8713889", "city": "Vaipae", "lon": "-159.7811111"}, {"lat": "-18.0608333", "city": "Village", "lon": "-163.1933333"}]}}