{"CL": {"11": [{"lat": "-35.25", "city": "Abarca", "lon": "-71.85"}, {"lat": "-35.75", "city": "Abranquil", "lon": "-71.55"}, {"lat": "-35.316667", "city": "Agua Buena", "lon": "-72.15"}, {"lat": "-35.316667", "city": "Aguas Buenas", "lon": "-72.15"}, {"lat": "-35.6", "city": "Alto Vilches", "lon": "-71.2"}, {"lat": "-35.916667", "city": "Ancoa", "lon": "-71.433333"}, {"lat": "-35.5", "city": "Bajo Lircay", "lon": "-71.316667"}, {"lat": "-35.5", "city": "Bajos de Lircay", "lon": "-71.316667"}, {"lat": "-35.75", "city": "Banos de Panimavida", "lon": "-71.416667"}, {"lat": "-35.266667", "city": "Batuco", "lon": "-72.1"}, {"lat": "-35.566667", "city": "Bobadilla", "lon": "-71.683333"}, {"lat": "-35.266667", "city": "Cabeza de Vaca", "lon": "-72.166667"}, {"lat": "-35.483333", "city": "Caiban", "lon": "-71.633333"}, {"lat": "-35.216667", "city": "Calabozo", "lon": "-72.266667"}, {"lat": "-35.216667", "city": "Calabozos", "lon": "-72.266667"}, {"lat": "-35.833333", "city": "Caliboro", "lon": "-71.916667"}, {"lat": "-35.883333", "city": "Calimavia", "lon": "-71.966667"}, {"lat": "-35.833333", "city": "Calivoro", "lon": "-71.916667"}, {"lat": "-35.516667", "city": "Callejones", "lon": "-71.633333"}, {"lat": "-35.616667", "city": "Calle Larga", "lon": "-71.683333"}, {"lat": "-35.216667", "city": "Camarico", "lon": "-71.433333"}, {"lat": "-35.983333", "city": "Campanacura", "lon": "-71.983333"}, {"lat": "-35.25", "city": "Canelillo", "lon": "-72.216667"}, {"lat": "-35.25", "city": "Canelillos", "lon": "-72.216667"}, {"lat": "-35.283333", "city": "Canete", "lon": "-72.233333"}, {"lat": "-35.816667", "city": "Capilla de Palacios", "lon": "-71.466667"}, {"lat": "-35.816667", "city": "Capilla Palacio", "lon": "-71.466667"}, {"lat": "-35.666667", "city": "Carrera", "lon": "-72.533333"}, {"lat": "-35.666667", "city": "Carreras Cortas", "lon": "-72.533333"}, {"lat": "-35.25", "city": "Carrizal", "lon": "-72.25"}, {"lat": "-35.25", "city": "Carrizal del Maule", "lon": "-72.25"}, {"lat": "-35.25", "city": "Carrizal de Putu", "lon": "-72.25"}, {"lat": "-35.7", "city": "Carrizales", "lon": "-71.9"}, {"lat": "-35.183333", "city": "Carrizalillo", "lon": "-72.183333"}, {"lat": "-35.016667", "city": "Casas Fundo El Medano", "lon": "-72.183333"}, {"lat": "-35.966667", "city": "Cauquenes", "lon": "-72.35"}, {"lat": "-35.566667", "city": "Cerrillo Bobadilla", "lon": "-71.683333"}, {"lat": "-35.483333", "city": "Cerrillo Caivan", "lon": "-71.633333"}, {"lat": "-35.816667", "city": "Chacarilla", "lon": "-72.366667"}, {"lat": "-35.733333", "city": "Chanco", "lon": "-72.533333"}, {"lat": "-35.15", "city": "Chanquiuque", "lon": "-72.216667"}, {"lat": "-35.583333", "city": "Chequen", "lon": "-71.533333"}, {"lat": "-35.9", "city": "Chevelle", "lon": "-72.683333"}, {"lat": "-35.8", "city": "Chorriadero", "lon": "-72.566667"}, {"lat": "-35.9", "city": "Chovellen", "lon": "-72.683333"}, {"lat": "-35.916667", "city": "Cielo", "lon": "-72.3"}, {"lat": "-35.783333", "city": "Coihueco", "lon": "-72.433333"}, {"lat": "-35.25", "city": "Coipue", "lon": "-72.066667"}, {"lat": "-35.75", "city": "Colbun Alto", "lon": "-71.216667"}, {"lat": "-35.75", "city": "Colbun", "lon": "-71.216667"}, {"lat": "-35.883333", "city": "Colimavia", "lon": "-71.966667"}, {"lat": "-35.483333", "city": "Colin", "lon": "-71.783333"}, {"lat": "-35.2", "city": "Colonia Potrero Grande", "lon": "-70.883333"}, {"lat": "-34.85", "city": "Comalle", "lon": "-71.283333"}, {"lat": "-35.033333", "city": "Comunidad El Guapi", "lon": "-72.133333"}, {"lat": "-35.333333", "city": "Constitucion", "lon": "-72.416667"}, {"lat": "-36.1", "city": "Copihue", "lon": "-71.816667"}, {"lat": "-36.05", "city": "Coronel", "lon": "-72.5"}, {"lat": "-36.05", "city": "Coronel de Maule", "lon": "-72.5"}, {"lat": "-35.866667", "city": "Corral de Salas", "lon": "-71"}, {"lat": "-35.916667", "city": "Cruce Ancoa", "lon": "-71.433333"}, {"lat": "-35.45", "city": "Culenan", "lon": "-71.7"}, {"lat": "-35.45", "city": "Culenar", "lon": "-71.7"}, {"lat": "-35.283333", "city": "Cumpeo", "lon": "-71.266667"}, {"lat": "-35.283333", "city": "Cumpeu", "lon": "-71.266667"}, {"lat": "-35.716667", "city": "Cunaco", "lon": "-71.716667"}, {"lat": "-35.9", "city": "Cunao", "lon": "-71.766667"}, {"lat": "-35.833333", "city": "Curanipe", "lon": "-72.633333"}, {"lat": "-35.083333", "city": "Curepto", "lon": "-72.016667"}, {"lat": "-34.983333", "city": "Curico", "lon": "-71.233333"}, {"lat": "-35.883333", "city": "Curivilo", "lon": "-72.216667"}, {"lat": "-35.466667", "city": "Curtiduria", "lon": "-71.933333"}, {"lat": "-35.966667", "city": "De Cauquenes", "lon": "-72.35"}, {"lat": "-35", "city": "Docamavida", "lon": "-71.95"}, {"lat": "-35", "city": "Docomavida", "lon": "-71.95"}, {"lat": "-34.9", "city": "Duao", "lon": "-72.183333"}, {"lat": "-35.35", "city": "El Baul", "lon": "-70.9"}, {"lat": "-35.25", "city": "El Bolsico", "lon": "-71.183333"}, {"lat": "-35.666667", "city": "El Cerrillo", "lon": "-71.566667"}, {"lat": "-35.916667", "city": "El Cielo", "lon": "-72.3"}, {"lat": "-35.116667", "city": "El Culenar", "lon": "-71.6"}, {"lat": "-35.75", "city": "El # Emboque", "lon": "-71.75"}, {"lat": "-35.2", "city": "El Espino", "lon": "-72.216667"}, {"lat": "-34.916667", "city": "El Guapi", "lon": "-72.183333"}, {"lat": "-35.966667", "city": "El Llano", "lon": "-72.15"}, {"lat": "-35.45", "city": "El Morro", "lon": "-71.9"}, {"lat": "-35.533333", "city": "El Nogal", "lon": "-71.583333"}, {"lat": "-34.9", "city": "El Parron", "lon": "-71.483333"}, {"lat": "-34.983333", "city": "El Penon", "lon": "-72.183333"}, {"lat": "-34.95", "city": "El Peral", "lon": "-72.1"}, {"lat": "-35.45", "city": "El Peumo", "lon": "-72"}, {"lat": "-34.883333", "city": "El Plumero", "lon": "-71.266667"}, {"lat": "-35.55", "city": "El Pueblecillo", "lon": "-71.7"}, {"lat": "-35.316667", "city": "El Puente", "lon": "-72.216667"}, {"lat": "-34.783333", "city": "El Rodeo", "lon": "-72.083333"}, {"lat": "-35.916667", "city": "El Rosal", "lon": "-72.333333"}, {"lat": "-35.433333", "city": "El Torreon", "lon": "-71.183333"}, {"lat": "-35.75", "city": "Emboque", "lon": "-71.75"}, {"lat": "-35.6", "city": "Empedrado", "lon": "-72.283333"}, {"lat": "-35.6", "city": "Esperanza", "lon": "-71.5"}, {"lat": "-35.6", "city": "Esquinas", "lon": "-71.433333"}, {"lat": "-35.6", "city": "Estacion San Javier", "lon": "-71.7"}, {"lat": "-35.683333", "city": "Estacion Villa Alegre", "lon": "-71.683333"}, {"lat": "-35.5", "city": "Estrella", "lon": "-71.783333"}, {"lat": "-36.133333", "city": "Guaico", "lon": "-72.183333"}, {"lat": "-34.983333", "city": "Gualane", "lon": "-71.816667"}, {"lat": "-35.25", "city": "Gualleco", "lon": "-71.966667"}, {"lat": "-35.316667", "city": "Guanacos", "lon": "-72.2"}, {"lat": "-35.116667", "city": "Guaquen", "lon": "-71.716667"}, {"lat": "-35.166667", "city": "Guilleumo", "lon": "-72.216667"}, {"lat": "-34.866667", "city": "Higuerilla", "lon": "-72.1"}, {"lat": "-35.866667", "city": "Hornillas", "lon": "-71.15"}, {"lat": "-35.866667", "city": "Hornillos", "lon": "-71.15"}, {"lat": "-34.983333", "city": "Hualane", "lon": "-71.816667"}, {"lat": "-34.916667", "city": "Huapi de Iloca", "lon": "-72.183333"}, {"lat": "-35.033333", "city": "Huapi", "lon": "-72.133333"}, {"lat": "-35.116667", "city": "Huaquen", "lon": "-71.716667"}, {"lat": "-35.05", "city": "Huecahuecan", "lon": "-71.15"}, {"lat": "-35.066667", "city": "Huelon", "lon": "-72.1"}, {"lat": "-35.466667", "city": "Huepi", "lon": "-71.283333"}, {"lat": "-35.666667", "city": "Huerta del Maule", "lon": "-71.95"}, {"lat": "-35.5", "city": "Huillin", "lon": "-72.25"}, {"lat": "-35.45", "city": "Huilquilemo", "lon": "-71.566667"}, {"lat": "-35.45", "city": "Huilquilemu", "lon": "-71.566667"}, {"lat": "-34.883333", "city": "Huiquile", "lon": "-71.433333"}, {"lat": "-34.883333", "city": "Huiquilemu", "lon": "-71.433333"}, {"lat": "-35.416667", "city": "Infiernillo", "lon": "-72.033333"}, {"lat": "-35.15", "city": "Itahue", "lon": "-71.35"}, {"lat": "-35.283333", "city": "Junquillar", "lon": "-72.35"}, {"lat": "-34.85", "city": "La Aurora", "lon": "-71.166667"}, {"lat": "-35.55", "city": "La Cabreria", "lon": "-71.85"}, {"lat": "-34.95", "city": "La Capilla", "lon": "-72.183333"}, {"lat": "-35.283333", "city": "La Florida", "lon": "-72.233333"}, {"lat": "-35.75", "city": "Lagunillas", "lon": "-72.483333"}, {"lat": "-34.916667", "city": "La Higuera", "lon": "-72.15"}, {"lat": "-34.866667", "city": "La Higuerilla", "lon": "-72.1"}, {"lat": "-35.666667", "city": "La Huerta del Maule", "lon": "-71.95"}, {"lat": "-35.066667", "city": "La Huerta", "lon": "-71.666667"}, {"lat": "-35.116667", "city": "La Isla", "lon": "-71.633333"}, {"lat": "-36.133333", "city": "La Junta", "lon": "-72.066667"}, {"lat": "-34.95", "city": "La Laguna", "lon": "-71"}, {"lat": "-35.2", "city": "La Lechuza", "lon": "-72.316667"}, {"lat": "-35.816667", "city": "La Matanza", "lon": "-72.45"}, {"lat": "-35.833333", "city": "La Mina Fortuna", "lon": "-70.75"}, {"lat": "-34.9", "city": "La Montana", "lon": "-72"}, {"lat": "-35.733333", "city": "Lancagua", "lon": "-71.9"}, {"lat": "-35.316667", "city": "La Ovejeria", "lon": "-72.316667"}, {"lat": "-34.883333", "city": "La Palmilla", "lon": "-71.316667"}, {"lat": "-34.9", "city": "La Pataguilla", "lon": "-72.166667"}, {"lat": "-34.966667", "city": "La Pesca", "lon": "-72.2"}, {"lat": "-35.316667", "city": "La Puente", "lon": "-72.216667"}, {"lat": "-34.95", "city": "La Puerta", "lon": "-71"}, {"lat": "-34.733333", "city": "Las Apancoras", "lon": "-72.016667"}, {"lat": "-34.866667", "city": "Las Arboledas", "lon": "-71.216667"}, {"lat": "-34.766667", "city": "Las Conchas", "lon": "-72.066667"}, {"lat": "-34.916667", "city": "Las Higueras", "lon": "-72.15"}, {"lat": "-35.166667", "city": "La Silleta", "lon": "-72.2"}, {"lat": "-35.183333", "city": "Las Juntas", "lon": "-71.866667"}, {"lat": "-35.133333", "city": "Las Lomas", "lon": "-72.2"}, {"lat": "-35.35", "city": "Las Minas", "lon": "-71.683333"}, {"lat": "-34.733333", "city": "Las Pancoras", "lon": "-72.016667"}, {"lat": "-34.95", "city": "Las Puertas", "lon": "-72.066667"}, {"lat": "-35.9", "city": "Las Quilas", "lon": "-72.55"}, {"lat": "-36.083333", "city": "Las Rosas", "lon": "-72.35"}, {"lat": "-36.05", "city": "Lastimas Pejerrey", "lon": "-71.35"}, {"lat": "-35.4", "city": "Las Tizas", "lon": "-71.866667"}, {"lat": "-35.166667", "city": "La Vinilla", "lon": "-72.2"}, {"lat": "-34.966667", "city": "La Yesca", "lon": "-71.05"}, {"lat": "-35.2", "city": "Lechuza", "lon": "-72.316667"}, {"lat": "-35.35", "city": "Libun", "lon": "-71.9"}, {"lat": "-34.983333", "city": "Licanten", "lon": "-72"}, {"lat": "-35.483333", "city": "Linares de Perales", "lon": "-71.866667"}, {"lat": "-35.85", "city": "Linares", "lon": "-71.6"}, {"lat": "-34.85", "city": "Lipimavida", "lon": "-72.15"}, {"lat": "-35.4", "city": "Lircai Arriba", "lon": "-71.616667"}, {"lat": "-35.5", "city": "Lircai Bajo", "lon": "-71.316667"}, {"lat": "-35.4", "city": "Lircai", "lon": "-71.65"}, {"lat": "-35.4", "city": "Lircay Abajo", "lon": "-71.65"}, {"lat": "-35.4", "city": "Lircay Arriba", "lon": "-71.616667"}, {"lat": "-35.4", "city": "Lircay", "lon": "-71.616667"}, {"lat": "-35.733333", "city": "Llancagua", "lon": "-71.9"}, {"lat": "-35.916667", "city": "Llepo", "lon": "-71.516667"}, {"lat": "-35.916667", "city": "Llepu", "lon": "-71.516667"}, {"lat": "-34.766667", "city": "Llico", "lon": "-72.083333"}, {"lat": "-35.4", "city": "Lo Figueroa", "lon": "-71.8"}, {"lat": "-35.966667", "city": "Lo Hernandes", "lon": "-72.066667"}, {"lat": "-35.966667", "city": "Lo Hernandez", "lon": "-72.066667"}, {"lat": "-35.2", "city": "Loma Blanca", "lon": "-72.133333"}, {"lat": "-36.166667", "city": "Loma de Torca", "lon": "-72"}, {"lat": "-35.816667", "city": "Lomas", "lon": "-72.583333"}, {"lat": "-36.166667", "city": "Loma Torca", "lon": "-72"}, {"lat": "-35.083333", "city": "Lo Mellado", "lon": "-71.5"}, {"lat": "-35.966667", "city": "Longavi", "lon": "-71.683333"}, {"lat": "-35.066667", "city": "Lontue", "lon": "-71.266667"}, {"lat": "-35.016667", "city": "Lora", "lon": "-72.066667"}, {"lat": "-34.9", "city": "Los Alisos", "lon": "-71.283333"}, {"lat": "-35.2", "city": "Los Espinos", "lon": "-72.216667"}, {"lat": "-35.316667", "city": "Los Guanacos", "lon": "-72.2"}, {"lat": "-34.916667", "city": "Los Guindos", "lon": "-71.216667"}, {"lat": "-35.133333", "city": "Los Hornos", "lon": "-71.316667"}, {"lat": "-35.383333", "city": "Los Huesos", "lon": "-72.25"}, {"lat": "-34.866667", "city": "Los Junquillos", "lon": "-72.15"}, {"lat": "-35.25", "city": "Los Laureles", "lon": "-72.233333"}, {"lat": "-34.816667", "city": "Los Lobos", "lon": "-72.133333"}, {"lat": "-35.616667", "city": "Los Maitenes", "lon": "-71.383333"}, {"lat": "-35.083333", "city": "Los Mallados", "lon": "-71.5"}, {"lat": "-35.083333", "city": "Los Mellados", "lon": "-71.5"}, {"lat": "-35.25", "city": "Los Montes", "lon": "-71.3"}, {"lat": "-35.116667", "city": "Los Niches Pobres", "lon": "-71.15"}, {"lat": "-35.25", "city": "Los Padres", "lon": "-71.266667"}, {"lat": "-35.016667", "city": "Los Quenes", "lon": "-70.8"}, {"lat": "-35.25", "city": "Los Quillayes", "lon": "-72.2"}, {"lat": "-35.116667", "city": "Los Rabanos", "lon": "-72.2"}, {"lat": "-35.833333", "city": "Los Rabones", "lon": "-71.316667"}, {"lat": "-35.566667", "city": "Los Tablones", "lon": "-72.45"}, {"lat": "-34.883333", "city": "Los Treiles", "lon": "-72.133333"}, {"lat": "-34.883333", "city": "Los Triles", "lon": "-72.133333"}, {"lat": "-35", "city": "Lo Valdivia", "lon": "-71.366667"}, {"lat": "-35.366667", "city": "Lo Vargas", "lon": "-71.266667"}, {"lat": "-35.183333", "city": "Macal", "lon": "-72.15"}, {"lat": "-35.616667", "city": "Maitenes", "lon": "-71.383333"}, {"lat": "-35.016667", "city": "Majadilla", "lon": "-71.5"}, {"lat": "-35.016667", "city": "Majadillas", "lon": "-71.5"}, {"lat": "-35.2", "city": "Mancha de Relbun", "lon": "-72.233333"}, {"lat": "-35.8", "city": "Mariscadero", "lon": "-72.566667"}, {"lat": "-35.2", "city": "Matancilla", "lon": "-72.3"}, {"lat": "-35.816667", "city": "Matanzas", "lon": "-72.45"}, {"lat": "-35.816667", "city": "Matarizas", "lon": "-72.45"}, {"lat": "-35.533333", "city": "Maule", "lon": "-71.7"}, {"lat": "-35.283333", "city": "Medias Aguas", "lon": "-71.5"}, {"lat": "-35.866667", "city": "Melado", "lon": "-71.083333"}, {"lat": "-35.733333", "city": "Melco", "lon": "-72.383333"}, {"lat": "-35.7", "city": "Melozal", "lon": "-71.8"}, {"lat": "-35.916667", "city": "Miraflores", "lon": "-71.65"}, {"lat": "-35", "city": "Mira Rio", "lon": "-71.75"}, {"lat": "-35", "city": "Mira Rios", "lon": "-71.75"}, {"lat": "-35.733333", "city": "Molco", "lon": "-72.383333"}, {"lat": "-35.116667", "city": "Molina", "lon": "-71.283333"}, {"lat": "-35.683333", "city": "Molino Caracoles", "lon": "-71.483333"}, {"lat": "-35.683333", "city": "Molino Caracol", "lon": "-71.483333"}, {"lat": "-35.85", "city": "Molino", "lon": "-72.316667"}, {"lat": "-35.916667", "city": "Molinos", "lon": "-72.633333"}, {"lat": "-34.833333", "city": "Montella", "lon": "-71.1"}, {"lat": "-34.833333", "city": "Monteria", "lon": "-71.1"}, {"lat": "-34.833333", "city": "Monterilla", "lon": "-71.1"}, {"lat": "-34.816667", "city": "Morza", "lon": "-71.033333"}, {"lat": "-35.116667", "city": "Niches Pobres", "lon": "-71.15"}, {"lat": "-35.55", "city": "Nirivilo", "lon": "-72.083333"}, {"lat": "-35.583333", "city": "Orilla del Maule", "lon": "-71.683333"}, {"lat": "-35.583333", "city": "Orillas del Maule", "lon": "-71.683333"}, {"lat": "-35.316667", "city": "Ovejeria", "lon": "-72.316667"}, {"lat": "-35.616667", "city": "Pahuil", "lon": "-72.566667"}, {"lat": "-35.766667", "city": "Palgua", "lon": "-71.966667"}, {"lat": "-35.766667", "city": "Palhua", "lon": "-71.966667"}, {"lat": "-34.883333", "city": "Palmilla", "lon": "-71.316667"}, {"lat": "-35.05", "city": "Palquibudi", "lon": "-71.55"}, {"lat": "-35.05", "city": "Palquibudis", "lon": "-71.55"}, {"lat": "-34.733333", "city": "Pancoras", "lon": "-72.016667"}, {"lat": "-35.166667", "city": "Pangales", "lon": "-72.216667"}, {"lat": "-35.366667", "city": "Panguilemo", "lon": "-71.583333"}, {"lat": "-35.366667", "city": "Panguilemu", "lon": "-71.583333"}, {"lat": "-35.75", "city": "Panimavida", "lon": "-71.416667"}, {"lat": "-36.15", "city": "Parral", "lon": "-71.833333"}, {"lat": "-35.9", "city": "Paso Cunao", "lon": "-71.766667"}, {"lat": "-36.016667", "city": "Paso Tuna", "lon": "-72.15"}, {"lat": "-34.9", "city": "Patacon", "lon": "-71.783333"}, {"lat": "-34.9", "city": "Patagon", "lon": "-71.783333"}, {"lat": "-34.9", "city": "Pataguillas", "lon": "-72.166667"}, {"lat": "-36.05", "city": "Pejerrei", "lon": "-71.35"}, {"lat": "-36.05", "city": "Pejerrey", "lon": "-71.35"}, {"lat": "-35.383333", "city": "Pelarco", "lon": "-71.45"}, {"lat": "-35.5", "city": "Pellin", "lon": "-72.333333"}, {"lat": "-35.4", "city": "Pencahue", "lon": "-71.816667"}, {"lat": "-34.983333", "city": "Penon", "lon": "-70.883333"}, {"lat": "-35.483333", "city": "Perales", "lon": "-71.866667"}, {"lat": "-35.15", "city": "Peralillo", "lon": "-72.166667"}, {"lat": "-35.216667", "city": "Peumo", "lon": "-72.216667"}, {"lat": "-35.216667", "city": "Peumos", "lon": "-72.216667"}, {"lat": "-35.433333", "city": "Pichaman", "lon": "-72.116667"}, {"lat": "-34.883333", "city": "Pichibudi", "lon": "-72.166667"}, {"lat": "-35.116667", "city": "Pichingal", "lon": "-71.2"}, {"lat": "-35.95", "city": "Pilen", "lon": "-72.416667"}, {"lat": "-35.783333", "city": "Pillay", "lon": "-72"}, {"lat": "-35.516667", "city": "Pirque", "lon": "-71.633333"}, {"lat": "-35.033333", "city": "Placeta", "lon": "-70.783333"}, {"lat": "-35.45", "city": "Poeta Gonzalez Bastias", "lon": "-72.033333"}, {"lat": "-35.2", "city": "Polcura", "lon": "-72.216667"}, {"lat": "-35.2", "city": "Potrero Grande", "lon": "-70.883333"}, {"lat": "-35.083333", "city": "Pueblo del Hollin", "lon": "-71.1"}, {"lat": "-35.783333", "city": "Pueblo Hundido", "lon": "-72.533333"}, {"lat": "-35.133333", "city": "Puente Alto", "lon": "-71.35"}, {"lat": "-35.05", "city": "Pununquen", "lon": "-72.133333"}, {"lat": "-35.766667", "city": "Putagan", "lon": "-71.666667"}, {"lat": "-35.216667", "city": "Putu", "lon": "-72.283333"}, {"lat": "-36.066667", "city": "Quella", "lon": "-72.083333"}, {"lat": "-35.466667", "city": "Querquel", "lon": "-71.783333"}, {"lat": "-34.866667", "city": "Queseria", "lon": "-72"}, {"lat": "-34.883333", "city": "Quilico", "lon": "-71.916667"}, {"lat": "-35.3", "city": "Quillayes", "lon": "-71.383333"}, {"lat": "-34.966667", "city": "Quilpoco", "lon": "-71.366667"}, {"lat": "-35.783333", "city": "Quinamavida", "lon": "-71.433333"}, {"lat": "-36.116667", "city": "Quinchamavida", "lon": "-72.05"}, {"lat": "-35.55", "city": "Quinepeumo", "lon": "-71.65"}, {"lat": "-35.816667", "city": "Quirquilinco", "lon": "-71.966667"}, {"lat": "-35.766667", "city": "Rahue", "lon": "-72.55"}, {"lat": "-36", "city": "Ramadillas", "lon": "-72.666667"}, {"lat": "-34.966667", "city": "Rancura", "lon": "-72.183333"}, {"lat": "-35.2", "city": "Rapilermo", "lon": "-71.783333"}, {"lat": "-35.766667", "city": "Rari", "lon": "-71.416667"}, {"lat": "-34.933333", "city": "Rauco", "lon": "-71.316667"}, {"lat": "-35.633333", "city": "Reloca", "lon": "-72.55"}, {"lat": "-36.05", "city": "Retiro", "lon": "-71.766667"}, {"lat": "-35.95", "city": "Retulemus", "lon": "-72.35"}, {"lat": "-35.166667", "city": "Rinconada Los Quillayes", "lon": "-71.65"}, {"lat": "-35.5", "city": "Rinconada", "lon": "-72.233333"}, {"lat": "-34.966667", "city": "Romeral", "lon": "-71.133333"}, {"lat": "-35.616667", "city": "Rota", "lon": "-71.366667"}, {"lat": "-35", "city": "Sagrada Familia", "lon": "-71.383333"}, {"lat": "-35.4", "city": "San Antonio", "lon": "-72.5"}, {"lat": "-35.966667", "city": "San Carlos", "lon": "-71.633333"}, {"lat": "-35.55", "city": "San Clemente", "lon": "-71.483333"}, {"lat": "-35.866667", "city": "San Esteban", "lon": "-72.383333"}, {"lat": "-36.066667", "city": "San Francisco", "lon": "-72.433333"}, {"lat": "-35.6", "city": "San Javier", "lon": "-71.75"}, {"lat": "-35.883333", "city": "San Jose", "lon": "-71.9"}, {"lat": "-35.666667", "city": "San Manuel", "lon": "-71.633333"}, {"lat": "-36.05", "city": "San Nicolas", "lon": "-71.866667"}, {"lat": "-35.316667", "city": "San Rafael", "lon": "-71.533333"}, {"lat": "-35.716667", "city": "San Ramon", "lon": "-71.566667"}, {"lat": "-35.633333", "city": "Santa Ana de Queri", "lon": "-71.533333"}, {"lat": "-34.933333", "city": "Santa Blanca", "lon": "-71.033333"}, {"lat": "-35.066667", "city": "Santa Lucia", "lon": "-71.183333"}, {"lat": "-35.1", "city": "Santa Rosa", "lon": "-71.266667"}, {"lat": "-34.933333", "city": "Sarmiento", "lon": "-71.216667"}, {"lat": "-35.75", "city": "Sauzal", "lon": "-72.116667"}, {"lat": "-35.566667", "city": "Tablas", "lon": "-72.45"}, {"lat": "-34.766667", "city": "Tabuco", "lon": "-71.983333"}, {"lat": "-35.2", "city": "Tabunco", "lon": "-71.983333"}, {"lat": "-36.083333", "city": "Talcalonco", "lon": "-72.083333"}, {"lat": "-35.433333", "city": "Talca", "lon": "-71.666667"}, {"lat": "-35.416667", "city": "Tanguao", "lon": "-72.066667"}, {"lat": "-35.716667", "city": "Tejeria", "lon": "-72.433333"}, {"lat": "-34.866667", "city": "Teno", "lon": "-71.183333"}, {"lat": "-34.833333", "city": "Tilicura", "lon": "-72"}, {"lat": "-36.133333", "city": "Tiquel", "lon": "-72.333333"}, {"lat": "-35.416667", "city": "Toconey Alto", "lon": "-72.083333"}, {"lat": "-35.416667", "city": "Toconey", "lon": "-72.116667"}, {"lat": "-34.966667", "city": "Trapiche", "lon": "-71.383333"}, {"lat": "-35.6", "city": "Tres Esquinas", "lon": "-71.433333"}, {"lat": "-34.983333", "city": "Tricao", "lon": "-71.4"}, {"lat": "-35.983333", "city": "Trogualemo", "lon": "-72.716667"}, {"lat": "-34.966667", "city": "Tutuquen", "lon": "-71.316667"}, {"lat": "-36.083333", "city": "Unicaven", "lon": "-72.016667"}, {"lat": "-35.133333", "city": "Upeo", "lon": "-71.033333"}, {"lat": "-35", "city": "Valdivia de Lontue", "lon": "-71.366667"}, {"lat": "-35.2", "city": "Valdivia", "lon": "-72.266667"}, {"lat": "-35.2", "city": "Vaqueria", "lon": "-72.283333"}, {"lat": "-35.85", "city": "Vara Gruesa", "lon": "-71.516667"}, {"lat": "-34.883333", "city": "Vichuquen", "lon": "-72"}, {"lat": "-35.6", "city": "Vilches", "lon": "-71.2"}, {"lat": "-35.666667", "city": "Villa Alegre", "lon": "-71.75"}, {"lat": "-35.083333", "city": "Villa Prat", "lon": "-71.616667"}, {"lat": "-35.866667", "city": "Villa Seca", "lon": "-71.85"}, {"lat": "-34.9", "city": "Viluco", "lon": "-71.166667"}, {"lat": "-35.75", "city": "Yerbas Buenas", "lon": "-71.583333"}], "03": [{"lat": "-25.133333", "city": "Aguada de Cachinal", "lon": "-69.566667"}, {"lat": "-25.1", "city": "Aguada del Pueblo", "lon": "-70.45"}, {"lat": "-24.183333", "city": "Aguas Blancas", "lon": "-69.85"}, {"lat": "-22.983333", "city": "Aillo Beter", "lon": "-68.216667"}, {"lat": "-22.983333", "city": "Aillo Talor", "lon": "-68.233333"}, {"lat": "-21.616667", "city": "Aimani", "lon": "-68.683333"}, {"lat": "-22.283333", "city": "Aiquina", "lon": "-68.333333"}, {"lat": "-22.833333", "city": "Algorta", "lon": "-69.816667"}, {"lat": "-22.983333", "city": "Alto Beter", "lon": "-68.216667"}, {"lat": "-22.983333", "city": "Alto Talor", "lon": "-68.233333"}, {"lat": "-24.016667", "city": "Americana", "lon": "-69.816667"}, {"lat": "-21.2", "city": "Amincha", "lon": "-68.333333"}, {"lat": "-23.65", "city": "Antofagasta", "lon": "-70.4"}, {"lat": "-22.283333", "city": "Aquina", "lon": "-68.333333"}, {"lat": "-21.2", "city": "Aucanquilcha", "lon": "-68.466667"}, {"lat": "-21.2", "city": "Aucanquilla", "lon": "-68.466667"}, {"lat": "-22.033333", "city": "Ayaviri", "lon": "-68.116667"}, {"lat": "-21.616667", "city": "Aymani", "lon": "-68.683333"}, {"lat": "-22.283333", "city": "Ayquina", "lon": "-68.333333"}, {"lat": "-25.066667", "city": "Balmaceda", "lon": "-69.733333"}, {"lat": "-23.333333", "city": "Baquedano", "lon": "-69.85"}, {"lat": "-25.05", "city": "Barazarte", "lon": "-69.866667"}, {"lat": "-22.116667", "city": "Barriles", "lon": "-70.1"}, {"lat": "-22.983333", "city": "Beter", "lon": "-68.216667"}, {"lat": "-24.05", "city": "Blanca Rosa", "lon": "-69.833333"}, {"lat": "-22.45", "city": "Bomba Vergara", "lon": "-69.45"}, {"lat": "-21.25", "city": "Buenaventura", "lon": "-68.283333"}, {"lat": "-22.05", "city": "Cabana", "lon": "-68.066667"}, {"lat": "-21.416667", "city": "Calale", "lon": "-69.8"}, {"lat": "-22.466667", "city": "Calama", "lon": "-68.933333"}, {"lat": "-21.416667", "city": "Calate", "lon": "-69.8"}, {"lat": "-21.95", "city": "Calina", "lon": "-68.6"}, {"lat": "-23.4", "city": "Camar", "lon": "-67.983333"}, {"lat": "-23.416667", "city": "Camino del Yeso", "lon": "-70.583333"}, {"lat": "-21.2", "city": "Campamento Aucanquilcha", "lon": "-68.466667"}, {"lat": "-23.85", "city": "Campamento El Laco", "lon": "-67.483333"}, {"lat": "-22.933333", "city": "Campamento Esmeralda", "lon": "-69.816667"}, {"lat": "-21.433333", "city": "Caracote", "lon": "-68.433333"}, {"lat": "-23.7", "city": "Casa de Lata", "lon": "-70.05"}, {"lat": "-25.283333", "city": "Cascabeles", "lon": "-70.45"}, {"lat": "-22.333333", "city": "Caspana", "lon": "-68.233333"}, {"lat": "-25.216667", "city": "Catalina", "lon": "-69.716667"}, {"lat": "-22.85", "city": "Catarpe", "lon": "-68.216667"}, {"lat": "-22.783333", "city": "Chaxas", "lon": "-67.983333"}, {"lat": "-21.35", "city": "Chela", "lon": "-68.6"}, {"lat": "-22.35", "city": "Chiuchiu", "lon": "-68.65"}, {"lat": "-22.35", "city": "Chiuchu", "lon": "-68.65"}, {"lat": "-22.45", "city": "Chorrillo", "lon": "-68.916667"}, {"lat": "-22.45", "city": "Chorrillos", "lon": "-68.916667"}, {"lat": "-22.316667", "city": "Chuquicamata", "lon": "-68.933333"}, {"lat": "-25.666667", "city": "Cifuncho", "lon": "-70.666667"}, {"lat": "-25.4", "city": "Ciudad Taltal", "lon": "-70.483333"}, {"lat": "-22.55", "city": "Cobija", "lon": "-70.266667"}, {"lat": "-22.966667", "city": "Collo", "lon": "-68.25"}, {"lat": "-22.2", "city": "Colupito", "lon": "-69.916667"}, {"lat": "-23.566667", "city": "Compania", "lon": "-67.9"}, {"lat": "-22.033333", "city": "Conchi", "lon": "-68.633333"}, {"lat": "-21.933333", "city": "Conchi Viejo", "lon": "-68.733333"}, {"lat": "-25.066667", "city": "Condor", "lon": "-69.883333"}, {"lat": "-21.7", "city": "Condoroma", "lon": "-68.666667"}, {"lat": "-21.083333", "city": "Cosca", "lon": "-68.35"}, {"lat": "-22.383333", "city": "Coya Sur", "lon": "-69.65"}, {"lat": "-22.95", "city": "Coyo", "lon": "-68.25"}, {"lat": "-25.383333", "city": "Cuadrilla Diez", "lon": "-69.683333"}, {"lat": "-22.966667", "city": "Cuculer", "lon": "-68.216667"}, {"lat": "-22.966667", "city": "Cucuter", "lon": "-68.216667"}, {"lat": "-22.116667", "city": "Cupo", "lon": "-68.316667"}, {"lat": "-22.516667", "city": "Dupont Americano", "lon": "-68.95"}, {"lat": "-22.516667", "city": "Dupont", "lon": "-68.95"}, {"lat": "-22.516667", "city": "Dupont Empleados", "lon": "-68.95"}, {"lat": "-22.516667", "city": "Dupont Obreros", "lon": "-68.95"}, {"lat": "-25.383333", "city": "El Hueso", "lon": "-70.466667"}, {"lat": "-24.183333", "city": "El Negrillar", "lon": "-68.233333"}, {"lat": "-21.966667", "city": "El Ojo de San Pedro", "lon": "-68.316667"}, {"lat": "-22.133333", "city": "El Tigre", "lon": "-70.016667"}, {"lat": "-23.416667", "city": "El Yeso", "lon": "-70.583333"}, {"lat": "-24.083333", "city": "Estacion Yungay", "lon": "-69.916667"}, {"lat": "-25.133333", "city": "Estancia Vieja", "lon": "-70.4"}, {"lat": "-23.283333", "city": "Flor del Desierto", "lon": "-69.35"}, {"lat": "-22.516667", "city": "Gatico", "lon": "-70.233333"}, {"lat": "-21.966667", "city": "Grutas", "lon": "-69.616667"}, {"lat": "-22.516667", "city": "Guacate", "lon": "-69.3"}, {"lat": "-22.766667", "city": "Guatin", "lon": "-68.083333"}, {"lat": "-21.433333", "city": "Hilaricos", "lon": "-69.5"}, {"lat": "-25.383333", "city": "Hueso", "lon": "-70.466667"}, {"lat": "-25.383333", "city": "Hueso Parado", "lon": "-70.466667"}, {"lat": "-22.4", "city": "Isla Grande", "lon": "-68.683333"}, {"lat": "-22.466667", "city": "Jose Francisco Vergara", "lon": "-69.616667"}, {"lat": "-23.55", "city": "La Chimba", "lon": "-70.4"}, {"lat": "-22.516667", "city": "La Dupont", "lon": "-68.95"}, {"lat": "-22.566667", "city": "Lagunita", "lon": "-68.116667"}, {"lat": "-23.516667", "city": "La Portada", "lon": "-70.45"}, {"lat": "-21.85", "city": "La Posada", "lon": "-69.933333"}, {"lat": "-21.65", "city": "Laquena", "lon": "-68.666667"}, {"lat": "-21.65", "city": "Lequena", "lon": "-68.666667"}, {"lat": "-22.666667", "city": "Lican", "lon": "-68.233333"}, {"lat": "-22.7", "city": "Los Dones", "lon": "-69.783333"}, {"lat": "-24.933333", "city": "Los Morrales", "lon": "-70.366667"}, {"lat": "-22.583333", "city": "Machuca", "lon": "-68.066667"}, {"lat": "-22.35", "city": "Maria Elena", "lon": "-69.666667"}, {"lat": "-23.033333", "city": "Maria", "lon": "-69.45"}, {"lat": "-23.1", "city": "Mejillones", "lon": "-70.45"}, {"lat": "-22.733333", "city": "Michilla", "lon": "-70.266667"}, {"lat": "-22.45", "city": "Miscanti", "lon": "-69.45"}, {"lat": "-25.05", "city": "Monolito", "lon": "-70.483333"}, {"lat": "-24.933333", "city": "Morrales", "lon": "-70.366667"}, {"lat": "-22.516667", "city": "Nacara", "lon": "-69.233333"}, {"lat": "-24.183333", "city": "Negrillar", "lon": "-68.233333"}, {"lat": "-25.133333", "city": "Oficina Alemania", "lon": "-69.966667"}, {"lat": "-24.016667", "city": "Oficina Americana", "lon": "-69.816667"}, {"lat": "-21.966667", "city": "Oficina Gruta", "lon": "-69.616667"}, {"lat": "-21.966667", "city": "Oficina Grutas", "lon": "-69.616667"}, {"lat": "-22.7", "city": "Oficina Los Dones", "lon": "-69.783333"}, {"lat": "-22.35", "city": "Oficina Maria Elena", "lon": "-69.666667"}, {"lat": "-23.033333", "city": "Oficina Maria", "lon": "-69.45"}, {"lat": "-24.066667", "city": "Oficina Oriente", "lon": "-69.783333"}, {"lat": "-22.6", "city": "Oficina Pedro de Valdivia", "lon": "-69.666667"}, {"lat": "-23.05", "city": "Oficina Perseverancia", "lon": "-69.4"}, {"lat": "-25.233333", "city": "Oficina Rosario", "lon": "-69.783333"}, {"lat": "-25.05", "city": "Oficina Salinitas", "lon": "-69.983333"}, {"lat": "-22.083333", "city": "Oficina Toco", "lon": "-69.616667"}, {"lat": "-24.05", "city": "Oficina Yugoslavia", "lon": "-69.833333"}, {"lat": "-22.083333", "city": "Ojeda", "lon": "-69.85"}, {"lat": "-21.233333", "city": "Oliague", "lon": "-68.266667"}, {"lat": "-21.233333", "city": "Ollague", "lon": "-68.266667"}, {"lat": "-21.233333", "city": "Oyahue", "lon": "-68.266667"}, {"lat": "-22.95", "city": "Pajonales", "lon": "-67.85"}, {"lat": "-24.9", "city": "Pampa Anita", "lon": "-69.733333"}, {"lat": "-24.866667", "city": "Pampa Elena", "lon": "-69.816667"}, {"lat": "-24.95", "city": "Pampa Fidelia", "lon": "-69.666667"}, {"lat": "-24.933333", "city": "Pampa Nacha", "lon": "-69.866667"}, {"lat": "-23.083333", "city": "Pampa Union", "lon": "-69.483333"}, {"lat": "-24.966667", "city": "Pampa Yolanda", "lon": "-70.15"}, {"lat": "-24.966667", "city": "Pampa Yolande", "lon": "-70.15"}, {"lat": "-22.133333", "city": "Paniri", "lon": "-68.266667"}, {"lat": "-25.016667", "city": "Paposo", "lon": "-70.466667"}, {"lat": "-22.6", "city": "Pedro de Valdivia", "lon": "-69.666667"}, {"lat": "-23.683333", "city": "Peine", "lon": "-68.066667"}, {"lat": "-22.633333", "city": "Penaliri", "lon": "-68.133333"}, {"lat": "-25.05", "city": "Perales", "lon": "-70.466667"}, {"lat": "-23.033333", "city": "Placilla de Caracoles", "lon": "-69.016667"}, {"lat": "-25.9", "city": "Placilla de Esmeralda", "lon": "-70.566667"}, {"lat": "-23.683333", "city": "Playa Blanca", "lon": "-70.4"}, {"lat": "-23.233333", "city": "Pocor", "lon": "-68"}, {"lat": "-25.233333", "city": "Porfia", "lon": "-69.616667"}, {"lat": "-25.766667", "city": "Posada de los Hidalgos", "lon": "-70.55"}, {"lat": "-21.816667", "city": "Pozo Perdido", "lon": "-70.133333"}, {"lat": "-22.033333", "city": "Puntillas", "lon": "-69.75"}, {"lat": "-21.033333", "city": "Puquios", "lon": "-68.366667"}, {"lat": "-21.416667", "city": "Quebradillas", "lon": "-69.95"}, {"lat": "-21.65", "city": "Quillagua", "lon": "-69.55"}, {"lat": "-22.15", "city": "Quillaguita", "lon": "-69.583333"}, {"lat": "-22.5", "city": "Ramadas", "lon": "-69.1"}, {"lat": "-23.416667", "city": "Refresco", "lon": "-69.766667"}, {"lat": "-25.616667", "city": "Refresco Seco", "lon": "-69.583333"}, {"lat": "-25.066667", "city": "Rio Frio", "lon": "-69.083333"}, {"lat": "-22.633333", "city": "Rio Grande", "lon": "-68.183333"}, {"lat": "-22.266667", "city": "Rio Loa", "lon": "-68.633333"}, {"lat": "-25.366667", "city": "Rosario", "lon": "-70.216667"}, {"lat": "-22.716667", "city": "San Bartolo", "lon": "-68.216667"}, {"lat": "-23.55", "city": "San Cristobal", "lon": "-69.55"}, {"lat": "-23.55", "city": "San Francisco", "lon": "-67.9"}, {"lat": "-23.083333", "city": "San Juan", "lon": "-69.033333"}, {"lat": "-22.916667", "city": "San Pedro de Atacama", "lon": "-68.216667"}, {"lat": "-25.35", "city": "San Ramon", "lon": "-70.45"}, {"lat": "-25.35", "city": "Sara", "lon": "-69.883333"}, {"lat": "-23.733333", "city": "Sargento Aldea", "lon": "-70.366667"}, {"lat": "-22.9", "city": "Sierra Gorda", "lon": "-69.316667"}, {"lat": "-23.6", "city": "Socaire", "lon": "-67.85"}, {"lat": "-22.95", "city": "Solor", "lon": "-68.2"}, {"lat": "-23.333333", "city": "Soncor", "lon": "-68"}, {"lat": "-23.366667", "city": "Talabre", "lon": "-67.85"}, {"lat": "-25.4", "city": "Taltal", "lon": "-70.483333"}, {"lat": "-23.083333", "city": "Tambillo", "lon": "-68.066667"}, {"lat": "-21.9", "city": "Tapiche", "lon": "-68.6"}, {"lat": "-23.783333", "city": "Tilomonte", "lon": "-68.116667"}, {"lat": "-23.783333", "city": "Tilopozo", "lon": "-68.25"}, {"lat": "-23.183333", "city": "Toconao", "lon": "-68.016667"}, {"lat": "-22.266667", "city": "Toconce", "lon": "-68.183333"}, {"lat": "-22.09198", "city": "Tocopilla", "lon": "-70.19792"}, {"lat": "-22.083333", "city": "Toco", "lon": "-69.583333"}, {"lat": "-22.166667", "city": "Topain", "lon": "-68.333333"}, {"lat": "-22.15", "city": "Tres Puntas", "lon": "-70.216667"}, {"lat": "-22.983333", "city": "Tulor", "lon": "-68.233333"}, {"lat": "-22.616667", "city": "Turicapur", "lon": "-68.233333"}, {"lat": "-22.216667", "city": "Turi", "lon": "-68.283333"}, {"lat": "-24.916667", "city": "Yolanda Norte", "lon": "-70.116667"}, {"lat": "-21.033333", "city": "Yuma", "lon": "-68.5"}, {"lat": "-23.116667", "city": "Zapar", "lon": "-68.016667"}, {"lat": "-24.483333", "city": "Zorras", "lon": "-68.7"}], "13": [{"lat": "-17.923056", "city": "Charipujo", "lon": "-69.883889"}, {"lat": "-17.983333", "city": "Guailla", "lon": "-68.233333"}, {"lat": "-17.578333", "city": "Huaylluta", "lon": "-69.708889"}, {"lat": "-17.582778", "city": "Tulapina", "lon": "-69.717778"}], "01": [{"lat": "-33", "city": "Achupallas", "lon": "-71.516667"}, {"lat": "-32.516667", "city": "Agua Salada", "lon": "-71.433333"}, {"lat": "-33.366667", "city": "Algarrobo", "lon": "-71.666667"}, {"lat": "-32.35", "city": "Alicahue", "lon": "-70.783333"}, {"lat": "-32.75", "city": "Almendral", "lon": "-70.7"}, {"lat": "-32.883333", "city": "Alto de la Posada", "lon": "-70.2"}, {"lat": "-33.1", "city": "Alto del Puerto", "lon": "-71.6"}, {"lat": "-33.05", "city": "Alvarado", "lon": "-71.116667"}, {"lat": "-32.833333", "city": "Andes", "lon": "-70.616667"}, {"lat": "-32.1", "city": "Angostura", "lon": "-71.45"}, {"lat": "-32.4", "city": "Artificio", "lon": "-71.083333"}, {"lat": "-32.4", "city": "Artificio de Pedegua", "lon": "-71.083333"}, {"lat": "-32.883333", "city": "Auco", "lon": "-70.716667"}, {"lat": "-32.666667", "city": "Balneario de Jahuel", "lon": "-70.583333"}, {"lat": "-32.7", "city": "Banos El Barro", "lon": "-70.516667"}, {"lat": "-33.05", "city": "Baron", "lon": "-71.6"}, {"lat": "-33.6", "city": "Barrancas", "lon": "-71.616667"}, {"lat": "-32.583333", "city": "Blanquillo", "lon": "-71.266667"}, {"lat": "-32.866667", "city": "Boco", "lon": "-71.283333"}, {"lat": "-32.816667", "city": "Bucalemu", "lon": "-70.683333"}, {"lat": "-32.432778", "city": "Cabildo", "lon": "-71.133611"}, {"lat": "-33", "city": "Cajon Grande", "lon": "-71.133333"}, {"lat": "-32.783333", "city": "Calera", "lon": "-71.2"}, {"lat": "-32.716667", "city": "Caleta Horcon", "lon": "-71.5"}, {"lat": "-27.15", "city": "Caleton", "lon": "-109.45"}, {"lat": "-32.3", "city": "Callejones", "lon": "-70.95"}, {"lat": "-32.85", "city": "Calle Larga", "lon": "-70.633333"}, {"lat": "-32.733333", "city": "Campiche", "lon": "-71.45"}, {"lat": "-32.666667", "city": "Campos de Ahumada", "lon": "-70.516667"}, {"lat": "-32.75", "city": "Canabina", "lon": "-70.466667"}, {"lat": "-32.833333", "city": "Cancha Pelada", "lon": "-70.083333"}, {"lat": "-32.8", "city": "Caracoles", "lon": "-70.1"}, {"lat": "-32.8", "city": "Carino Botado", "lon": "-70.566667"}, {"lat": "-33.554167", "city": "Cartagena", "lon": "-71.605278"}, {"lat": "-33.554167", "city": "Cartajena", "lon": "-71.605278"}, {"lat": "-33.316667", "city": "Casablanca", "lon": "-71.416667"}, {"lat": "-32.5", "city": "Casas de la Quebradilla", "lon": "-71.266667"}, {"lat": "-32.75", "city": "Casas de Pucalan", "lon": "-71.366667"}, {"lat": "-33.633333", "city": "Casas de San Juan", "lon": "-71.566667"}, {"lat": "-32.883333", "city": "Casas Gualcapo", "lon": "-71.116667"}, {"lat": "-32.816667", "city": "Casas La Sombra", "lon": "-71.083333"}, {"lat": "-32.866667", "city": "Casuto", "lon": "-70.7"}, {"lat": "-32.566111", "city": "Catapilco", "lon": "-71.276389"}, {"lat": "-32.633333", "city": "Catemu", "lon": "-71.033333"}, {"lat": "-33.083333", "city": "Cerro Colorado", "lon": "-71.65"}, {"lat": "-33.033333", "city": "Cerro Playa Ancha", "lon": "-71.65"}, {"lat": "-33.2", "city": "Chacrilla", "lon": "-71.2"}, {"lat": "-32.8", "city": "Chagres", "lon": "-70.966667"}, {"lat": "-32.85", "city": "Champa de Ocoa", "lon": "-71.133333"}, {"lat": "-32.866667", "city": "Charrabata", "lon": "-71.25"}, {"lat": "-32.866667", "city": "Charravata", "lon": "-71.25"}, {"lat": "-32.216667", "city": "Chincolco", "lon": "-70.833333"}, {"lat": "-33.047778", "city": "Ciudad de Valparaiso", "lon": "-71.601111"}, {"lat": "-32.833333", "city": "Ciudad Los Andes", "lon": "-70.616667"}, {"lat": "-32.7", "city": "Coimas", "lon": "-70.733333"}, {"lat": "-33.833333", "city": "Colegio de Bucalemu", "lon": "-71.733333"}, {"lat": "-33.833333", "city": "Colejio de Bucalemu", "lon": "-71.733333"}, {"lat": "-32.590556", "city": "Coligues", "lon": "-71.275556"}, {"lat": "-32.633333", "city": "Colonia Agricola Catemu", "lon": "-71.033333"}, {"lat": "-33.083333", "city": "Colorado", "lon": "-71.65"}, {"lat": "-32.666667", "city": "Comunidad Campo de Ahumada", "lon": "-70.516667"}, {"lat": "-32.75", "city": "Comunidad Covarrubias", "lon": "-70.483333"}, {"lat": "-32.883333", "city": "Comunidad de Auco", "lon": "-70.716667"}, {"lat": "-32.7", "city": "Comunidad de la Canela", "lon": "-71.333333"}, {"lat": "-32.85", "city": "Comunidad de las Bandurrias", "lon": "-70.733333"}, {"lat": "-32.733333", "city": "Comunidad La Estancilla", "lon": "-71.383333"}, {"lat": "-32.283333", "city": "Comunidad La Polcura", "lon": "-70.883333"}, {"lat": "-32.7", "city": "Comunidad las Coimas", "lon": "-70.733333"}, {"lat": "-32.9", "city": "Comunidad Quebrada Seca", "lon": "-70.7"}, {"lat": "-32.916667", "city": "Concon", "lon": "-71.516667"}, {"lat": "-32.383333", "city": "Cuesta del Pobre", "lon": "-71.183333"}, {"lat": "-33.733333", "city": "Cuncumen", "lon": "-71.416667"}, {"lat": "-32.783333", "city": "Curimon", "lon": "-70.7"}, {"lat": "-32.716667", "city": "El Algarrobal", "lon": "-70.733333"}, {"lat": "-32.366667", "city": "El Almendro", "lon": "-71.15"}, {"lat": "-32.716667", "city": "El Alto", "lon": "-71.433333"}, {"lat": "-32.7", "city": "El Asiento", "lon": "-70.783333"}, {"lat": "-33.233333", "city": "El Barco", "lon": "-71.633333"}, {"lat": "-33.05", "city": "El Baron", "lon": "-71.6"}, {"lat": "-32.583333", "city": "El Blanquillo", "lon": "-71.266667"}, {"lat": "-32.8", "city": "El Bosque", "lon": "-70.666667"}, {"lat": "-33", "city": "El Cajon", "lon": "-71.133333"}, {"lat": "-32.8", "city": "El Carino Botado", "lon": "-70.566667"}, {"lat": "-32.866667", "city": "El Chacai", "lon": "-70.616667"}, {"lat": "-32.866667", "city": "El Chacay", "lon": "-70.616667"}, {"lat": "-32.75", "city": "El Cobre", "lon": "-70.966667"}, {"lat": "-33.783333", "city": "El Convento", "lon": "-71.583333"}, {"lat": "-32.733333", "city": "El Encon", "lon": "-70.75"}, {"lat": "-32.983333", "city": "El Granizo", "lon": "-71.166667"}, {"lat": "-32.833333", "city": "El Guapi", "lon": "-70.533333"}, {"lat": "-32.866667", "city": "El Higueral", "lon": "-70.7"}, {"lat": "-32.833333", "city": "El Huape", "lon": "-70.533333"}, {"lat": "-32.866667", "city": "El Juncal", "lon": "-70.166667"}, {"lat": "-33.183333", "city": "El Llano del Totoral", "lon": "-71.266667"}, {"lat": "-33.183333", "city": "El Llano", "lon": "-71.266667"}, {"lat": "-32.916667", "city": "El Manzanar", "lon": "-71.383333"}, {"lat": "-33.016667", "city": "El Maqui", "lon": "-71.116667"}, {"lat": "-32.698889", "city": "El Melon", "lon": "-71.213333"}, {"lat": "-32.833333", "city": "El Molino", "lon": "-71"}, {"lat": "-32.766667", "city": "El Olivo", "lon": "-70.666667"}, {"lat": "-32.5", "city": "El Pangue", "lon": "-71.383333"}, {"lat": "-32.866667", "city": "El Penon", "lon": "-70.216667"}, {"lat": "-32.866667", "city": "El Pino", "lon": "-70.666667"}, {"lat": "-32.833333", "city": "El Portillo", "lon": "-70.133333"}, {"lat": "-32.783333", "city": "El Porvenir", "lon": "-70.666667"}, {"lat": "-33.583333", "city": "El Puertecito", "lon": "-71.6125"}, {"lat": "-33.4", "city": "El Quisco", "lon": "-71.7"}, {"lat": "-33.033333", "city": "El Retiro", "lon": "-71.45"}, {"lat": "-32.733333", "city": "El Rincon", "lon": "-71.366667"}, {"lat": "-32.416667", "city": "El Romeral", "lon": "-71.383333"}, {"lat": "-32.95", "city": "El Saladillo", "lon": "-70.283333"}, {"lat": "-33.05", "city": "El Salto", "lon": "-71.516667"}, {"lat": "-33.05", "city": "El Sauce", "lon": "-71.416667"}, {"lat": "-33.416667", "city": "El Seminario", "lon": "-71.716667"}, {"lat": "-32.233333", "city": "El Sobrante", "lon": "-70.783333"}, {"lat": "-33.45", "city": "El Tabo", "lon": "-71.666667"}, {"lat": "-32.766667", "city": "El Tambo", "lon": "-70.7"}, {"lat": "-32.55", "city": "El Tartaro", "lon": "-70.7"}, {"lat": "-32.6", "city": "El Tome", "lon": "-70.666667"}, {"lat": "-33.416667", "city": "El Totoral", "lon": "-71.633333"}, {"lat": "-33.55", "city": "El Turco", "lon": "-71.483333"}, {"lat": "-32.85", "city": "Enrique Meiggs", "lon": "-70.866667"}, {"lat": "-32.7", "city": "Ermita", "lon": "-70.733333"}, {"lat": "-33.6", "city": "Estacion Leyda", "lon": "-71.466667"}, {"lat": "-32.733333", "city": "Estancilla", "lon": "-71.383333"}, {"lat": "-32.716667", "city": "Fundo El Alto", "lon": "-71.433333"}, {"lat": "-32.616667", "city": "Granalla", "lon": "-70.75"}, {"lat": "-32.616667", "city": "Granallas", "lon": "-70.75"}, {"lat": "-32.983333", "city": "Granizo", "lon": "-71.166667"}, {"lat": "-32.9", "city": "Guadia Vieja", "lon": "-70.283333"}, {"lat": "-33.4", "city": "Guallelemu", "lon": "-71.65"}, {"lat": "-32.133333", "city": "Guangali", "lon": "-71.383333"}, {"lat": "-32.133333", "city": "Guanguali", "lon": "-71.383333"}, {"lat": "-32.283333", "city": "Guaquen", "lon": "-71.466667"}, {"lat": "-32.9", "city": "Guardia Vieja", "lon": "-70.283333"}, {"lat": "-32.35", "city": "Guayacanes", "lon": "-71.2"}, {"lat": "-32.35", "city": "Guayacan", "lon": "-71.2"}, {"lat": "-32.583333", "city": "Guzmanes", "lon": "-70.75"}, {"lat": "-33.033333", "city": "Hacienda de Ojos Buenos", "lon": "-71.133333"}, {"lat": "-32.783333", "city": "Hacienda La Calera", "lon": "-71.216667"}, {"lat": "-27.15", "city": "Hanga Piko", "lon": "-109.45"}, {"lat": "-27.15", "city": "Hanga Roa", "lon": "-109.433333"}, {"lat": "-32.283333", "city": "Hierro Viejo", "lon": "-71.016667"}, {"lat": "-32.8", "city": "Hijuelas de Conchali", "lon": "-71.166667"}, {"lat": "-32.8", "city": "Hijuelas", "lon": "-71.166667"}, {"lat": "-32.716667", "city": "Horcon", "lon": "-71.5"}, {"lat": "-33.4", "city": "Huallilemu", "lon": "-71.65"}, {"lat": "-33.4", "city": "Hueyilemu", "lon": "-71.65"}, {"lat": "-32.233333", "city": "Ingeniero Santa Maria", "lon": "-71.466667"}, {"lat": "-32.471111", "city": "Ingenio", "lon": "-71.105278"}, {"lat": "-32.716667", "city": "Jahuel", "lon": "-70.65"}, {"lat": "-32.1", "city": "La Angostura", "lon": "-71.45"}, {"lat": "-32.783333", "city": "La Calera", "lon": "-71.2"}, {"lat": "-32.7", "city": "La Canela Arriba", "lon": "-71.333333"}, {"lat": "-32.35", "city": "La Canela", "lon": "-71.183333"}, {"lat": "-33.533333", "city": "La Chacarilla", "lon": "-71.5"}, {"lat": "-32.85", "city": "La Champa", "lon": "-71.133333"}, {"lat": "-32.866667", "city": "La Chilca", "lon": "-70.85"}, {"lat": "-32.45", "city": "La Chimba", "lon": "-71.3"}, {"lat": "-32.833333", "city": "La Cruz", "lon": "-71.233333"}, {"lat": "-32.916667", "city": "La Cumbre", "lon": "-70.8"}, {"lat": "-32.3", "city": "La Engorda", "lon": "-71.2"}, {"lat": "-32.8", "city": "La Florida", "lon": "-70.566667"}, {"lat": "-33.15", "city": "Lago Penuelas", "lon": "-71.566667"}, {"lat": "-32.75", "city": "La Greda", "lon": "-71.483333"}, {"lat": "-33.1", "city": "Laguna Verde", "lon": "-71.683333"}, {"lat": "-33.433333", "city": "Lagunillas", "lon": "-71.466667"}, {"lat": "-32.483333", "city": "La Higuera", "lon": "-71.2"}, {"lat": "-32.633333", "city": "La Laguna", "lon": "-71.433333"}, {"lat": "-32.25", "city": "La Laja", "lon": "-71.416667"}, {"lat": "-32.433333", "city": "La Ligua", "lon": "-71.233333"}, {"lat": "-32.483333", "city": "La Mora", "lon": "-70.966667"}, {"lat": "-32.316667", "city": "La Nipa", "lon": "-70.95"}, {"lat": "-32.8", "city": "La Palmilla", "lon": "-71.233333"}, {"lat": "-32.6", "city": "La Pena", "lon": "-70.75"}, {"lat": "-32.783333", "city": "La Placilla", "lon": "-70.633333"}, {"lat": "-32.283333", "city": "La Polcura", "lon": "-70.883333"}, {"lat": "-33.1", "city": "La Polvora", "lon": "-71.6"}, {"lat": "-32.7", "city": "La Poza", "lon": "-70.916667"}, {"lat": "-32.883333", "city": "La Pulperia", "lon": "-70.233333"}, {"lat": "-32.883333", "city": "La Pulperia Peralillo", "lon": "-70.233333"}, {"lat": "-33.533333", "city": "La Quebrada Honda", "lon": "-71.5"}, {"lat": "-33.283333", "city": "La Recova", "lon": "-71.533333"}, {"lat": "-32.583333", "city": "La Retamilla", "lon": "-71.233333"}, {"lat": "-33.5", "city": "La Rudilla", "lon": "-71.5"}, {"lat": "-32.516667", "city": "Las Achupallas", "lon": "-70.616667"}, {"lat": "-32.5", "city": "Las Bandurrias", "lon": "-71.35"}, {"lat": "-33.183333", "city": "Las Canales", "lon": "-71.183333"}, {"lat": "-32.316667", "city": "Las Casas", "lon": "-71.066667"}, {"lat": "-33.533333", "city": "Las Chacarilla", "lon": "-71.5"}, {"lat": "-33.533333", "city": "Las Chacarillas", "lon": "-71.5"}, {"lat": "-33.2", "city": "Las Chacrillas", "lon": "-71.2"}, {"lat": "-32.866667", "city": "Las Chilcas", "lon": "-70.85"}, {"lat": "-32.7", "city": "Las Coimas", "lon": "-70.733333"}, {"lat": "-33.5", "city": "Las Cruces", "lon": "-71.633333"}, {"lat": "-33.066667", "city": "Las Cucharas", "lon": "-71.5"}, {"lat": "-32.566667", "city": "Las Cujas", "lon": "-71.466667"}, {"lat": "-33.283333", "city": "Las Dichas", "lon": "-71.516667"}, {"lat": "-32.633333", "city": "Las Majadas", "lon": "-70.866667"}, {"lat": "-33.25", "city": "Las Mercedes", "lon": "-71.333333"}, {"lat": "-32.2", "city": "Las Palmas", "lon": "-71.133333"}, {"lat": "-32.916667", "city": "Las Ramaditas", "lon": "-71.5"}, {"lat": "-33.066667", "city": "Las Rosas", "lon": "-71.45"}, {"lat": "-32.75", "city": "Las Salinas", "lon": "-71.466667"}, {"lat": "-32.65", "city": "Las Terneras", "lon": "-71.383333"}, {"lat": "-33.333333", "city": "Las Tunas", "lon": "-71.416667"}, {"lat": "-32.716667", "city": "Las Vacas", "lon": "-70.983333"}, {"lat": "-32.733333", "city": "Las Ventanas", "lon": "-71.483333"}, {"lat": "-32.9", "city": "La Tetera", "lon": "-71.25"}, {"lat": "-32.216667", "city": "La Vega", "lon": "-70.883333"}, {"lat": "-32.916667", "city": "La Yesera", "lon": "-70.1"}, {"lat": "-33.6", "city": "Leyda", "lon": "-71.466667"}, {"lat": "-32.5", "city": "Lilen", "lon": "-71.45"}, {"lat": "-32.983333", "city": "Limache", "lon": "-71.283333"}, {"lat": "-32.85", "city": "Llaillai", "lon": "-70.966667"}, {"lat": "-32.85", "city": "Llaillay", "lon": "-70.966667"}, {"lat": "-32.85", "city": "Llay-Llay", "lon": "-70.966667"}, {"lat": "-33.616667", "city": "Llolleo", "lon": "-71.603611"}, {"lat": "-33.516667", "city": "Lo Abarca", "lon": "-71.566667"}, {"lat": "-32.733333", "city": "Lo Calvo", "lon": "-70.6"}, {"lat": "-32.8", "city": "Lo Campo", "lon": "-70.916667"}, {"lat": "-33", "city": "Lo Chaparro", "lon": "-71.25"}, {"lat": "-33.6", "city": "Lo Gallardo", "lon": "-71.616667"}, {"lat": "-33", "city": "Lo Gamboa", "lon": "-71.25"}, {"lat": "-33.016667", "city": "Lo Narvaez", "lon": "-71.183333"}, {"lat": "-32.787778", "city": "Loncura", "lon": "-71.505556"}, {"lat": "-32.386667", "city": "Longotoma", "lon": "-71.366667"}, {"lat": "-32.833333", "city": "Los Andes", "lon": "-70.616667"}, {"lat": "-32.916667", "city": "Los Azules", "lon": "-70.366667"}, {"lat": "-32.3", "city": "Los Callejones", "lon": "-70.95"}, {"lat": "-32.590556", "city": "Los Colihues", "lon": "-71.275556"}, {"lat": "-32.483333", "city": "Los Corrales", "lon": "-71.383333"}, {"lat": "-32.883333", "city": "Los Espinos", "lon": "-70.383333"}, {"lat": "-33.533333", "city": "Los Lunes", "lon": "-71.483333"}, {"lat": "-32.766667", "city": "Los Maitenes", "lon": "-71.466667"}, {"lat": "-32.666667", "city": "Los Mantos", "lon": "-70.916667"}, {"lat": "-32.766667", "city": "Los Maquis", "lon": "-71.316667"}, {"lat": "-32.733333", "city": "Los Nogales", "lon": "-71.25"}, {"lat": "-32.816667", "city": "Los Olmos", "lon": "-70.6"}, {"lat": "-32.35", "city": "Los Perales", "lon": "-70.766667"}, {"lat": "-33.183333", "city": "Los Peumos", "lon": "-71.233333"}, {"lat": "-33.166667", "city": "Los Quillayes", "lon": "-71.333333"}, {"lat": "-32.95", "city": "Los Ranchillos", "lon": "-70.7"}, {"lat": "-32.916667", "city": "Los Riecillos", "lon": "-70.333333"}, {"lat": "-32.733333", "city": "Los Tomes", "lon": "-71.45"}, {"lat": "-33.266667", "city": "Los Vasquez", "lon": "-71.45"}, {"lat": "-33.266667", "city": "Lo Vasquez", "lon": "-71.45"}, {"lat": "-33.533333", "city": "Lo Zarate", "lon": "-71.55"}, {"lat": "-32.766667", "city": "Maitenes", "lon": "-71.466667"}, {"lat": "-33.583333", "city": "Malvilla", "lon": "-71.55"}, {"lat": "-32.666667", "city": "Mantos", "lon": "-70.916667"}, {"lat": "-32.916667", "city": "Manzanar", "lon": "-71.383333"}, {"lat": "-33.016667", "city": "Maquis", "lon": "-71.116667"}, {"lat": "-33.183333", "city": "Martin Galan", "lon": "-71.2"}, {"lat": "-32.698889", "city": "Melon", "lon": "-71.213333"}, {"lat": "-33.033333", "city": "Miramar", "lon": "-71.566667"}, {"lat": "-27.15", "city": "Moeiroa", "lon": "-109.45"}, {"lat": "-32.966667", "city": "Montemar", "lon": "-71.483333"}, {"lat": "-32.316667", "city": "Montt", "lon": "-71.066667"}, {"lat": "-32.083333", "city": "Mundo Nuevo", "lon": "-71.316667"}, {"lat": "-32.1", "city": "Navarro", "lon": "-71.383333"}, {"lat": "-32.716667", "city": "Nogales", "lon": "-71.233333"}, {"lat": "-32.8", "city": "Ocampo", "lon": "-70.916667"}, {"lat": "-32.816667", "city": "Ocoa", "lon": "-71.1"}, {"lat": "-33.033333", "city": "Ojos Buenos", "lon": "-71.133333"}, {"lat": "-33", "city": "Olmue", "lon": "-71.2"}, {"lat": "-32.816667", "city": "Pachacamita", "lon": "-71.166667"}, {"lat": "-32.816667", "city": "Paidahuen", "lon": "-70.583333"}, {"lat": "-32.8", "city": "Palmilla", "lon": "-71.233333"}, {"lat": "-32.75", "city": "Palomar", "lon": "-70.8"}, {"lat": "-32.8", "city": "Panquehue", "lon": "-70.833333"}, {"lat": "-32.516667", "city": "Papudo", "lon": "-71.45"}, {"lat": "-32.833333", "city": "Parada Caracoles", "lon": "-70.1"}, {"lat": "-32.833333", "city": "Parada Portillo", "lon": "-70.15"}, {"lat": "-33.016667", "city": "Parque Sauzalito", "lon": "-71.55"}, {"lat": "-33.483333", "city": "Paso del Rosario", "lon": "-71.483333"}, {"lat": "-33.483333", "city": "Paso Rosario", "lon": "-71.483333"}, {"lat": "-32.383333", "city": "Pedegua", "lon": "-71.1"}, {"lat": "-33.05", "city": "Penablanca", "lon": "-71.35"}, {"lat": "-33.15", "city": "Penuelas", "lon": "-71.566667"}, {"lat": "-32.883333", "city": "Peralillo", "lon": "-70.233333"}, {"lat": "-32.25", "city": "Petorca", "lon": "-70.933333"}, {"lat": "-32.133333", "city": "Pichidangui", "lon": "-71.533333"}, {"lat": "-32.383333", "city": "Pichilemu", "lon": "-71.133333"}, {"lat": "-32.933333", "city": "Piscicultura", "lon": "-70.283333"}, {"lat": "-32.516667", "city": "Pite", "lon": "-71.483333"}, {"lat": "-33.033333", "city": "Placeres", "lon": "-71.6"}, {"lat": "-33.116667", "city": "Placilla de Penuelas", "lon": "-71.583333"}, {"lat": "-32.45", "city": "Placilla", "lon": "-71.3"}, {"lat": "-33.033333", "city": "Playa Ancha", "lon": "-71.65"}, {"lat": "-33.033333", "city": "Poblacion Chorrillos", "lon": "-71.55"}, {"lat": "-33.033333", "city": "Poblacion Miraflores", "lon": "-71.55"}, {"lat": "-32.833333", "city": "Poblacion Morande", "lon": "-70.983333"}, {"lat": "-33.033333", "city": "Poblacion Parque Forestal", "lon": "-71.55"}, {"lat": "-33.016667", "city": "Poblacion Vergara", "lon": "-71.566667"}, {"lat": "-32.85", "city": "Pocochay", "lon": "-71.2"}, {"lat": "-32.883333", "city": "Pocuro", "lon": "-70.633333"}, {"lat": "-32.833333", "city": "Portillo", "lon": "-70.133333"}, {"lat": "-33.7", "city": "Posada Lilen", "lon": "-71.6"}, {"lat": "-32.75", "city": "Pucalan", "lon": "-71.366667"}, {"lat": "-32.7275", "city": "Puchuncavi", "lon": "-71.412222"}, {"lat": "-32.9", "city": "Pueblo de Indios", "lon": "-71.233333"}, {"lat": "-32.75", "city": "Puntilla", "lon": "-70.7"}, {"lat": "-32.633333", "city": "Putaendo", "lon": "-70.733333"}, {"lat": "-33.05", "city": "Quebrada de Alvarado", "lon": "-71.116667"}, {"lat": "-32.683333", "city": "Quebrada de Herrera", "lon": "-70.75"}, {"lat": "-33.066667", "city": "Quebrada Escobares", "lon": "-71.316667"}, {"lat": "-33.083333", "city": "Quebrada Verde", "lon": "-71.666667"}, {"lat": "-32.15", "city": "Quelon", "lon": "-71.183333"}, {"lat": "-32.116667", "city": "Quilimari", "lon": "-71.5"}, {"lat": "-32.883333", "city": "Quillota", "lon": "-71.266667"}, {"lat": "-33.045", "city": "Quilpue", "lon": "-71.449444"}, {"lat": "-32.45", "city": "Quinquimo", "lon": "-71.316667"}, {"lat": "-33.216667", "city": "Quintay", "lon": "-71.666667"}, {"lat": "-32.783333", "city": "Quintero", "lon": "-71.533333"}, {"lat": "-33.033333", "city": "Recreo", "lon": "-71.583333"}, {"lat": "-32.983333", "city": "Renaca Bajo", "lon": "-71.55"}, {"lat": "-32.966111", "city": "Renaca", "lon": "-71.544722"}, {"lat": "-32.483333", "city": "Resguardo de los Patos", "lon": "-70.583333"}, {"lat": "-32.583333", "city": "Rinconada de Guzman", "lon": "-70.75"}, {"lat": "-32.833333", "city": "Rinconada de los Andes", "lon": "-70.7"}, {"lat": "-32.666667", "city": "Rinconada de Silva", "lon": "-70.733333"}, {"lat": "-32.916667", "city": "Rio Blanco", "lon": "-70.316667"}, {"lat": "-32.866667", "city": "Rio Colorado", "lon": "-70.416667"}, {"lat": "-32.8", "city": "Ritoque", "lon": "-71.533333"}, {"lat": "-33.583333", "city": "Robinson Crusoe", "lon": "-78.85"}, {"lat": "-33.633333", "city": "Rocas de Santo Domingo", "lon": "-71.65"}, {"lat": "-32.695556", "city": "Rungue", "lon": "-71.403056"}, {"lat": "-33.593333", "city": "San Antonio", "lon": "-71.621667"}, {"lat": "-32.8", "city": "San Esteban", "lon": "-70.583333"}, {"lat": "-32.75", "city": "San Felipe", "lon": "-70.733333"}, {"lat": "-32.75", "city": "San Fernando", "lon": "-70.65"}, {"lat": "-32.983333", "city": "San Francisco de Limache", "lon": "-71.283333"}, {"lat": "-32.716667", "city": "San Francisco", "lon": "-70.433333"}, {"lat": "-32.55", "city": "San Jose de Piguchen", "lon": "-70.666667"}, {"lat": "-33.3", "city": "San Jose", "lon": "-71.583333"}, {"lat": "-33.633333", "city": "San Juan", "lon": "-71.566667"}, {"lat": "-32.433333", "city": "San Lorenzo", "lon": "-70.966667"}, {"lat": "-32.833333", "city": "San Miguel", "lon": "-70.55"}, {"lat": "-32.933333", "city": "San Pedro", "lon": "-71.283333"}, {"lat": "-32.816667", "city": "San Rafael", "lon": "-70.65"}, {"lat": "-32.783333", "city": "San Regis", "lon": "-70.583333"}, {"lat": "-32.766667", "city": "San Roque", "lon": "-70.933333"}, {"lat": "-32.816667", "city": "Santa Celia", "lon": "-70.933333"}, {"lat": "-32.7", "city": "Santa Filomena", "lon": "-70.616667"}, {"lat": "-32.133333", "city": "Santa Ines", "lon": "-71.516667"}, {"lat": "-32.75", "city": "Santa Maria", "lon": "-70.666667"}, {"lat": "-32.85", "city": "Santa Teresa", "lon": "-70.933333"}, {"lat": "-32.8", "city": "Santa Virginia", "lon": "-70.933333"}, {"lat": "-32.683333", "city": "Tabalongo", "lon": "-70.616667"}, {"lat": "-32.833333", "city": "Tabolango", "lon": "-70.666667"}, {"lat": "-33.616667", "city": "Tejas Verdes", "lon": "-71.633333"}, {"lat": "-32.783333", "city": "Tierras Blancas", "lon": "-70.716667"}, {"lat": "-32.083333", "city": "Tilama", "lon": "-71.166667"}, {"lat": "-32.816667", "city": "Valle Alegre", "lon": "-70.633333"}, {"lat": "-32.433333", "city": "Valle Hermoso", "lon": "-71.233333"}, {"lat": "-33.047778", "city": "Valparaiso", "lon": "-71.601111"}, {"lat": "-32.733333", "city": "Ventanas", "lon": "-71.483333"}, {"lat": "-32.866667", "city": "Villa Alegre", "lon": "-70.666667"}, {"lat": "-33.042222", "city": "Villa Alemana", "lon": "-71.373333"}, {"lat": "-32.783333", "city": "Villa de Catemu", "lon": "-70.966667"}, {"lat": "-33.008056", "city": "Vina del Mar", "lon": "-71.519722"}, {"lat": "-32.866667", "city": "Vina Guzman", "lon": "-71.083333"}, {"lat": "-33.316667", "city": "Yeco", "lon": "-71.633333"}, {"lat": "-32.55", "city": "Zapallar", "lon": "-71.466667"}], "06": [{"lat": "-37.333333", "city": "Abanico", "lon": "-71.516667"}, {"lat": "-36.6", "city": "Alico", "lon": "-71.533333"}, {"lat": "-36.783333", "city": "Andalien", "lon": "-73.033333"}, {"lat": "-37.466667", "city": "Angeles", "lon": "-72.35"}, {"lat": "-37.666667", "city": "Antiguala", "lon": "-73.383333"}, {"lat": "-37.666667", "city": "Antihuala", "lon": "-73.383333"}, {"lat": "-37.333333", "city": "Antuco", "lon": "-71.683333"}, {"lat": "-37", "city": "Araucana", "lon": "-72.95"}, {"lat": "-37.25", "city": "Arauco", "lon": "-73.316667"}, {"lat": "-36.233333", "city": "Arinia", "lon": "-72.816667"}, {"lat": "-37.466667", "city": "Arrayan", "lon": "-72.433333"}, {"lat": "-36.833333", "city": "Atacalco", "lon": "-71.783333"}, {"lat": "-36.566667", "city": "Bajo El Ala", "lon": "-72.25"}, {"lat": "-36.05", "city": "Bellavista", "lon": "-72.783333"}, {"lat": "-36.816667", "city": "Boca Bio-Bio", "lon": "-73.116667"}, {"lat": "-36.883333", "city": "Bodenca", "lon": "-72.533333"}, {"lat": "-36.883333", "city": "Bodeuca", "lon": "-72.533333"}, {"lat": "-36.066667", "city": "Buchupureo", "lon": "-72.783333"}, {"lat": "-36.883333", "city": "Budeuca", "lon": "-72.533333"}, {"lat": "-36.35", "city": "Buli", "lon": "-71.933333"}, {"lat": "-36.733333", "city": "Bulnes", "lon": "-72.3"}, {"lat": "-36.583333", "city": "Bustamante", "lon": "-71.766667"}, {"lat": "-37.033333", "city": "Cabrero", "lon": "-72.4"}, {"lat": "-36.45", "city": "Cachapoal", "lon": "-71.733333"}, {"lat": "-37.85", "city": "Caicupil", "lon": "-73.266667"}, {"lat": "-36.35", "city": "Cajon", "lon": "-72.8"}, {"lat": "-36.35", "city": "Cajon de Mela", "lon": "-72.8"}, {"lat": "-36.35", "city": "Cajon Meta", "lon": "-72.833333"}, {"lat": "-36.283333", "city": "Calabozo", "lon": "-72.3"}, {"lat": "-36.283333", "city": "Calabozos", "lon": "-72.3"}, {"lat": "-37.866667", "city": "Callaqui", "lon": "-71.683333"}, {"lat": "-36.55", "city": "Callejon Rupango", "lon": "-72.1"}, {"lat": "-36.983333", "city": "Camarico", "lon": "-71.916667"}, {"lat": "-37.116667", "city": "Campanario", "lon": "-72.183333"}, {"lat": "-36.816667", "city": "Canchillas", "lon": "-72.45"}, {"lat": "-37.8", "city": "Canete", "lon": "-73.383333"}, {"lat": "-37.7", "city": "Canicu", "lon": "-71.483333"}, {"lat": "-37.483333", "city": "Canicura", "lon": "-71.816667"}, {"lat": "-37.4", "city": "Canteras", "lon": "-72.016667"}, {"lat": "-37.683333", "city": "Caramavida", "lon": "-73.35"}, {"lat": "-37.25", "city": "Carampangue", "lon": "-73.233333"}, {"lat": "-37.033333", "city": "Carrero", "lon": "-72.4"}, {"lat": "-36.766667", "city": "Carrizales", "lon": "-71.266667"}, {"lat": "-38.433333", "city": "Casa de Piedra", "lon": "-73.466667"}, {"lat": "-37.883333", "city": "Casas Viejas", "lon": "-72.183333"}, {"lat": "-36.533333", "city": "Cato", "lon": "-71.766667"}, {"lat": "-37.85", "city": "Cayucupil", "lon": "-73.266667"}, {"lat": "-36.95", "city": "Cerro Manquimavida", "lon": "-73.016667"}, {"lat": "-36.8", "city": "Cerro Negro", "lon": "-72.466667"}, {"lat": "-36.733333", "city": "Cerro Verde", "lon": "-72.983333"}, {"lat": "-36.7", "city": "Chacayal", "lon": "-71.3"}, {"lat": "-36.816667", "city": "Chancal", "lon": "-72.533333"}, {"lat": "-36.266667", "city": "Chanco", "lon": "-72.716667"}, {"lat": "-36.816667", "city": "Changal", "lon": "-72.533333"}, {"lat": "-36.316667", "city": "Chanihue", "lon": "-72.816667"}, {"lat": "-37.1", "city": "Charrua", "lon": "-72.283333"}, {"lat": "-36.733333", "city": "Chaul", "lon": "-71.983333"}, {"lat": "-36.65", "city": "Chichiguan", "lon": "-71.9"}, {"lat": "-36.916667", "city": "Chiguayante", "lon": "-73.016667"}, {"lat": "-36.6", "city": "Chillan", "lon": "-72.116667"}, {"lat": "-36.783333", "city": "Chillancito", "lon": "-72.433333"}, {"lat": "-36.616667", "city": "Chillan Viejo", "lon": "-72.133333"}, {"lat": "-37.166667", "city": "Cholguan", "lon": "-72.05"}, {"lat": "-36.533333", "city": "Chudal", "lon": "-72.533333"}, {"lat": "-36.133333", "city": "Cielo", "lon": "-72.783333"}, {"lat": "-36.833333", "city": "Ciudad de Concepcion", "lon": "-73.05"}, {"lat": "-37.616667", "city": "Ciudad de Lebu", "lon": "-73.65"}, {"lat": "-37.466667", "city": "Ciudad de Los Anjeles", "lon": "-72.35"}, {"lat": "-36.733333", "city": "Ciudad de Penco", "lon": "-72.983333"}, {"lat": "-36.133333", "city": "Cobquecura", "lon": "-72.783333"}, {"lat": "-36.483333", "city": "Coelemu", "lon": "-72.7"}, {"lat": "-36.616667", "city": "Coihueco", "lon": "-71.833333"}, {"lat": "-36.733333", "city": "Coironal", "lon": "-71.266667"}, {"lat": "-36.7", "city": "Coleal", "lon": "-71.783333"}, {"lat": "-37.033333", "city": "Colicheo", "lon": "-72.233333"}, {"lat": "-37.266667", "city": "Colico", "lon": "-72.833333"}, {"lat": "-37.4", "city": "Colico Norte", "lon": "-73.35"}, {"lat": "-37.366667", "city": "Colihue", "lon": "-72.766667"}, {"lat": "-36.4", "city": "Collanco", "lon": "-72.45"}, {"lat": "-36.666667", "city": "Colliguai", "lon": "-72.366667"}, {"lat": "-36.666667", "city": "Colliguay", "lon": "-72.366667"}, {"lat": "-36.2", "city": "Colmuyan", "lon": "-72.8"}, {"lat": "-36.2", "city": "Colmuyao", "lon": "-72.8"}, {"lat": "-36.566667", "city": "Colonia Bernardo O'Higgins", "lon": "-72.083333"}, {"lat": "-36.716667", "city": "Colton", "lon": "-72.266667"}, {"lat": "-36.833333", "city": "Concepcion", "lon": "-73.05"}, {"lat": "-36.65", "city": "Confluencia", "lon": "-72.433333"}, {"lat": "-38", "city": "Contulmo", "lon": "-73.233333"}, {"lat": "-36.05", "city": "Copiulemu", "lon": "-72.75"}, {"lat": "-37.016667", "city": "Coronel", "lon": "-73.133333"}, {"lat": "-36.4", "city": "Coyanco", "lon": "-72.45"}, {"lat": "-36.6", "city": "Culenar", "lon": "-71.9"}, {"lat": "-36.133333", "city": "Culenco", "lon": "-72.566667"}, {"lat": "-37.683333", "city": "Curamavida", "lon": "-73.35"}, {"lat": "-37.466667", "city": "Curanilahue", "lon": "-73.35"}, {"lat": "-36.533333", "city": "Curica", "lon": "-72.35"}, {"lat": "-36.216667", "city": "Curimanqui", "lon": "-72.366667"}, {"lat": "-37.616667", "city": "Cuyinco", "lon": "-73.383333"}, {"lat": "-36.55", "city": "Dichato", "lon": "-72.933333"}, {"lat": "-36.866667", "city": "Diguillin", "lon": "-72.283333"}, {"lat": "-37.333333", "city": "Diuquin", "lon": "-72.683333"}, {"lat": "-36.733333", "city": "Domuco", "lon": "-72.633333"}, {"lat": "-36.133333", "city": "Durazno", "lon": "-72.566667"}, {"lat": "-37.333333", "city": "El Abanico", "lon": "-71.516667"}, {"lat": "-36.566667", "city": "El Ala", "lon": "-72.25"}, {"lat": "-36.683333", "city": "El Alamo", "lon": "-73.102778"}, {"lat": "-36.6", "city": "El Alico", "lon": "-71.533333"}, {"lat": "-36.4", "city": "El Aromo", "lon": "-72.65"}, {"lat": "-37.466667", "city": "El Arrayan", "lon": "-72.433333"}, {"lat": "-36.9", "city": "El Carmen", "lon": "-72.033333"}, {"lat": "-36.7", "city": "El Chacaval", "lon": "-71.3"}, {"lat": "-36.7", "city": "El Chacayal", "lon": "-71.3"}, {"lat": "-36.133333", "city": "El Cielo", "lon": "-72.783333"}, {"lat": "-36.283333", "city": "El Cruce", "lon": "-72.716667"}, {"lat": "-36.133333", "city": "El Durazno", "lon": "-72.566667"}, {"lat": "-36.6", "city": "El Guape", "lon": "-72.233333"}, {"lat": "-38.116667", "city": "El Malo", "lon": "-73.35"}, {"lat": "-36.516667", "city": "El Manzano", "lon": "-72.1"}, {"lat": "-37.3", "city": "El Pedregal", "lon": "-72"}, {"lat": "-37.3", "city": "El Peumo", "lon": "-71.75"}, {"lat": "-36.7", "city": "El Porton", "lon": "-73.1"}, {"lat": "-37.5", "city": "El Potrerillo", "lon": "-73.116667"}, {"lat": "-36.65", "city": "El Prado", "lon": "-71.816667"}, {"lat": "-36.733333", "city": "El Puerto", "lon": "-72.516667"}, {"lat": "-36.733333", "city": "El Quillay", "lon": "-72.566667"}, {"lat": "-36.216667", "city": "El Roble", "lon": "-72.533333"}, {"lat": "-36.766667", "city": "El Rosal", "lon": "-73.033333"}, {"lat": "-37.05", "city": "El Saltillo", "lon": "-71.933333"}, {"lat": "-36.433333", "city": "El Sauce", "lon": "-71.833333"}, {"lat": "-36.666667", "city": "Estacion Pinto", "lon": "-71.9"}, {"lat": "-36.816667", "city": "Florida", "lon": "-72.666667"}, {"lat": "-36.6", "city": "Frutillares", "lon": "-72.933333"}, {"lat": "-36.583333", "city": "General Lagos", "lon": "-72.033333"}, {"lat": "-36.583333", "city": "General Lagos Guindos", "lon": "-72.033333"}, {"lat": "-37.183333", "city": "Gomero", "lon": "-72.8"}, {"lat": "-36.783333", "city": "Gualpencillo", "lon": "-73.083333"}, {"lat": "-36.966667", "city": "Gualqui", "lon": "-72.933333"}, {"lat": "-36.833333", "city": "Guancamala", "lon": "-72.466667"}, {"lat": "-36.633333", "city": "Guanguali", "lon": "-72.083333"}, {"lat": "-36.6", "city": "Guape", "lon": "-72.233333"}, {"lat": "-36.6", "city": "Guapi", "lon": "-72.233333"}, {"lat": "-36.533333", "city": "Guarilihue", "lon": "-72.716667"}, {"lat": "-36.583333", "city": "Guindos", "lon": "-72.033333"}, {"lat": "-37.933333", "city": "Hosteria", "lon": "-73.316667"}, {"lat": "-37.933333", "city": "Hosteria Lanalhue", "lon": "-73.316667"}, {"lat": "-37.933333", "city": "Hostoria", "lon": "-73.316667"}, {"lat": "-36.833333", "city": "Huacamala", "lon": "-72.466667"}, {"lat": "-36.75", "city": "Huachipato", "lon": "-73.116667"}, {"lat": "-36.783333", "city": "Hualpencillo", "lon": "-73.083333"}, {"lat": "-36.966667", "city": "Hualqui", "lon": "-72.933333"}, {"lat": "-36.6", "city": "Huape", "lon": "-72.233333"}, {"lat": "-36.533333", "city": "Huarilihue", "lon": "-72.716667"}, {"lat": "-36.616667", "city": "Huechupin", "lon": "-72.366667"}, {"lat": "-37.233333", "city": "Huepil", "lon": "-71.933333"}, {"lat": "-36.15", "city": "Huilipatagua", "lon": "-72.2"}, {"lat": "-36.15", "city": "Huillipatagua", "lon": "-72.2"}, {"lat": "-36.15", "city": "Huitipa Agua", "lon": "-72.2"}, {"lat": "-36.533333", "city": "Hurilihue", "lon": "-72.716667"}, {"lat": "-36.616667", "city": "Infernillo", "lon": "-72.466667"}, {"lat": "-36.616667", "city": "Infiernillo", "lon": "-72.466667"}, {"lat": "-36.716667", "city": "Juan Chico", "lon": "-72.816667"}, {"lat": "-36.183333", "city": "La Achira", "lon": "-72.783333"}, {"lat": "-37", "city": "La Araucana", "lon": "-72.95"}, {"lat": "-36.816667", "city": "La Boca", "lon": "-73.116667"}, {"lat": "-36.85", "city": "La Capilla", "lon": "-71.85"}, {"lat": "-36.816667", "city": "La Florida", "lon": "-72.666667"}, {"lat": "-36.816667", "city": "La Greda", "lon": "-72.083333"}, {"lat": "-37.116667", "city": "La Higuera", "lon": "-72.25"}, {"lat": "-37.366667", "city": "La Hijuela", "lon": "-71.966667"}, {"lat": "-37.266667", "city": "Laja", "lon": "-72.7"}, {"lat": "-36.45", "city": "Lajuelas", "lon": "-72.366667"}, {"lat": "-37.266667", "city": "La Laja", "lon": "-72.7"}, {"lat": "-36.95", "city": "La Leonera", "lon": "-72.916667"}, {"lat": "-36.45", "city": "La Maquina", "lon": "-71.6"}, {"lat": "-36.366667", "city": "La Maravilla", "lon": "-72.15"}, {"lat": "-36.833333", "city": "La Mocha", "lon": "-72.1"}, {"lat": "-36.7", "city": "La Montana", "lon": "-71.966667"}, {"lat": "-36.766667", "city": "La Piedra", "lon": "-73.204167"}, {"lat": "-36.166667", "city": "La Pita", "lon": "-72.7"}, {"lat": "-36.3", "city": "La Poza", "lon": "-72.816667"}, {"lat": "-36.433333", "city": "La Quinta", "lon": "-72.633333"}, {"lat": "-37.166667", "city": "Laraquete", "lon": "-73.183333"}, {"lat": "-36.183333", "city": "Las Delicias", "lon": "-72.583333"}, {"lat": "-37.366667", "city": "Las Hijuelas", "lon": "-71.966667"}, {"lat": "-37.366667", "city": "Las Hijulas", "lon": "-71.966667"}, {"lat": "-36.233333", "city": "Las Juilas", "lon": "-72.75"}, {"lat": "-36.65", "city": "Las Lajuelas", "lon": "-72.133333"}, {"lat": "-36.733333", "city": "Las Minas", "lon": "-72"}, {"lat": "-36.233333", "city": "Las Quilas", "lon": "-72.75"}, {"lat": "-36.3", "city": "Las Raices", "lon": "-72.8"}, {"lat": "-36.35", "city": "Las Rosas", "lon": "-71.783333"}, {"lat": "-37.55", "city": "Las Tiendas de Villucura", "lon": "-71.966667"}, {"lat": "-36.85", "city": "Laureles", "lon": "-72.1"}, {"lat": "-36.433333", "city": "La Vinita", "lon": "-72.633333"}, {"lat": "-37.616667", "city": "Lebu", "lon": "-73.65"}, {"lat": "-36.866667", "city": "Lincura", "lon": "-72.383333"}, {"lat": "-36.716667", "city": "Lirquen", "lon": "-72.966667"}, {"lat": "-36.866667", "city": "Liucura", "lon": "-72.383333"}, {"lat": "-36.533333", "city": "Llenquel", "lon": "-72.316667"}, {"lat": "-36.533333", "city": "Llequen", "lon": "-72.316667"}, {"lat": "-37.2", "city": "Llico", "lon": "-73.566667"}, {"lat": "-36.35", "city": "Llollehue", "lon": "-72.533333"}, {"lat": "-36.9", "city": "Loma Blanca", "lon": "-71.9"}, {"lat": "-36.85", "city": "Loma Colorada", "lon": "-73.133333"}, {"lat": "-36.85", "city": "Lomas Coloradas", "lon": "-73.133333"}, {"lat": "-37.766667", "city": "Loncopahue", "lon": "-71.783333"}, {"lat": "-37.766667", "city": "Loncopangue", "lon": "-71.783333"}, {"lat": "-37.616667", "city": "Los Alamos", "lon": "-73.466667"}, {"lat": "-37.466667", "city": "Los Angeles", "lon": "-72.35"}, {"lat": "-37.466667", "city": "Los Anjeles", "lon": "-72.35"}, {"lat": "-37.566667", "city": "Los Cambuchos", "lon": "-73.5"}, {"lat": "-37.733333", "city": "Los Chenques", "lon": "-71.55"}, {"lat": "-37.733333", "city": "Los Cheuques", "lon": "-71.55"}, {"lat": "-37.366667", "city": "Los Colihues", "lon": "-72.766667"}, {"lat": "-36.116667", "city": "Los Corrale", "lon": "-72.616667"}, {"lat": "-36.116667", "city": "Los Corrales", "lon": "-72.616667"}, {"lat": "-36.85", "city": "Los Laureles", "lon": "-72.1"}, {"lat": "-36.766667", "city": "Los Olivos", "lon": "-72.483333"}, {"lat": "-36.666667", "city": "Los Perales", "lon": "-72.65"}, {"lat": "-36.85", "city": "Los Puquios", "lon": "-71.85"}, {"lat": "-37.066667", "city": "Lota Alta", "lon": "-73.116667"}, {"lat": "-37.066667", "city": "Lota Alto", "lon": "-73.116667"}, {"lat": "-37.083333", "city": "Lota", "lon": "-73.166667"}, {"lat": "-37.616667", "city": "Manil", "lon": "-72.1"}, {"lat": "-37.333333", "city": "Manquel", "lon": "-71.566667"}, {"lat": "-36.95", "city": "Manquimavida", "lon": "-73.016667"}, {"lat": "-36.316667", "city": "Manquimiliu", "lon": "-72.516667"}, {"lat": "-36.316667", "city": "Manquimillu", "lon": "-72.516667"}, {"lat": "-36.516667", "city": "Manzano", "lon": "-72.1"}, {"lat": "-36.4", "city": "Maravilla", "lon": "-72.15"}, {"lat": "-36.35", "city": "Mela", "lon": "-72.833333"}, {"lat": "-37.3", "city": "Melirupo", "lon": "-73.433333"}, {"lat": "-36.166667", "city": "Mellinto", "lon": "-72.8"}, {"lat": "-36.55", "city": "Menque", "lon": "-72.866667"}, {"lat": "-36.716667", "city": "Metrihue", "lon": "-72.583333"}, {"lat": "-37.4", "city": "Millanto", "lon": "-72.6"}, {"lat": "-37.4", "city": "Millantu", "lon": "-72.6"}, {"lat": "-36.333333", "city": "Millauquen", "lon": "-72.133333"}, {"lat": "-36.716667", "city": "Mogote", "lon": "-71.783333"}, {"lat": "-37.066667", "city": "Monte Aguila", "lon": "-72.45"}, {"lat": "-37.266667", "city": "Monterei", "lon": "-72.75"}, {"lat": "-37.266667", "city": "Monterrey", "lon": "-72.75"}, {"lat": "-38.25", "city": "Morla Vicuna", "lon": "-73.5"}, {"lat": "-37.716667", "city": "Mulchen", "lon": "-72.233333"}, {"lat": "-36.433333", "city": "Mutupin", "lon": "-71.866667"}, {"lat": "-37.5", "city": "Nacimiento", "lon": "-72.666667"}, {"lat": "-36.483333", "city": "Nahueltoro", "lon": "-71.766667"}, {"lat": "-37.583333", "city": "Negrete", "lon": "-72.516667"}, {"lat": "-36.583333", "city": "Niblinto", "lon": "-71.783333"}, {"lat": "-36.4", "city": "Ninhue", "lon": "-72.4"}, {"lat": "-36.466667", "city": "Ninquihue", "lon": "-72"}, {"lat": "-36.466667", "city": "Ninquilhue", "lon": "-72"}, {"lat": "-36.6", "city": "Nipas", "lon": "-72.533333"}, {"lat": "-36.233333", "city": "Niquen", "lon": "-72.066667"}, {"lat": "-36.716667", "city": "Nitrihue", "lon": "-72.583333"}, {"lat": "-36.65", "city": "Nueva Aldea", "lon": "-72.45"}, {"lat": "-36.583333", "city": "Orilla de Itata", "lon": "-72.533333"}, {"lat": "-36.583333", "city": "Orilla Itata", "lon": "-72.533333"}, {"lat": "-36.433333", "city": "Pachagua", "lon": "-72.533333"}, {"lat": "-36.933333", "city": "Palpal", "lon": "-72.1"}, {"lat": "-37.183333", "city": "Pangal", "lon": "-72.25"}, {"lat": "-37.816667", "city": "Paniquihue", "lon": "-71.9"}, {"lat": "-36.833333", "city": "Pantanillo", "lon": "-72.55"}, {"lat": "-36.833333", "city": "Pantanillos", "lon": "-72.55"}, {"lat": "-36.883333", "city": "Paradero Fresia", "lon": "-73.016667"}, {"lat": "-36.916667", "city": "Paso Hondo", "lon": "-72.533333"}, {"lat": "-37.3", "city": "Pedregal", "lon": "-72"}, {"lat": "-37.666667", "city": "Pehuen", "lon": "-73.533333"}, {"lat": "-37.333333", "city": "Peluca", "lon": "-71.616667"}, {"lat": "-36.966667", "city": "Pemuco", "lon": "-72.1"}, {"lat": "-36.75", "city": "Pena Blanca", "lon": "-72.583333"}, {"lat": "-36.233333", "city": "Penaflor", "lon": "-72.333333"}, {"lat": "-36.733333", "city": "Penco", "lon": "-72.983333"}, {"lat": "-36.733333", "city": "Penon", "lon": "-72.983333"}, {"lat": "-36.666667", "city": "Perales", "lon": "-72.65"}, {"lat": "-36.266667", "city": "Perquilauquen", "lon": "-71.783333"}, {"lat": "-36.566667", "city": "Peumo", "lon": "-72.3"}, {"lat": "-38.183333", "city": "Pichihuechui", "lon": "-73.416667"}, {"lat": "-36.083333", "city": "Pichihuedque", "lon": "-72.5"}, {"lat": "-37.266667", "city": "Pichilo", "lon": "-73.183333"}, {"lat": "-36.5", "city": "Pichirrincon", "lon": "-71.183333"}, {"lat": "-37", "city": "Pileo", "lon": "-72.983333"}, {"lat": "-36.116667", "city": "Pilicura", "lon": "-72.8"}, {"lat": "-36.883333", "city": "Pilluco", "lon": "-72.1"}, {"lat": "-36.666667", "city": "Pilmaiquen", "lon": "-71.85"}, {"lat": "-36.7", "city": "Pinto", "lon": "-71.9"}, {"lat": "-36.6", "city": "Pissis", "lon": "-72.8"}, {"lat": "-36.783333", "city": "Placeres", "lon": "-72.3"}, {"lat": "-36.166667", "city": "Pocillas", "lon": "-72.233333"}, {"lat": "-37.283333", "city": "Polcura", "lon": "-71.716667"}, {"lat": "-36.433333", "city": "Pomuyeto", "lon": "-71.916667"}, {"lat": "-36.533333", "city": "Portezuelo", "lon": "-72.433333"}, {"lat": "-36.383333", "city": "Puaun", "lon": "-72.8"}, {"lat": "-37.033333", "city": "Puchoco", "lon": "-73.166667"}, {"lat": "-36.866667", "city": "Pueblo Seco", "lon": "-72.1"}, {"lat": "-37.616667", "city": "Puerto Lebu", "lon": "-73.65"}, {"lat": "-36.016667", "city": "Pullay", "lon": "-72.766667"}, {"lat": "-36.866667", "city": "Quiapo", "lon": "-73.116667"}, {"lat": "-36.65", "city": "Quidenez", "lon": "-71.6"}, {"lat": "-38.25", "city": "Quidico", "lon": "-73.5"}, {"lat": "-37.666667", "city": "Quilaco", "lon": "-71.983333"}, {"lat": "-37.766667", "city": "Quilapalo", "lon": "-71.95"}, {"lat": "-36.533333", "city": "Quilelto", "lon": "-72.2"}, {"lat": "-36.016667", "city": "Quile", "lon": "-72.7"}, {"lat": "-36.35", "city": "Quillahue", "lon": "-71.966667"}, {"lat": "-37.35", "city": "Quillayloma", "lon": "-72.016667"}, {"lat": "-37.466667", "city": "Quilleco", "lon": "-71.966667"}, {"lat": "-36.733333", "city": "Quillon", "lon": "-72.466667"}, {"lat": "-36.183333", "city": "Quilquen", "lon": "-72.666667"}, {"lat": "-36.35", "city": "Quinquegua", "lon": "-72"}, {"lat": "-36.283333", "city": "Quirihue", "lon": "-72.533333"}, {"lat": "-36.833333", "city": "Quiriquina", "lon": "-72.1"}, {"lat": "-36.716667", "city": "Quitrico", "lon": "-72.45"}, {"lat": "-36.616667", "city": "Rafael", "lon": "-72.766667"}, {"lat": "-37.3", "city": "Ramadillas", "lon": "-73.266667"}, {"lat": "-36.65", "city": "Ranquil", "lon": "-72.55"}, {"lat": "-37.4", "city": "Rarinco", "lon": "-72.6"}, {"lat": "-36.8", "city": "Recinto", "lon": "-71.733333"}, {"lat": "-36.95", "city": "Relbun", "lon": "-72.283333"}, {"lat": "-37.2", "city": "Renico", "lon": "-71.916667"}, {"lat": "-37.133333", "city": "Rere", "lon": "-72.716667"}, {"lat": "-36.816667", "city": "Rinconada", "lon": "-72.55"}, {"lat": "-36.316667", "city": "Rincon", "lon": "-72.4"}, {"lat": "-37.2", "city": "Rio Claro", "lon": "-72.616667"}, {"lat": "-36.666667", "city": "Rucapequen", "lon": "-72.283333"}, {"lat": "-37.233333", "city": "Rumena", "lon": "-73.6"}, {"lat": "-36.55", "city": "Rupanco", "lon": "-72.1"}, {"lat": "-36.833333", "city": "San Antonio", "lon": "-72.033333"}, {"lat": "-37.583333", "city": "San Carlos de Puren", "lon": "-72.283333"}, {"lat": "-36.416667", "city": "San Carlos", "lon": "-71.966667"}, {"lat": "-36.55", "city": "San Fabian de Alico", "lon": "-71.55"}, {"lat": "-36.283333", "city": "San Gregorio", "lon": "-71.816667"}, {"lat": "-36.8", "city": "San Ignacio", "lon": "-72.033333"}, {"lat": "-36.916667", "city": "San Isidro", "lon": "-72.016667"}, {"lat": "-36.816667", "city": "San Javier", "lon": "-72.2"}, {"lat": "-37.366667", "city": "San Jose", "lon": "-73.333333"}, {"lat": "-36.4", "city": "San Juan", "lon": "-72.5"}, {"lat": "-36.366667", "city": "San Miguel de Buli", "lon": "-71.766667"}, {"lat": "-36.816667", "city": "San Miguel", "lon": "-71.966667"}, {"lat": "-36.5", "city": "San Nicolas", "lon": "-72.216667"}, {"lat": "-36.933333", "city": "San Pedro", "lon": "-72.316667"}, {"lat": "-36.716667", "city": "San Ramon", "lon": "-72.516667"}, {"lat": "-37.266667", "city": "San Rosendo", "lon": "-72.716667"}, {"lat": "-36.683333", "city": "Santa Ana", "lon": "-72.516667"}, {"lat": "-37.666667", "city": "Santa Barbara", "lon": "-72.016667"}, {"lat": "-36.816667", "city": "Santa Clara", "lon": "-72.333333"}, {"lat": "-36.266667", "city": "Santa Cruz", "lon": "-72.55"}, {"lat": "-37.45", "city": "Santa Fe", "lon": "-72.583333"}, {"lat": "-36.933333", "city": "Santa Filomena", "lon": "-71.983333"}, {"lat": "-37.166667", "city": "Santa Juana", "lon": "-72.933333"}, {"lat": "-36.416667", "city": "Santa Rosa", "lon": "-72.55"}, {"lat": "-36.716667", "city": "San Vicente", "lon": "-73.133333"}, {"lat": "-36.216667", "city": "Taimo", "lon": "-72.616667"}, {"lat": "-36.716667", "city": "Talcahuano", "lon": "-73.116667"}, {"lat": "-36.083333", "city": "Talcamavida", "lon": "-72.75"}, {"lat": "-36.883333", "city": "Talcamo", "lon": "-72.566667"}, {"lat": "-36.6", "city": "Talquipen", "lon": "-71.916667"}, {"lat": "-36.25", "city": "Tamenelo", "lon": "-72.816667"}, {"lat": "-36.7", "city": "Tanilvoro", "lon": "-71.85"}, {"lat": "-37.666667", "city": "Temuco", "lon": "-73.383333"}, {"lat": "-38.333333", "city": "Tirua", "lon": "-73.5"}, {"lat": "-36.366667", "city": "Tiuquilemo", "lon": "-71.883333"}, {"lat": "-36.066667", "city": "Tiuquilemu", "lon": "-72.783333"}, {"lat": "-37.816667", "city": "Toldos", "lon": "-73.133333"}, {"lat": "-36.983333", "city": "Tomeco", "lon": "-72.616667"}, {"lat": "-36.616667", "city": "Tome", "lon": "-72.95"}, {"lat": "-36.35", "city": "Torrecilla", "lon": "-72.333333"}, {"lat": "-37.733333", "city": "Trapatrapa", "lon": "-71.216667"}, {"lat": "-36.433333", "city": "Treguaco", "lon": "-72.666667"}, {"lat": "-36.45", "city": "Tres Esquinas", "lon": "-71.783333"}, {"lat": "-37.65", "city": "Tres Pinos", "lon": "-73.416667"}, {"lat": "-36.816667", "city": "Tricao", "lon": "-72.016667"}, {"lat": "-36.883333", "city": "Trilaleo", "lon": "-71.95"}, {"lat": "-36.216667", "city": "Troya", "lon": "-72.3"}, {"lat": "-37.266667", "city": "Trupan", "lon": "-71.833333"}, {"lat": "-36.783333", "city": "Tucapel", "lon": "-73.016667"}, {"lat": "-37.216667", "city": "Turquia", "lon": "-72.666667"}, {"lat": "-37.116667", "city": "Unihue", "lon": "-72.916667"}, {"lat": "-36.4", "city": "Vegas de Itata", "lon": "-72.85"}, {"lat": "-38.116667", "city": "Villucura", "lon": "-71.433333"}, {"lat": "-36.25", "city": "Vilquico", "lon": "-72.266667"}, {"lat": "-36.616667", "city": "Vista Bella", "lon": "-72.3"}, {"lat": "-37.083333", "city": "Yumbel", "lon": "-72.566667"}, {"lat": "-37.116667", "city": "Yungay", "lon": "-72.016667"}, {"lat": "-36.883333", "city": "Zarzal", "lon": "-71.966667"}, {"lat": "-36.233333", "city": "Zorzal Blanco", "lon": "-72.55"}], "14": [{"lat": "-41.397726", "city": "Abtao", "lon": "-72.917405"}, {"lat": "-42.463889", "city": "Achao", "lon": "-73.520833"}, {"lat": "-42.463889", "city": "Achau", "lon": "-73.520833"}, {"lat": "-42.748611", "city": "Agoni", "lon": "-73.5875"}, {"lat": "-40.583333", "city": "Agua Buena", "lon": "-72.916667"}, {"lat": "-43.021944", "city": "Agua Fria", "lon": "-73.610556"}, {"lat": "-42.515833", "city": "Aguantao", "lon": "-73.589722"}, {"lat": "-42.087222", "city": "Aguas Buenas", "lon": "-73.623056"}, {"lat": "-41.783333", "city": "Ahinco", "lon": "-73.516667"}, {"lat": "-42.748611", "city": "Ahoni", "lon": "-73.5875"}, {"lat": "-41.783333", "city": "Ainco", "lon": "-73.516667"}, {"lat": "-42.816667", "city": "Aitue", "lon": "-73.483333"}, {"lat": "-42.816667", "city": "Aitui", "lon": "-73.483333"}, {"lat": "-42.816667", "city": "Aituy", "lon": "-73.483333"}, {"lat": "-42.573056", "city": "Alachildu", "lon": "-73.585"}, {"lat": "-42.6", "city": "Alao", "lon": "-73.3"}, {"lat": "-42.573056", "city": "Aldachildo", "lon": "-73.585"}, {"lat": "-42.573056", "city": "Aldachildu", "lon": "-73.585"}, {"lat": "-41.397726", "city": "Alerce", "lon": "-72.917405"}, {"lat": "-42.9625", "city": "Alqui", "lon": "-73.489167"}, {"lat": "-42.191944", "city": "Alto Choen", "lon": "-73.433611"}, {"lat": "-41.4987", "city": "Alto de Qullaipe", "lon": "-72.751002"}, {"lat": "-43.623056", "city": "Alto Palena", "lon": "-71.803889"}, {"lat": "-42.816667", "city": "Altue", "lon": "-73.483333"}, {"lat": "-41.869722", "city": "Ancud", "lon": "-73.820278"}, {"lat": "-40.75", "city": "Antillanca", "lon": "-72.15"}, {"lat": "-42.748611", "city": "Aoni", "lon": "-73.5875"}, {"lat": "-42.816944", "city": "Apeche", "lon": "-73.64"}, {"lat": "-42.583333", "city": "Apiao", "lon": "-73.233333"}, {"lat": "-42.583333", "city": "Apiau", "lon": "-73.233333"}, {"lat": "-42.573056", "city": "Arachildu", "lon": "-73.585"}, {"lat": "-42.573056", "city": "Aradchildu", "lon": "-73.585"}, {"lat": "-41.433333", "city": "Arco", "lon": "-72.05"}, {"lat": "-41.38798", "city": "Arrayan", "lon": "-72.879853"}, {"lat": "-41.382807", "city": "Asentamiento Chepa", "lon": "-72.680673"}, {"lat": "-41.306029", "city": "Asentamiento Cuatro de Septiembre", "lon": "-72.739022"}, {"lat": "-41.32569", "city": "Asentamiento Fundo Rio Pescado", "lon": "-72.769323"}, {"lat": "-42.382778", "city": "Astillero", "lon": "-73.716111"}, {"lat": "-42.151389", "city": "Aucar", "lon": "-73.510556"}, {"lat": "-43.025833", "city": "Auchac", "lon": "-73.533889"}, {"lat": "-42.050556", "city": "Aucho", "lon": "-73.439722"}, {"lat": "-41.783333", "city": "Auco", "lon": "-73.516667"}, {"lat": "-42.3", "city": "Ayacara", "lon": "-72.783333"}, {"lat": "-42.3025", "city": "Ayarara", "lon": "-72.757222"}, {"lat": "-42.816667", "city": "Aytuy", "lon": "-73.483333"}, {"lat": "-40.55", "city": "Bahia Mansa", "lon": "-73.766667"}, {"lat": "-40.55", "city": "Bahia Manza", "lon": "-73.766667"}, {"lat": "-41.8", "city": "Bahia Pargua", "lon": "-73.433333"}, {"lat": "-42.027222", "city": "Belben", "lon": "-73.716111"}, {"lat": "-40.416667", "city": "Bellavista", "lon": "-73.233333"}, {"lat": "-42.4", "city": "Bill", "lon": "-72.733333"}, {"lat": "-42.4", "city": "Buill", "lon": "-72.733333"}, {"lat": "-42.222222", "city": "Butalcura", "lon": "-73.745833"}, {"lat": "-42.516667", "city": "Cabach", "lon": "-73.283333"}, {"lat": "-42.516667", "city": "Caguache", "lon": "-73.283333"}, {"lat": "-42.516667", "city": "Caguachi", "lon": "-73.283333"}, {"lat": "-41.499104", "city": "Cahuelmo", "lon": "-72.80619"}, {"lat": "-41.883333", "city": "Caipulli", "lon": "-73.75"}, {"lat": "-41.700261", "city": "Cajon", "lon": "-72.540503"}, {"lat": "-41.364126", "city": "Calabozo", "lon": "-73.136371"}, {"lat": "-41.768011", "city": "Calbuco", "lon": "-73.127296"}, {"lat": "-42.31", "city": "Calen", "lon": "-73.459722"}, {"lat": "-41.752052", "city": "Caleta Chaparano", "lon": "-72.556051"}, {"lat": "-40.55", "city": "Caleta Mansa", "lon": "-73.766667"}, {"lat": "-41.999967", "city": "Caleta Manzano", "lon": "-72.626249"}, {"lat": "-43.683333", "city": "California", "lon": "-71.716667"}, {"lat": "-42.498889", "city": "Canab", "lon": "-73.491667"}, {"lat": "-42.569167", "city": "Canan", "lon": "-73.826111"}, {"lat": "-40.75", "city": "Cancura", "lon": "-72.983333"}, {"lat": "-43.067778", "city": "Candelaria", "lon": "-73.561667"}, {"lat": "-42.6", "city": "Capilla Alau", "lon": "-73.3"}, {"lat": "-42.416667", "city": "Capilla Antigua", "lon": "-73.316667"}, {"lat": "-42.608889", "city": "Capilla Ichoac", "lon": "-73.6975"}, {"lat": "-42.433333", "city": "Capilla-Llingua", "lon": "-73.466667"}, {"lat": "-42.633333", "city": "Capilla Nueva", "lon": "-73.3"}, {"lat": "-42.698889", "city": "Capilla Terau", "lon": "-73.675833"}, {"lat": "-42.633333", "city": "Capilla Vieja", "lon": "-73.283333"}, {"lat": "-43.013333", "city": "Carahue", "lon": "-73.565556"}, {"lat": "-41.450491", "city": "Cardonal", "lon": "-73.012426"}, {"lat": "-41.749722", "city": "Carelmapu", "lon": "-73.708333"}, {"lat": "-41.749722", "city": "Caremalpu", "lon": "-73.708333"}, {"lat": "-42.312222", "city": "Carihueico", "lon": "-73.761389"}, {"lat": "-40.666667", "city": "Casa de Lata", "lon": "-73.2"}, {"lat": "-42.548611", "city": "Casa de Pesca", "lon": "-72.8175"}, {"lat": "-41.05", "city": "Casa Pangue", "lon": "-71.866667"}, {"lat": "-42.025833", "city": "Casas Viejas", "lon": "-73.870556"}, {"lat": "-41.981369", "city": "Cascajal", "lon": "-72.51199"}, {"lat": "-43.025833", "city": "Caserio Auchao", "lon": "-73.533889"}, {"lat": "-43.025833", "city": "Caserio de Auchac", "lon": "-73.533889"}, {"lat": "-41.008225", "city": "Casma", "lon": "-73.124424"}, {"lat": "-42.463611", "city": "Castro", "lon": "-73.808333"}, {"lat": "-43.033333", "city": "Caudelaria", "lon": "-73.566667"}, {"lat": "-41.6", "city": "Cebadal", "lon": "-73.5"}, {"lat": "-42.969167", "city": "Centinela", "lon": "-73.391667"}, {"lat": "-43.678889", "city": "Cerros Las Juntas", "lon": "-71.810833"}, {"lat": "-41.833333", "city": "Chacao", "lon": "-73.533333"}, {"lat": "-41.833333", "city": "Chacao Viejo", "lon": "-73.5"}, {"lat": "-42.416667", "city": "Chacra", "lon": "-73.866667"}, {"lat": "-42.942778", "city": "Chadmo", "lon": "-73.633889"}, {"lat": "-41.833463", "city": "Chagual", "lon": "-72.779164"}, {"lat": "-43.0625", "city": "Chaiguao", "lon": "-73.507778"}, {"lat": "-42.898611", "city": "Chaiten", "lon": "-72.666667"}, {"lat": "-41.46852", "city": "Chamiza", "lon": "-72.842359"}, {"lat": "-42.734444", "city": "Chana", "lon": "-72.814167"}, {"lat": "-42.601111", "city": "Chanquin", "lon": "-74.104167"}, {"lat": "-41.752052", "city": "Chaparano", "lon": "-72.556051"}, {"lat": "-41.752052", "city": "Chaparramo", "lon": "-72.556051"}, {"lat": "-42.239722", "city": "Charahue", "lon": "-73.361667"}, {"lat": "-42.239722", "city": "Chaucahue", "lon": "-73.361667"}, {"lat": "-41.968457", "city": "Chauchil", "lon": "-72.796944"}, {"lat": "-41.596442", "city": "Chaula", "lon": "-72.694897"}, {"lat": "-42.621111", "city": "Chaulinec", "lon": "-73.329444"}, {"lat": "-42.239722", "city": "Chaurahue", "lon": "-73.361667"}, {"lat": "-42.585278", "city": "Chelin", "lon": "-73.517778"}, {"lat": "-41.996366", "city": "Cheniu", "lon": "-72.730119"}, {"lat": "-42.036389", "city": "Chepu", "lon": "-73.965833"}, {"lat": "-41.417242", "city": "Chinchin", "lon": "-72.956524"}, {"lat": "-41.417242", "city": "Chinchin Grande", "lon": "-72.956524"}, {"lat": "-41.516667", "city": "Chinquio", "lon": "-73.05"}, {"lat": "-42.191944", "city": "Chohen", "lon": "-73.433611"}, {"lat": "-42.612778", "city": "Chonch", "lon": "-73.809167"}, {"lat": "-42.612778", "city": "Chonchi", "lon": "-73.809167"}, {"lat": "-42.608889", "city": "Chuac", "lon": "-73.6975"}, {"lat": "-41.85", "city": "Chucalen", "lon": "-74"}, {"lat": "-42.633333", "city": "Chulchui", "lon": "-73.733333"}, {"lat": "-42.633333", "city": "Chulchuy", "lon": "-73.733333"}, {"lat": "-42.493889", "city": "Chumelden", "lon": "-72.785278"}, {"lat": "-42.493889", "city": "Chumilden", "lon": "-72.785278"}, {"lat": "-41.469848", "city": "Ciudad de Puerto Montt", "lon": "-72.944745"}, {"lat": "-41.5", "city": "Cochamo", "lon": "-72.316667"}, {"lat": "-41.961389", "city": "Cogamo", "lon": "-73.764444"}, {"lat": "-41.961389", "city": "Cogomo", "lon": "-73.764444"}, {"lat": "-41.483784", "city": "Coihuin", "lon": "-72.855709"}, {"lat": "-42.012222", "city": "Coipamo", "lon": "-73.893889"}, {"lat": "-41.783333", "city": "Colaco", "lon": "-73.383333"}, {"lat": "-41.267979", "city": "Colegual Chico", "lon": "-73.111359"}, {"lat": "-41.219794", "city": "Colegual", "lon": "-73.223291"}, {"lat": "-41.370342", "city": "Colegual del Salto", "lon": "-73.141852"}, {"lat": "-41.370342", "city": "Coligual", "lon": "-73.141852"}, {"lat": "-41.370342", "city": "Coligual del Salto", "lon": "-73.141852"}, {"lat": "-41.38798", "city": "Colonia Alerce", "lon": "-72.879853"}, {"lat": "-42.0225", "city": "Colonia Degan", "lon": "-73.622222"}, {"lat": "-41.479961", "city": "Colonia El Gato", "lon": "-73.205401"}, {"lat": "-41.454527", "city": "Colonia La Paloma", "lon": "-72.887683"}, {"lat": "-41.357763", "city": "Colonia Las Marcas", "lon": "-72.781875"}, {"lat": "-41.277079", "city": "Colonia Loncotoro", "lon": "-73.185342"}, {"lat": "-41.363298", "city": "Colonia Metrenquen", "lon": "-72.81469"}, {"lat": "-41.316667", "city": "Colonia Rio Sur", "lon": "-72.716667"}, {"lat": "-42.966111", "city": "Colonia Yungay", "lon": "-73.727222"}, {"lat": "-42.244722", "city": "Colu", "lon": "-73.390833"}, {"lat": "-42.865833", "city": "Compu", "lon": "-73.719167"}, {"lat": "-42.498889", "city": "Conab", "lon": "-73.491667"}, {"lat": "-42.498889", "city": "Conac", "lon": "-73.491667"}, {"lat": "-42.498889", "city": "Conao", "lon": "-73.491667"}, {"lat": "-42.483333", "city": "Conico", "lon": "-73.666667"}, {"lat": "-41.796458", "city": "Contao", "lon": "-72.714101"}, {"lat": "-42.812222", "city": "Contuy", "lon": "-73.585"}, {"lat": "-41.976667", "city": "Coquiao", "lon": "-73.837222"}, {"lat": "-43.013333", "city": "Corahue", "lon": "-73.565556"}, {"lat": "-42.5", "city": "Correntada del Toro", "lon": "-72.25"}, {"lat": "-41.452336", "city": "Correntoso", "lon": "-72.658568"}, {"lat": "-40.95", "city": "Corte Alto", "lon": "-73.166667"}, {"lat": "-40.9", "city": "Crucero", "lon": "-73.316667"}, {"lat": "-42.633056", "city": "Cucao", "lon": "-74.106944"}, {"lat": "-41.516667", "city": "Cululil", "lon": "-73.633333"}, {"lat": "-41.433333", "city": "Cululir", "lon": "-72.283333"}, {"lat": "-41.8", "city": "Cunco", "lon": "-73.383333"}, {"lat": "-42.434167", "city": "Curaco", "lon": "-73.581944"}, {"lat": "-42.4", "city": "Curaco de Linlin", "lon": "-73.433333"}, {"lat": "-42.434167", "city": "Curaco de Velez", "lon": "-73.581944"}, {"lat": "-42.590278", "city": "Curaco de Vilupulli", "lon": "-73.871389"}, {"lat": "-43.013333", "city": "Curahue", "lon": "-73.565556"}, {"lat": "-42.362778", "city": "Dalcahue", "lon": "-73.702222"}, {"lat": "-41.765724", "city": "Dao", "lon": "-73.246279"}, {"lat": "-42.86", "city": "Detico", "lon": "-73.517222"}, {"lat": "-42.688889", "city": "Detif", "lon": "-73.564167"}, {"lat": "-41.978333", "city": "Duhatao", "lon": "-74.021389"}, {"lat": "-43.581111", "city": "El Aceite", "lon": "-71.837778"}, {"lat": "-41.433333", "city": "El Arco", "lon": "-72.05"}, {"lat": "-42.4", "city": "El Astillero", "lon": "-73.683333"}, {"lat": "-43.745833", "city": "El Azul", "lon": "-71.8475"}, {"lat": "-41.833333", "city": "El Banco", "lon": "-74"}, {"lat": "-41.666667", "city": "El Bosque", "lon": "-73.316667"}, {"lat": "-41.459483", "city": "El Cardonal", "lon": "-72.992328"}, {"lat": "-41.516667", "city": "El Culubil", "lon": "-73.633333"}, {"lat": "-41.516667", "city": "El Cululil", "lon": "-73.633333"}, {"lat": "-41.765724", "city": "El Dao", "lon": "-73.246279"}, {"lat": "-43.571111", "city": "El Diablo", "lon": "-72.119167"}, {"lat": "-43.686944", "city": "El Engano", "lon": "-72.199722"}, {"lat": "-41.986368", "city": "El Estero", "lon": "-72.668857"}, {"lat": "-42.016667", "city": "El Estero Hualaihue", "lon": "-72.683333"}, {"lat": "-41.458202", "city": "El Gato", "lon": "-73.24201"}, {"lat": "-43.709722", "city": "El Maiten", "lon": "-72.139722"}, {"lat": "-43.607778", "city": "El Malito", "lon": "-71.985833"}, {"lat": "-40.283333", "city": "El Manzanito", "lon": "-73.633333"}, {"lat": "-40.283333", "city": "El Manzano", "lon": "-73.633333"}, {"lat": "-41.30302", "city": "El Mechai", "lon": "-73.170546"}, {"lat": "-41.03514", "city": "El Mirador", "lon": "-73.24827"}, {"lat": "-43.339444", "city": "El Morado", "lon": "-72.401389"}, {"lat": "-42.059167", "city": "El Palomar", "lon": "-73.761944"}, {"lat": "-43.537222", "city": "El Porfiado", "lon": "-72.035278"}, {"lat": "-43.757222", "city": "El Porvenir", "lon": "-71.851111"}, {"lat": "-42.7575", "city": "El Pulpito", "lon": "-73.790556"}, {"lat": "-41.483333", "city": "El Salto Chico", "lon": "-73.316667"}, {"lat": "-41.483333", "city": "El Salto", "lon": "-73.316667"}, {"lat": "-43.650833", "city": "El Tranquilo", "lon": "-72.001667"}, {"lat": "-41.524321", "city": "El Trapen", "lon": "-73.120416"}, {"lat": "-41.968647", "city": "El Varal", "lon": "-72.651019"}, {"lat": "-41.206568", "city": "Ensenada", "lon": "-72.537779"}, {"lat": "-41.917052", "city": "Ensenada Rolecha", "lon": "-72.839721"}, {"lat": "-42.151389", "city": "Escuela Aucar", "lon": "-73.510556"}, {"lat": "-41.216667", "city": "Estacion Parga", "lon": "-73.5"}, {"lat": "-41.3", "city": "Estacion Rio Frio", "lon": "-73.466667"}, {"lat": "-42.942778", "city": "Estero Chadmo", "lon": "-73.633889"}, {"lat": "-41.064955", "city": "Estero del Medio", "lon": "-73.246481"}, {"lat": "-42.550833", "city": "Estero Lago", "lon": "-72.478889"}, {"lat": "-41.566667", "city": "Factoria", "lon": "-72.366667"}, {"lat": "-42.916667", "city": "Fanqui", "lon": "-73.533333"}, {"lat": "-41.15", "city": "Fresia", "lon": "-73.45"}, {"lat": "-41.120472", "city": "Frutillar Alto", "lon": "-73.058614"}, {"lat": "-41.135451", "city": "Frutillar Bajo", "lon": "-73.028236"}, {"lat": "-41.120472", "city": "Frutillar", "lon": "-73.058614"}, {"lat": "-43.1675", "city": "Futalelfu", "lon": "-71.848333"}, {"lat": "-43.1675", "city": "Futaleufu", "lon": "-71.848333"}, {"lat": "-42.473333", "city": "Gamboa", "lon": "-73.803333"}, {"lat": "-43.333333", "city": "Gessel", "lon": "-72.233333"}, {"lat": "-41.816667", "city": "Guabun", "lon": "-74.05"}, {"lat": "-41.990602", "city": "Gualaihue", "lon": "-72.693078"}, {"lat": "-42.016667", "city": "Gualaihuen", "lon": "-72.683333"}, {"lat": "-41.816667", "city": "Gualbun", "lon": "-74.05"}, {"lat": "-40.933333", "city": "Guayusca", "lon": "-73.9"}, {"lat": "-42.466667", "city": "Guenac", "lon": "-73.333333"}, {"lat": "-40.933333", "city": "Gueyusca", "lon": "-73.9"}, {"lat": "-42.667778", "city": "Guillinco", "lon": "-73.873611"}, {"lat": "-42.465278", "city": "Guilquico", "lon": "-73.696667"}, {"lat": "-42.016667", "city": "Hualaihue", "lon": "-72.683333"}, {"lat": "-41.5", "city": "Huantrunes", "lon": "-73.5"}, {"lat": "-42.551389", "city": "Huechochelin", "lon": "-73.513333"}, {"lat": "-42.448056", "city": "Huenao", "lon": "-73.629167"}, {"lat": "-42.533333", "city": "Huentemo", "lon": "-74.183333"}, {"lat": "-42.241111", "city": "Huequi", "lon": "-72.712222"}, {"lat": "-40.916667", "city": "Hueyusca", "lon": "-73.633333"}, {"lat": "-42.644444", "city": "Huicha", "lon": "-73.7575"}, {"lat": "-43.033333", "city": "Huildad", "lon": "-73.566667"}, {"lat": "-41.883333", "city": "Huillinco", "lon": "-73.666667"}, {"lat": "-42.616667", "city": "Huillo", "lon": "-73.516667"}, {"lat": "-41.960556", "city": "Huilqueco", "lon": "-73.641667"}, {"lat": "-42.466667", "city": "Huilque", "lon": "-73.35"}, {"lat": "-42.090278", "city": "Huite", "lon": "-73.446111"}, {"lat": "-40.35", "city": "Huitrapulli", "lon": "-73.716667"}, {"lat": "-43.033333", "city": "Huudad", "lon": "-73.566667"}, {"lat": "-42.392222", "city": "Huyar", "lon": "-73.581111"}, {"lat": "-42.608889", "city": "Ichuac", "lon": "-73.6975"}, {"lat": "-41.616667", "city": "Ilque", "lon": "-73.1"}, {"lat": "-42.608889", "city": "Inchuac", "lon": "-73.6975"}, {"lat": "-42.516667", "city": "Isla Caguache", "lon": "-73.283333"}, {"lat": "-42", "city": "Isla Pelada", "lon": "-72.5"}, {"lat": "-41.683333", "city": "La Arena", "lon": "-72.633333"}, {"lat": "-40.233333", "city": "La Barra", "lon": "-73.716667"}, {"lat": "-43.398889", "city": "La Cabana", "lon": "-72.296111"}, {"lat": "-42.416667", "city": "La Chacra", "lon": "-73.866667"}, {"lat": "-41.46852", "city": "La Chamiza", "lon": "-72.842359"}, {"lat": "-41.383333", "city": "Ladrillos", "lon": "-72.3"}, {"lat": "-41.206568", "city": "La Ensenada", "lon": "-72.537779"}, {"lat": "-43.558889", "city": "La Esperanza", "lon": "-72.130278"}, {"lat": "-42.530278", "city": "La Estancia", "lon": "-73.721667"}, {"lat": "-41.431508", "city": "Lago Chapo", "lon": "-72.575307"}, {"lat": "-41.4417", "city": "Lagunitas", "lon": "-73.031494"}, {"lat": "-42.433333", "city": "Lalin", "lon": "-73.333333"}, {"lat": "-40.516667", "city": "La Mision de San Juan de le Costa", "lon": "-73.4"}, {"lat": "-43.687778", "city": "La Mula", "lon": "-72.101389"}, {"lat": "-41.960556", "city": "Lapahue", "lon": "-73.641667"}, {"lat": "-41.451859", "city": "La Paloma", "lon": "-72.912888"}, {"lat": "-41.6", "city": "La Pasada", "lon": "-73.616667"}, {"lat": "-41.251596", "city": "La Piedra", "lon": "-73.080776"},