{"CM": {"11": [{"lat": "4.1333333", "city": "Ababa", "lon": "12.4333333"}, {"lat": "3.7666667", "city": "Abam", "lon": "11.7833333"}, {"lat": "3.8333333", "city": "Abanga", "lon": "11.8"}, {"lat": "3.3833333", "city": "Abang", "lon": "11.1166667"}, {"lat": "3.6333333", "city": "Abang I", "lon": "11.5"}, {"lat": "3.5833333", "city": "Abang II", "lon": "11.2833333"}, {"lat": "3.45", "city": "Abang Mindi", "lon": "11.3833333"}, {"lat": "4.3166667", "city": "Abangnang", "lon": "11.3166667"}, {"lat": "4.2833333", "city": "Abel", "lon": "11.4166667"}, {"lat": "3.7", "city": "Abem", "lon": "12.3"}, {"lat": "3.6833333", "city": "Abemb\u00e9 I", "lon": "11.6666667"}, {"lat": "3.7166667", "city": "Abemb\u00e9 II", "lon": "11.6833333"}, {"lat": "3.6833333", "city": "Abenedima's", "lon": "11.6833333"}, {"lat": "3.6833333", "city": "Abili", "lon": "11.4666667"}, {"lat": "3.5666667", "city": "Abimoa", "lon": "11.6166667"}, {"lat": "3.8833333", "city": "Abom", "lon": "11.5833333"}, {"lat": "3.85", "city": "Abombo", "lon": "11.7166667"}, {"lat": "4.0666667", "city": "Abondo", "lon": "11.6166667"}, {"lat": "4.1166667", "city": "Abono", "lon": "11.4333333"}, {"lat": "3.8666667", "city": "Abou\u00e9", "lon": "12.4166667"}, {"lat": "5.4333333", "city": "Adia", "lon": "12.5833333"}, {"lat": "3.9833333", "city": "Adjap", "lon": "11.2333333"}, {"lat": "5.4333333", "city": "Adjia", "lon": "12.5833333"}, {"lat": "3.6166667", "city": "Adoum", "lon": "11.7666667"}, {"lat": "3.6666667", "city": "Adzabilon", "lon": "11.7"}, {"lat": "3.3333333", "city": "Adzap", "lon": "11.2166667"}, {"lat": "3.9", "city": "Adzenzoumou", "lon": "11.8666667"}, {"lat": "4.1666667", "city": "Afamv\u00e9", "lon": "11.6666667"}, {"lat": "3.8666667", "city": "Afan", "lon": "11.65"}, {"lat": "4.1833333", "city": "Afan\u00e9s\u00e9l\u00e9", "lon": "11.6"}, {"lat": "4.1666667", "city": "Afan\u00e9tabini", "lon": "11.7"}, {"lat": "4.0833333", "city": "Afan\u00e9touana", "lon": "11.7333333"}, {"lat": "4.7333333", "city": "Afanoveng", "lon": "12.8333333"}, {"lat": "3.7666667", "city": "Afanoya", "lon": "11.4833333"}, {"lat": "3.6333333", "city": "Afem", "lon": "12.3333333"}, {"lat": "4.1666667", "city": "Agong", "lon": "12.2333333"}, {"lat": "3.8", "city": "Ahala", "lon": "11.4833333"}, {"lat": "3.9", "city": "Ajos", "lon": "12.5166667"}, {"lat": "3.3833333", "city": "Akak", "lon": "11.3333333"}, {"lat": "3.9833333", "city": "Akak I", "lon": "11.55"}, {"lat": "3.9", "city": "Akak II", "lon": "11.6166667"}, {"lat": "3.9", "city": "Ak\u00e9k\u00e9la", "lon": "11.8333333"}, {"lat": "3.7666667", "city": "Akoassi", "lon": "11.75"}, {"lat": "3.8666667", "city": "Akok", "lon": "11.6333333"}, {"lat": "3.4666667", "city": "Akok Biko\u00e9", "lon": "11.4"}, {"lat": "3.8833333", "city": "Akok Maka", "lon": "12.5666667"}, {"lat": "3.8833333", "city": "Akok Y\u00e9b\u00e9kolo", "lon": "12.5833333"}, {"lat": "3.8333333", "city": "Akolo", "lon": "12.1833333"}, {"lat": "3.75", "city": "Akom", "lon": "11.7166667"}, {"lat": "3.4666667", "city": "Akom\u00e9tam", "lon": "11.5666667"}, {"lat": "3.9833333", "city": "Akomkada", "lon": "11.9833333"}, {"lat": "3.5333333", "city": "Akomnyada I", "lon": "11.55"}, {"lat": "3.55", "city": "Akomnyada II", "lon": "11.55"}, {"lat": "3.7666667", "city": "Akomolinga", "lon": "12.25"}, {"lat": "3.9833333", "city": "Akondo", "lon": "11.9333333"}, {"lat": "4.2", "city": "Akondok", "lon": "11.7333333"}, {"lat": "3.3833333", "city": "Akongo", "lon": "11.0833333"}, {"lat": "3.4", "city": "Akongo III", "lon": "11.1166667"}, {"lat": "3.5", "city": "Akono", "lon": "11.3333333"}, {"lat": "3.7666667", "city": "Akonolinga", "lon": "12.25"}, {"lat": "4.2833333", "city": "Akossa", "lon": "12.9166667"}, {"lat": "3.6", "city": "Akoua", "lon": "12.0666667"}, {"lat": "3.8333333", "city": "Akoumbou", "lon": "11.6666667"}, {"lat": "3.8833333", "city": "Akounou I", "lon": "11.7"}, {"lat": "4.35", "city": "Akouta", "lon": "12.45"}, {"lat": "4.1166667", "city": "Akpak", "lon": "11.9666667"}, {"lat": "4.1666667", "city": "Alangana", "lon": "12.45"}, {"lat": "3.6", "city": "Alen", "lon": "11.4333333"}, {"lat": "4.2333333", "city": "Amak", "lon": "12.0666667"}, {"lat": "4.9333333", "city": "Ambane", "lon": "12.9"}, {"lat": "5.7666667", "city": "Ancien Sengb\u00e9", "lon": "13.0666667"}, {"lat": "3.3666667", "city": "Andok", "lon": "11.3666667"}, {"lat": "3.7166667", "city": "Andom", "lon": "12.15"}, {"lat": "3.8333333", "city": "Angala", "lon": "11.3166667"}, {"lat": "3.75", "city": "Angon", "lon": "11.35"}, {"lat": "3.4166667", "city": "Angonf\u00e9m\u00e9", "lon": "11.1333333"}, {"lat": "3.7833333", "city": "Angongo", "lon": "11.3"}, {"lat": "4.3333333", "city": "Angonowo", "lon": "12.3"}, {"lat": "3.8666667", "city": "Anyougoum", "lon": "11.6833333"}, {"lat": "4.6166667", "city": "Asala I", "lon": "11.1833333"}, {"lat": "4.6166667", "city": "Asala II", "lon": "11.2333333"}, {"lat": "3.5833333", "city": "Asanzoa", "lon": "11.55"}, {"lat": "3.35", "city": "Asi\u00e9", "lon": "11.3"}, {"lat": "3.4", "city": "Asok", "lon": "11.25"}, {"lat": "3.6333333", "city": "Asombo", "lon": "11.7333333"}, {"lat": "4.8833333", "city": "Assek", "lon": "12.9"}, {"lat": "3.7833333", "city": "Asseng", "lon": "12.4"}, {"lat": "3.6833333", "city": "At\u00e9ga", "lon": "11.9166667"}, {"lat": "4.2833333", "city": "Atoa", "lon": "12.6666667"}, {"lat": "3.7666667", "city": "Atoasi", "lon": "11.7166667"}, {"lat": "3.3833333", "city": "Atokzok", "lon": "11.6333333"}, {"lat": "4.0666667", "city": "Atong", "lon": "12.4666667"}, {"lat": "3.9833333", "city": "Atout", "lon": "12.4166667"}, {"lat": "4.6333333", "city": "Avangane", "lon": "12.25"}, {"lat": "3.35", "city": "Av\u00e9b\u00e9", "lon": "11.5"}, {"lat": "4.2666667", "city": "Avo", "lon": "11.2333333"}, {"lat": "4.0", "city": "Awa", "lon": "12.5833333"}, {"lat": "3.5833333", "city": "Awa\u00e9", "lon": "11.6"}, {"lat": "3.8333333", "city": "Awa\u00e9 I", "lon": "11.55"}, {"lat": "4.1166667", "city": "Awout", "lon": "12.3333333"}, {"lat": "3.6", "city": "Ayan", "lon": "11.85"}, {"lat": "5.35", "city": "Ayem", "lon": "12.4166667"}, {"lat": "3.2666667", "city": "Ay\u00e9n\u00e9", "lon": "11.1166667"}, {"lat": "3.8333333", "city": "Ayos", "lon": "11.85"}, {"lat": "4.2833333", "city": "Azonkout", "lon": "12.8666667"}, {"lat": "4.6", "city": "Babimbi III", "lon": "10.8"}, {"lat": "4.5", "city": "Babout\u00e9", "lon": "12.2"}, {"lat": "4.5", "city": "Babute", "lon": "12.2"}, {"lat": "4.6333333", "city": "Badisa", "lon": "11.3666667"}, {"lat": "3.6166667", "city": "Badjab", "lon": "12.2166667"}, {"lat": "3.6833333", "city": "Badjob", "lon": "10.6833333"}, {"lat": "4.3666667", "city": "Badoum\u00e9", "lon": "12.9833333"}, {"lat": "4.5", "city": "Badoume II", "lon": "12.9333333"}, {"lat": "3.6833333", "city": "Badyob", "lon": "10.6833333"}, {"lat": "4.75", "city": "Bafia", "lon": "11.2333333"}, {"lat": "4.75", "city": "Bafia Ngitakuba", "lon": "11.2333333"}, {"lat": "4.5666667", "city": "Bakoa", "lon": "11.1666667"}, {"lat": "3.5333333", "city": "Bakoukou\u00e9", "lon": "11.15"}, {"lat": "4.4333333", "city": "Balamba", "lon": "11.2333333"}, {"lat": "4.9166667", "city": "Balam", "lon": "10.7666667"}, {"lat": "4.6", "city": "Baliama", "lon": "11.3166667"}, {"lat": "4.5166667", "city": "Bam\u00e9lap", "lon": "12.95"}, {"lat": "4.8666667", "city": "Bamoko", "lon": "11.0833333"}, {"lat": "4.8833333", "city": "Bamoun I", "lon": "10.8"}, {"lat": "3.9666667", "city": "Banda", "lon": "11.6"}, {"lat": "5.4", "city": "Bangang", "lon": "12.1333333"}, {"lat": "3.75", "city": "Bangsombi", "lon": "10.7"}, {"lat": "4.6333333", "city": "Baningoang", "lon": "11.2833333"}, {"lat": "4.9166667", "city": "Bantoum", "lon": "10.7666667"}, {"lat": "4.9166667", "city": "Bantoum I", "lon": "10.7666667"}, {"lat": "4.4833333", "city": "Basolo", "lon": "11.2166667"}, {"lat": "4.4", "city": "Batanga", "lon": "11.0166667"}, {"lat": "4.2833333", "city": "Batchenga", "lon": "11.65"}, {"lat": "5.1166667", "city": "Batoua", "lon": "12.45"}, {"lat": "4.2833333", "city": "Batschenga", "lon": "11.65"}, {"lat": "4.8666667", "city": "Bayomen", "lon": "11.1"}, {"lat": "4.8666667", "city": "B\u00e9", "lon": "11.15"}, {"lat": "4.0666667", "city": "Befoss", "lon": "12.6"}, {"lat": "4.0666667", "city": "B\u00e9fosse", "lon": "12.6"}, {"lat": "3.8333333", "city": "B\u00e9gel\u00e9", "lon": "11.6666667"}, {"lat": "4.5333333", "city": "B\u00e9gni", "lon": "11.1833333"}, {"lat": "5.9333333", "city": "B\u00e9ka", "lon": "12.2833333"}, {"lat": "3.95", "city": "B\u00e9koudou", "lon": "11.8166667"}, {"lat": "5.85", "city": "B\u00e9l\u00e9 Salo", "lon": "12.7833333"}, {"lat": "3.6333333", "city": "Bemb\u00e9", "lon": "11.9333333"}, {"lat": "3.7166667", "city": "B\u00e9n\u00e9balot", "lon": "11.5666667"}, {"lat": "4.65", "city": "Bep", "lon": "11.1666667"}, {"lat": "4.65", "city": "Berkong", "lon": "12.6"}, {"lat": "4.45", "city": "B\u00e9tamba", "lon": "11.5666667"}, {"lat": "4.65", "city": "Bet\u00e9k\u00e9l\u00e9", "lon": "12.0333333"}, {"lat": "4.55", "city": "Biakoa", "lon": "11.4833333"}, {"lat": "4.6833333", "city": "Biam\u00e9s\u00e9", "lon": "11.1166667"}, {"lat": "4.7666667", "city": "Biamo", "lon": "11.2166667"}, {"lat": "4.55", "city": "Biating\u00e9na", "lon": "11.45"}, {"lat": "4.4166667", "city": "Biatsota I", "lon": "11.6333333"}, {"lat": "4.4333333", "city": "Biatsota II", "lon": "11.6333333"}, {"lat": "3.5666667", "city": "Biba", "lon": "11.9833333"}, {"lat": "4.5", "city": "Bibassa", "lon": "12.5333333"}, {"lat": "3.7166667", "city": "Bib\u00e9", "lon": "11.4"}, {"lat": "4.8666667", "city": "Bibey", "lon": "12.8166667"}, {"lat": "3.8", "city": "Bibi\u00e9", "lon": "11.65"}, {"lat": "4.4333333", "city": "Biboa", "lon": "12.6166667"}, {"lat": "4.4", "city": "Bibote", "lon": "12.0166667"}, {"lat": "4.4666667", "city": "Bidougou", "lon": "12.3833333"}, {"lat": "4.0666667", "city": "Bifoss", "lon": "12.6"}, {"lat": "4.7833333", "city": "Bifoul\u00e9", "lon": "12.0666667"}, {"lat": "4.7833333", "city": "Bifoulo", "lon": "12.0666667"}, {"lat": "4.7166667", "city": "Bigna", "lon": "11.2333333"}, {"lat": "3.8333333", "city": "Bihouya", "lon": "10.7333333"}, {"lat": "4.5666667", "city": "Bika", "lon": "13.0"}, {"lat": "4.5333333", "city": "Bikaga", "lon": "12.4666667"}, {"lat": "4.55", "city": "Bikoada", "lon": "12.2666667"}, {"lat": "3.6333333", "city": "Biko\u00e9 I", "lon": "11.3833333"}, {"lat": "4.15", "city": "Bikogo", "lon": "11.3166667"}, {"lat": "3.6333333", "city": "Bikok", "lon": "11.4333333"}, {"lat": "3.6333333", "city": "Bikolok", "lon": "11.3833333"}, {"lat": "3.55", "city": "Bikomam", "lon": "11.85"}, {"lat": "4.0166667", "city": "Bikong", "lon": "11.7833333"}, {"lat": "4.5833333", "city": "Bikonjok", "lon": "12.0666667"}, {"lat": "3.5166667", "city": "Bikop", "lon": "11.4166667"}, {"lat": "4.0166667", "city": "Bikoto", "lon": "12.1166667"}, {"lat": "4.1166667", "city": "Bikou\u00e9", "lon": "11.9166667"}, {"lat": "3.5", "city": "Bikoukound", "lon": "11.2166667"}, {"lat": "3.5833333", "city": "Bikoum", "lon": "11.9666667"}, {"lat": "5.1333333", "city": "Bikti", "lon": "12.1"}, {"lat": "4.4833333", "city": "Bila", "lon": "13.05"}, {"lat": "3.7333333", "city": "Bilagal", "lon": "10.7333333"}, {"lat": "4.5166667", "city": "Bilanga Komb\u00e9", "lon": "11.6333333"}, {"lat": "4.2", "city": "Bilang\u00e9", "lon": "10.9833333"}, {"lat": "4.5166667", "city": "Bilenga-Komb\u00e9", "lon": "11.6333333"}, {"lat": "3.5166667", "city": "Bilik", "lon": "11.2833333"}, {"lat": "4.2833333", "city": "Bilik Bindik", "lon": "11.3166667"}, {"lat": "3.5166667", "city": "Bilik I", "lon": "11.2833333"}, {"lat": "4.6", "city": "Bilomo", "lon": "11.3666667"}, {"lat": "3.3", "city": "Bilong", "lon": "11.1166667"}, {"lat": "3.4833333", "city": "Bimvia", "lon": "11.3666667"}, {"lat": "4.5", "city": "Bindalima", "lon": "11.6333333"}, {"lat": "4.45", "city": "Bindalima I", "lon": "11.6333333"}, {"lat": "4.5166667", "city": "Bindamongo", "lon": "11.5"}, {"lat": "4.4166667", "city": "Bindanyeng\u00e9", "lon": "11.6333333"}, {"lat": "3.7666667", "city": "Bingela I", "lon": "11.4166667"}, {"lat": "3.7333333", "city": "Bingela II", "lon": "11.3666667"}, {"lat": "3.8", "city": "Bingongok", "lon": "11.15"}, {"lat": "4.2333333", "city": "Binoum", "lon": "11.0333333"}, {"lat": "5.1", "city": "Biouaminso", "lon": "11.0833333"}, {"lat": "4.6833333", "city": "Bipan", "lon": "12.3333333"}, {"lat": "4.7166667", "city": "Bipoga", "lon": "12.3833333"}, {"lat": "4.5333333", "city": "Bipogu\u00e9", "lon": "12.0833333"}, {"lat": "4.1", "city": "Bisogo", "lon": "11.2833333"}, {"lat": "4.6833333", "city": "Bissaga", "lon": "12.1333333"}, {"lat": "4.2", "city": "Bissono", "lon": "12.25"}, {"lat": "4.65", "city": "Bitang", "lon": "11.2"}, {"lat": "3.85", "city": "Biting", "lon": "11.55"}, {"lat": "3.5", "city": "Bitoutouk", "lon": "11.1333333"}, {"lat": "3.8666667", "city": "Biviang", "lon": "11.9"}, {"lat": "4.5333333", "city": "Bivouna", "lon": "11.6333333"}, {"lat": "3.8833333", "city": "Bivouvou\u00e9", "lon": "11.7166667"}, {"lat": "4.35", "city": "Biwol\u00e9", "lon": "12.15"}, {"lat": "4.1666667", "city": "Biwong", "lon": "12.25"}, {"lat": "3.4", "city": "Biyan", "lon": "11.6166667"}, {"lat": "3.5833333", "city": "Biyeb\u00e9", "lon": "11.8"}, {"lat": "3.9166667", "city": "Biyem", "lon": "12.5166667"}, {"lat": "3.85", "city": "Biyombo", "lon": "12.0833333"}, {"lat": "3.8333333", "city": "Biyouha", "lon": "10.7333333"}, {"lat": "3.4833333", "city": "Bizok", "lon": "11.75"}, {"lat": "4.4166667", "city": "Boalondo", "lon": "11.2333333"}, {"lat": "5.4166667", "city": "Boanda", "lon": "12.0"}, {"lat": "3.5166667", "city": "Bodi", "lon": "10.6666667"}, {"lat": "3.9", "city": "Bog", "lon": "10.9166667"}, {"lat": "3.7333333", "city": "Bog-Nso", "lon": "10.8166667"}, {"lat": "4.4166667", "city": "Bogoba", "lon": "12.55"}, {"lat": "4.6", "city": "Bogondo", "lon": "11.3"}, {"lat": "3.7333333", "city": "Bogso", "lon": "10.8166667"}, {"lat": "4.0666667", "city": "Boguolo's", "lon": "12.6"}, {"lat": "4.25", "city": "Boimotah", "lon": "11.15"}, {"lat": "4.5833333", "city": "Bokaga", "lon": "11.15"}, {"lat": "4.5833333", "city": "Bokaka", "lon": "11.15"}, {"lat": "4.5666667", "city": "Bokito", "lon": "11.1166667"}, {"lat": "4.9833333", "city": "Boko", "lon": "11.2166667"}, {"lat": "4.4666667", "city": "Bombato", "lon": "11.25"}, {"lat": "5.0833333", "city": "Bomteng", "lon": "12.0833333"}, {"lat": "3.7333333", "city": "Bondjok", "lon": "11.2"}, {"lat": "4.4833333", "city": "Bongando", "lon": "11.15"}, {"lat": "3.5666667", "city": "Bong", "lon": "12.2"}, {"lat": "4.35", "city": "Bongo", "lon": "11.0666667"}, {"lat": "3.6166667", "city": "Bonjok", "lon": "11.1"}, {"lat": "4.4833333", "city": "Botombo", "lon": "11.2"}, {"lat": "4.8", "city": "Boulourou", "lon": "10.9833333"}, {"lat": "3.4833333", "city": "Boumkok", "lon": "11.1333333"}, {"lat": "3.4833333", "city": "Boumnkok", "lon": "11.1333333"}, {"lat": "4.7", "city": "Boundjou", "lon": "12.4166667"}, {"lat": "4.6833333", "city": "Boura I", "lon": "11.3333333"}, {"lat": "4.65", "city": "Boura II", "lon": "11.35"}, {"lat": "4.6833333", "city": "Bouraka", "lon": "11.3"}, {"lat": "4.8", "city": "Boutourou", "lon": "10.9833333"}, {"lat": "4.6333333", "city": "Boyaba", "lon": "11.2666667"}, {"lat": "4.6166667", "city": "Boyabisoumbi", "lon": "11.3166667"}, {"lat": "4.5", "city": "Cedea", "lon": "11.1"}, {"lat": "4.6166667", "city": "Contsing II", "lon": "11.2833333"}, {"lat": "4.5", "city": "Couch\u00e9madji", "lon": "13.0666667"}, {"lat": "4.75", "city": "Dang", "lon": "11.2333333"}, {"lat": "4.8", "city": "Darosa", "lon": "12.3"}, {"lat": "3.5666667", "city": "Daydo", "lon": "11.7"}, {"lat": "4.5", "city": "D\u00e9a", "lon": "12.5666667"}, {"lat": "5.7666667", "city": "Dengl\u00e9", "lon": "12.4"}, {"lat": "4.9333333", "city": "Deuk", "lon": "11.2666667"}, {"lat": "4.8833333", "city": "Diaka", "lon": "11.2666667"}, {"lat": "4.8166667", "city": "Di", "lon": "11.1"}, {"lat": "4.35", "city": "Diend\u00e9", "lon": "12.9666667"}, {"lat": "4.8166667", "city": "Dink", "lon": "11.15"}, {"lat": "4.9333333", "city": "Dioma", "lon": "11.0833333"}, {"lat": "5.4833333", "city": "Dja", "lon": "12.35"}, {"lat": "5.4666667", "city": "Djamani", "lon": "12.8333333"}, {"lat": "5.5666667", "city": "Djampa", "lon": "12.1333333"}, {"lat": "3.8833333", "city": "Djongolo", "lon": "11.5333333"}, {"lat": "3.6833333", "city": "Djoudjoua", "lon": "12.0166667"}, {"lat": "3.8833333", "city": "Djoungolo", "lon": "11.5333333"}, {"lat": "4.3666667", "city": "Djounyat", "lon": "11.2833333"}, {"lat": "4.8", "city": "Dodiar\u00e9", "lon": "11.1666667"}, {"lat": "4.8166667", "city": "Do", "lon": "12.2166667"}, {"lat": "4.3666667", "city": "Dokoa", "lon": "11.7333333"}, {"lat": "4.9", "city": "Don", "lon": "12.0"}, {"lat": "4.7666667", "city": "Donga", "lon": "11.8"}, {"lat": "4.7333333", "city": "Doninking", "lon": "11.2833333"}, {"lat": "4.8833333", "city": "Dontchua", "lon": "12.4166667"}, {"lat": "5.9333333", "city": "Dougb\u00e9", "lon": "12.2833333"}, {"lat": "6.0", "city": "Douma", "lon": "12.4333333"}, {"lat": "5.8833333", "city": "Doum\u00e9", "lon": "12.2666667"}, {"lat": "5.35", "city": "Dounga", "lon": "12.4333333"}, {"lat": "3.3333333", "city": "Dwanda", "lon": "10.95"}, {"lat": "5.45", "city": "Dz\u00e9r\u00e9", "lon": "12.3333333"}, {"lat": "3.75", "city": "Dzing", "lon": "11.9"}, {"lat": "3.8", "city": "Dzouzok", "lon": "11.7"}, {"lat": "3.7666667", "city": "Ebabot", "lon": "11.9"}, {"lat": "4.1", "city": "Ebabsi", "lon": "11.3"}, {"lat": "4.4833333", "city": "Ebah", "lon": "12.9166667"}, {"lat": "4.4", "city": "Ebalabalass\u00e9", "lon": "12.35"}, {"lat": "4.1666667", "city": "Ebalondok", "lon": "11.7166667"}, {"lat": "3.3166667", "city": "Ebaminal", "lon": "11.25"}, {"lat": "4.1166667", "city": "\u00c9banga", "lon": "11.3333333"}, {"lat": "4.6", "city": "Ebangal", "lon": "12.9333333"}, {"lat": "3.7", "city": "Ebang", "lon": "11.4666667"}, {"lat": "4.0", "city": "Ebang I", "lon": "11.5666667"}, {"lat": "4.0", "city": "Ebang II", "lon": "11.5666667"}, {"lat": "3.3666667", "city": "Ebayaga", "lon": "11.0166667"}, {"lat": "3.8", "city": "Ebeba I", "lon": "11.2166667"}, {"lat": "3.7666667", "city": "Ebeba II", "lon": "11.25"}, {"lat": "4.3333333", "city": "\u00c9bebda I", "lon": "11.2833333"}, {"lat": "4.35", "city": "\u00c9bebda II", "lon": "11.2666667"}, {"lat": "3.8166667", "city": "Eb\u00e9", "lon": "11.4666667"}, {"lat": "3.6833333", "city": "Ebeko\u00e9", "lon": "11.4833333"}, {"lat": "3.75", "city": "\u00c9boa", "lon": "12.25"}, {"lat": "3.9666667", "city": "Ebod", "lon": "11.4666667"}, {"lat": "3.85", "city": "Ebodinkou", "lon": "11.9666667"}, {"lat": "3.7833333", "city": "Ebodnkou", "lon": "11.8833333"}, {"lat": "4.0833333", "city": "Ebodoumou", "lon": "12.0"}, {"lat": "3.4", "city": "Ebogo", "lon": "11.4666667"}, {"lat": "4.05", "city": "Ebogo II", "lon": "11.6166667"}, {"lat": "3.7833333", "city": "Ebok", "lon": "11.8333333"}, {"lat": "3.9333333", "city": "Ebolakounou", "lon": "12.1333333"}, {"lat": "3.8833333", "city": "Ebolmedzom", "lon": "11.6166667"}, {"lat": "4.25", "city": "\u00c9bolmongo", "lon": "11.2666667"}, {"lat": "3.6", "city": "Eboloum", "lon": "11.2666667"}, {"lat": "3.6166667", "city": "\u00c9bolova", "lon": "12.1333333"}, {"lat": "3.9", "city": "Ebolowa", "lon": "11.9"}, {"lat": "3.9166667", "city": "Ebolsi", "lon": "11.8"}, {"lat": "4.05", "city": "Ebolzock", "lon": "12.0"}, {"lat": "4.1666667", "city": "Ebombang", "lon": "12.0666667"}, {"lat": "3.2833333", "city": "Ebom", "lon": "11.05"}, {"lat": "3.6833333", "city": "\u00c9bom\u00e9si", "lon": "12.5833333"}, {"lat": "4.3666667", "city": "Ebometend\u00e9", "lon": "12.0666667"}, {"lat": "3.5833333", "city": "Ebomkop", "lon": "11.7833333"}, {"lat": "3.4166667", "city": "Ebomsi I", "lon": "11.7166667"}, {"lat": "3.4666667", "city": "Ebomsi II", "lon": "11.7"}, {"lat": "4.3833333", "city": "Ebomzoud", "lon": "11.3"}, {"lat": "3.8666667", "city": "Ebond\u00e9g\u00e9", "lon": "11.1833333"}, {"lat": "4.6", "city": "Ebonga", "lon": "12.9333333"}, {"lat": "4.35", "city": "Ebong", "lon": "11.3666667"}, {"lat": "4.7833333", "city": "Ebonikak", "lon": "12.1166667"}, {"lat": "3.85", "city": "Ebotankou", "lon": "12.5333333"}, {"lat": "3.85", "city": "\u00c9botenkou", "lon": "12.5333333"}, {"lat": "3.5833333", "city": "Ebougmenyou", "lon": "11.45"}, {"lat": "4.1166667", "city": "\u00c9bougsi", "lon": "11.3"}, {"lat": "4.4", "city": "Eboulou", "lon": "12.2666667"}, {"lat": "3.85", "city": "Edipkonbo", "lon": "11.3"}, {"lat": "4.6333333", "city": "Edoudoumwon", "lon": "12.3666667"}, {"lat": "3.75", "city": "Edou", "lon": "11.9666667"}, {"lat": "4.3666667", "city": "Edoumdan\u00e9", "lon": "12.4833333"}, {"lat": "4.2", "city": "Edzendouan", "lon": "11.75"}, {"lat": "4.2833333", "city": "Edzen", "lon": "11.4666667"}, {"lat": "3.8333333", "city": "Efandi", "lon": "11.7666667"}, {"lat": "4.45", "city": "Efogo", "lon": "12.3166667"}, {"lat": "4.1833333", "city": "\u00c9fok", "lon": "11.4666667"}, {"lat": "4.5666667", "city": "Efoulana", "lon": "12.75"}, {"lat": "4.45", "city": "Efoulane", "lon": "12.4"}, {"lat": "3.4666667", "city": "Efoulan", "lon": "11.75"}, {"lat": "4.5666667", "city": "Efoulan II", "lon": "12.75"}, {"lat": "3.9833333", "city": "Egba", "lon": "11.0833333"}, {"lat": "4.7166667", "city": "Egona", "lon": "11.3"}, {"lat": "4.3833333", "city": "\u00c9hondo", "lon": "11.6333333"}, {"lat": "4.05", "city": "\u00c9kabita", "lon": "11.4666667"}, {"lat": "4.55", "city": "Ekak", "lon": "12.85"}, {"lat": "4.3", "city": "\u00c9kalan Minkou", "lon": "11.4166667"}, {"lat": "3.6333333", "city": "Ekali", "lon": "11.5333333"}, {"lat": "4.4666667", "city": "Ekanga", "lon": "12.3333333"}, {"lat": "4.4", "city": "Ekang", "lon": "12.2333333"}, {"lat": "4.05", "city": "Ekapita", "lon": "11.4666667"}, {"lat": "3.8833333", "city": "Ek\u00e9kam III", "lon": "11.3666667"}, {"lat": "3.6333333", "city": "Ekidm\u00e9ko\u00e9", "lon": "11.65"}, {"lat": "3.8333333", "city": "Eki\u00e9", "lon": "11.55"}, {"lat": "3.8833333", "city": "Ekiembi\u00e9", "lon": "11.8333333"}, {"lat": "3.6", "city": "Ekingili", "lon": "11.7166667"}, {"lat": "3.6", "city": "Ekoadjom", "lon": "11.2"}, {"lat": "3.9666667", "city": "Ekoangomb\u00e9", "lon": "11.0333333"}, {"lat": "3.8166667", "city": "Ekodongo", "lon": "11.85"}, {"lat": "3.8833333", "city": "\u00c9kok", "lon": "12.1833333"}, {"lat": "3.6833333", "city": "Ekok I", "lon": "11.6"}, {"lat": "3.7", "city": "Ekok II", "lon": "11.5833333"}, {"lat": "3.8166667", "city": "\u00c9koko", "lon": "12.1166667"}, {"lat": "3.6833333", "city": "Ekoko I", "lon": "11.5333333"}, {"lat": "3.7166667", "city": "Ekoko II", "lon": "11.5333333"}, {"lat": "4.1", "city": "\u00c9kol", "lon": "11.2833333"}, {"lat": "4.5666667", "city": "Ekomay\u00e9", "lon": "12.3166667"}, {"lat": "4.6666667", "city": "Ekomba", "lon": "12.35"}, {"lat": "4.4833333", "city": "\u00c9komb\u00e9", "lon": "10.8666667"}, {"lat": "4.4666667", "city": "Ekombit\u00e9", "lon": "12.2666667"}, {"lat": "3.4666667", "city": "Ekombiti\u00e9", "lon": "11.5166667"}, {"lat": "4.3", "city": "Ekombo", "lon": "12.3"}, {"lat": "3.85", "city": "Ekom", "lon": "11.7"}, {"lat": "4.65", "city": "\u00c9kondji", "lon": "10.9166667"}, {"lat": "4.8166667", "city": "Ekondong", "lon": "12.2"}, {"lat": "3.9333333", "city": "Ekong", "lon": "11.45"}, {"lat": "3.8666667", "city": "\u00c9koua", "lon": "12.2666667"}, {"lat": "4.1833333", "city": "Ekouda", "lon": "11.1833333"}, {"lat": "3.3833333", "city": "Ekoudbesanda", "lon": "11.1"}, {"lat": "3.4166667", "city": "Ekoudindi", "lon": "11.2833333"}, {"lat": "3.7333333", "city": "\u00c9kougou", "lon": "12.3333333"}, {"lat": "4.1166667", "city": "Ekoumdouma", "lon": "11.5333333"}, {"lat": "4.15", "city": "Ekoum Douma", "lon": "12.0333333"}, {"lat": "3.6333333", "city": "\u00c9koumdoum", "lon": "12.15"}, {"lat": "3.3833333", "city": "Ekoum\u00e9yek", "lon": "11.25"}, {"lat": "3.8166667", "city": "Ekoum\u00e9yen", "lon": "11.7333333"}, {"lat": "3.85", "city": "Ekoumtik", "lon": "11.2166667"}, {"lat": "4.0", "city": "Ekoundou", "lon": "12.2166667"}, {"lat": "3.5333333", "city": "Ekoundoum", "lon": "11.3166667"}, {"lat": "4.2166667", "city": "Ekpassong", "lon": "12.8666667"}, {"lat": "4.5666667", "city": "Ekpwakoula", "lon": "12.3666667"}, {"lat": "4.7166667", "city": "Ekpwoe", "lon": "12.0333333"}, {"lat": "4.2166667", "city": "Ekwasson", "lon": "12.8666667"}, {"lat": "4.0666667", "city": "\u00c9lal\u00e9", "lon": "11.1333333"}, {"lat": "4.4666667", "city": "\u00c9lang", "lon": "11.4833333"}, {"lat": "3.4666667", "city": "Elend\u00e9", "lon": "11.7166667"}, {"lat": "4.4", "city": "El\u00e9sog\u00e9", "lon": "11.4"}, {"lat": "4.15", "city": "Elig", "lon": "11.3666667"}, {"lat": "4.05", "city": "Elig Ndoum", "lon": "11.2"}, {"lat": "4.15", "city": "Elig Ngomo", "lon": "11.45"}, {"lat": "3.9833333", "city": "Eligyen", "lon": "11.35"}, {"lat": "4.2166667", "city": "\u00c9lomzok", "lon": "11.6"}, {"lat": "4.25", "city": "Elone", "lon": "12.2666667"}, {"lat": "4.2166667", "city": "\u00c9lon", "lon": "11.4"}, {"lat": "4.3333333", "city": "\u00c9long", "lon": "11.3166667"}, {"lat": "4.5833333", "city": "Elot\u00e9", "lon": "12.7333333"}, {"lat": "4.1333333", "city": "Elotkos", "lon": "11.3666667"}, {"lat": "4.0666667", "city": "Eloum", "lon": "12.2666667"}, {"lat": "3.9166667", "city": "Emana", "lon": "11.5166667"}, {"lat": "3.9", "city": "Emini", "lon": "12.4666667"}, {"lat": "5.15", "city": "Empts\u00e9", "lon": "12.45"}, {"lat": "4.8166667", "city": "Emts\u00e9", "lon": "12.2833333"}, {"lat": "4.0333333", "city": "Emvan", "lon": "12.1166667"}, {"lat": "3.95", "city": "Emvong", "lon": "12.2833333"}, {"lat": "4.5833333", "city": "\u00c9nangana", "lon": "11.3666667"}, {"lat": "4.5833333", "city": "Enangan", "lon": "11.3666667"}, {"lat": "4.5833333", "city": "Enanguena", "lon": "11.3666667"}, {"lat": "4.1666667", "city": "Endang", "lon": "12.2333333"}, {"lat": "4.45", "city": "Endek", "lon": "12.3666667"}, {"lat": "4.1166667", "city": "Endingding", "lon": "11.4833333"}, {"lat": "4.1166667", "city": "Endo", "lon": "12.5833333"}, {"lat": "4.1", "city": "Endom", "lon": "12.5333333"}, {"lat": "3.75", "city": "Endoum", "lon": "11.6833333"}, {"lat": "4.6333333", "city": "Engane", "lon": "12.3"}, {"lat": "4.8", "city": "Enongbibak", "lon": "12.95"}, {"lat": "4.9333333", "city": "Enti\u00e9 II", "lon": "12.0166667"}, {"lat": "5.9333333", "city": "Ep\u00e9da I", "lon": "12.8"}, {"lat": "3.8166667", "city": "Esaba", "lon": "11.6333333"}, {"lat": "3.9166667", "city": "Esaminsang", "lon": "11.7666667"}, {"lat": "3.6833333", "city": "Esazok I", "lon": "11.5333333"}, {"lat": "3.6833333", "city": "Esazok II", "lon": "11.5166667"}, {"lat": "3.65", "city": "Es\u00e9ka", "lon": "10.7666667"}, {"lat": "4.6333333", "city": "Esend\u00e9", "lon": "11.25"}, {"lat": "3.8", "city": "\u00c9si", "lon": "12.3"}, {"lat": "4.0333333", "city": "Esimel", "lon": "11.6333333"}, {"lat": "3.7666667", "city": "Esong", "lon": "11.8"}, {"lat": "4.5833333", "city": "Essamesso", "lon": "12.4666667"}, {"lat": "3.6833333", "city": "Essazok", "lon": "11.5333333"}, {"lat": "4.0833333", "city": "Ess\u00e9", "lon": "11.8833333"}, {"lat": "4.5", "city": "Essimeyong", "lon": "12.6833333"}, {"lat": "3.55", "city": "Essomba", "lon": "11.4166667"}, {"lat": "4.35", "city": "Etam Koma", "lon": "11.3166667"}, {"lat": "4.5833333", "city": "Eteo", "lon": "12.7"}, {"lat": "4.0", "city": "Et\u00e9tana", "lon": "11.8666667"}, {"lat": "4.4833333", "city": "\u00c9tiolomo", "lon": "11.0666667"}, {"lat": "3.7666667", "city": "Etoa", "lon": "11.4833333"}, {"lat": "5.1166667", "city": "Eto", "lon": "12.0333333"}, {"lat": "4.6666667", "city": "Etognang", "lon": "12.4333333"}, {"lat": "4.1", "city": "\u00c9tok", "lon": "11.15"}, {"lat": "4.5833333", "city": "Etol\u00e9", "lon": "12.7"}, {"lat": "4.5833333", "city": "Etol", "lon": "12.7"}, {"lat": "3.9", "city": "Etoud", "lon": "11.4166667"}, {"lat": "3.9166667", "city": "Etoudi", "lon": "11.5166667"}, {"lat": "3.8333333", "city": "Etoug", "lon": "11.4666667"}, {"lat": "4.3666667", "city": "Etounabang", "lon": "12.3166667"}, {"lat": "4.0833333", "city": "Etoutoua", "lon": "11.8166667"}, {"lat": "3.9166667", "city": "Etudi", "lon": "11.5166667"}, {"lat": "4.05", "city": "\u00c9vian\u00e9", "lon": "11.3"}, {"lat": "3.4333333", "city": "Evindisi", "lon": "11.4"}, {"lat": "4.0833333", "city": "\u00c9vodoula", "lon": "11.2"}, {"lat": "3.9833333", "city": "\u00c9vom", "lon": "12.2166667"}, {"lat": "4.65", "city": "Evounzi", "lon": "12.4166667"}, {"lat": "4.3333333", "city": "Ewassa", "lon": "12.0333333"}, {"lat": "4.1166667", "city": "Ewo", "lon": "12.4833333"}, {"lat": "4.1333333", "city": "Ewot", "lon": "11.95"}, {"lat": "3.7666667", "city": "\u00c9yangap", "lon": "12.35"}, {"lat": "3.8833333", "city": "Eyang", "lon": "11.3833333"}, {"lat": "3.85", "city": "\u00c9y\u00e9", "lon": "12.3166667"}, {"lat": "4.4333333", "city": "Ey\u00e9n\u00e9", "lon": "11.3833333"}, {"lat": "4.6166667", "city": "Eyen", "lon": "13.0"}, {"lat": "4.1833333", "city": "Eyenm\u00e9yong", "lon": "11.2166667"}, {"lat": "3.95", "city": "\u00c9yes", "lon": "12.5833333"}, {"lat": "3.7833333", "city": "Eyo", "lon": "11.7166667"}, {"lat": "4.3166667", "city": "Ezamb\u00e9", "lon": "12.8166667"}, {"lat": "4.0333333", "city": "\u00c9z\u00e9zang", "lon": "11.4833333"}, {"lat": "3.4833333", "city": "Fak\u00e9l\u00e9 I", "lon": "11.6"}, {"lat": "3.5", "city": "Fak\u00e9l\u00e9 II", "lon": "11.6166667"}, {"lat": "4.2666667", "city": "Fam\u00e9nasi", "lon": "11.6166667"}, {"lat": "4.0666667", "city": "Fang Bikan", "lon": "12.7833333"}, {"lat": "4.0666667", "city": "Fang Bikang", "lon": "12.7833333"}, {"lat": "4.3833333", "city": "Fangbilone", "lon": "12.25"}, {"lat": "4.0", "city": "Fang Biloun", "lon": "12.7166667"}, {"lat": "3.7333333", "city": "Fang", "lon": "12.5833333"}, {"lat": "3.7166667", "city": "Fanso", "lon": "12.5666667"}, {"lat": "3.5", "city": "Fegmimbang", "lon": "11.3166667"}, {"lat": "5.2666667", "city": "Fofoen", "lon": "12.2166667"}, {"lat": "3.7833333", "city": "Fon", "lon": "11.8166667"}, {"lat": "4.1333333", "city": "Foulasi", "lon": "11.5333333"}, {"lat": "5.3166667", "city": "Fouy", "lon": "12.2166667"}, {"lat": "5.0666667", "city": "G\u00e2", "lon": "11.1"}, {"lat": "5.2833333", "city": "Gagan", "lon": "12.4666667"}, {"lat": "4.8166667", "city": "Gah", "lon": "11.15"}, {"lat": "4.7333333", "city": "Gbaram", "lon": "11.15"}, {"lat": "4.5833333", "city": "G\u00e9boda", "lon": "11.2166667"}, {"lat": "4.55", "city": "G\u00e9fige", "lon": "11.2333333"}, {"lat": "4.3833333", "city": "Gele-Menduka", "lon": "12.9166667"}, {"lat": "4.65", "city": "Gentsing I", "lon": "11.35"}, {"lat": "4.7666667", "city": "G\u00e9rima", "lon": "11.2833333"}, {"lat": "3.9", "city": "Ginda", "lon": "12.4333333"}, {"lat": "5.45", "city": "Go\u00e9djim", "lon": "11.9166667"}, {"lat": "5.0833333", "city": "Go\u00e9tou", "lon": "12.0833333"}, {"lat": "3.9", "city": "Gomeso's", "lon": "12.4333333"}, {"lat": "6.1666667", "city": "Gongatoua", "lon": "12.5333333"}, {"lat": "4.6666667", "city": "Goufan I", "lon": "11.25"}, {"lat": "4.7", "city": "Goufan II", "lon": "11.25"}, {"lat": "4.8333333", "city": "Gouf\u00e9", "lon": "11.2166667"}, {"lat": "4.6333333", "city": "Gouif\u00e9", "lon": "11.15"}, {"lat": "4.55", "city": "Gouna", "lon": "11.4"}, {"lat": "4.55", "city": "Goura", "lon": "11.4"}, {"lat": "4.55", "city": "Goura I", "lon": "11.4"}, {"lat": "4.55", "city": "Goura II", "lon": "11.45"}, {"lat": "4.3833333", "city": "Guel\u00e9mandouka", "lon": "12.9166667"}, {"lat": "5.5", "city": "Gu\u00e9r\u00e9", "lon": "12.9333333"}, {"lat": "4.8833333", "city": "Guervoum", "lon": "12.0"}, {"lat": "4.6333333", "city": "Guiou\u00e9", "lon": "11.15"}, {"lat": "3.9833333", "city": "Hegba", "lon": "11.0833333"}, {"lat": "4.1666667", "city": "Indama", "lon": "11.4"}, {"lat": "4.1166667", "city": "Indinding", "lon": "11.4833333"}, {"lat": "3.4", "city": "Inding\u00e9", "lon": "11.65"}, {"lat": "4.3", "city": "Indoum", "lon": "11.3833333"}, {"lat": "4.7666667", "city": "Isandja", "lon": "11.7666667"}, {"lat": "4.95", "city": "Janjo", "lon": "11.3833333"}, {"lat": "3.8666667", "city": "Ja\u00fande", "lon": "11.5166667"}, {"lat": "5.3333333", "city": "Jessom", "lon": "11.3333333"}, {"lat": "5.5333333", "city": "Joko", "lon": "12.3166667"}, {"lat": "4.05", "city": "Kaa", "lon": "12.0833333"}, {"lat": "4.5833333", "city": "Kagban\u00e9", "lon": "12.9333333"}, {"lat": "4.5333333", "city": "Kak III", "lon": "12.9833333"}, {"lat": "3.85", "city": "Kala", "lon": "11.3666667"}, {"lat": "4.85", "city": "Kalong", "lon": "11.1166667"}, {"lat": "3.65", "city": "Kamba II", "lon": "11.6833333"}, {"lat": "3.6833333", "city": "Kamba I", "lon": "11.6833333"}, {"lat": "3.6833333", "city": "Kamba", "lon": "11.6833333"}, {"lat": "4.3666667", "city": "Kananga", "lon": "11.1833333"}, {"lat": "4.4166667", "city": "Kap", "lon": "13.0166667"}, {"lat": "3.6", "city": "Kat", "lon": "11.8833333"}, {"lat": "3.55", "city": "Kaya", "lon": "11.05"}, {"lat": "5.3833333", "city": "Kayi", "lon": "11.4833333"}, {"lat": "4.3666667", "city": "Kbasala", "lon": "11.7"}, {"lat": "4.5", "city": "K\u00e9dia", "lon": "11.1"}, {"lat": "4.4666667", "city": "K\u00e9la", "lon": "11.5333333"}, {"lat": "3.8", "city": "K\u00e9l\u00e9", "lon": "11.1666667"}, {"lat": "4.2666667", "city": "K\u00e9leng", "lon": "11.0166667"}, {"lat": "4.2666667", "city": "K\u00e9ling", "lon": "11.0166667"}, {"lat": "4.4333333", "city": "K\u00e9lkoto", "lon": "11.1666667"}, {"lat": "4.8333333", "city": "Ken", "lon": "11.15"}, {"lat": "4.5", "city": "Kidia", "lon": "11.1"}, {"lat": "4.8", "city": "Kidim\u00e9b\u00e9", "lon": "12.8"}, {"lat": "4.6666667", "city": "Kiki", "lon": "11.1833333"}, {"lat": "4.2", "city": "Kikot", "lon": "11.0166667"}, {"lat": "4.9166667", "city": "Kinding", "lon": "10.7333333"}, {"lat": "4.3333333", "city": "Koan", "lon": "11.35"}, {"lat": "5.4666667", "city": "Koengbo\u00e9", "lon": "11.6333333"}, {"lat": "4.2166667", "city": "Ko", "lon": "11.4333333"}, {"lat": "4.1", "city": "Kokoa", "lon": "12.1"}, {"lat": "4.2", "city": "Kokodo", "lon": "11.3"}, {"lat": "4.4666667", "city": "Koko\u00e9", "lon": "11.4666667"}, {"lat": "4.6333333", "city": "Kokoum", "lon": "12.4"}, {"lat": "4.4666667", "city": "Kola", "lon": "11.4833333"}, {"lat": "3.6833333", "city": "Koli", "lon": "11.3166667"}, {"lat": "4.2833333", "city": "Kolkoss\u00e9", "lon": "11.2833333"}, {"lat": "3.5166667", "city": "Kolmaka", "lon": "11.8166667"}, {"lat": "4.6833333", "city": "Komb\u00e9 Bing\u00e9", "lon": "11.6666667"}, {"lat": "4.65", "city": "Komb\u00e9", "lon": "11.35"}, {"lat": "3.7666667", "city": "Kombing", "lon": "11.1"}, {"lat": "3.9833333", "city": "Kombo", "lon": "11.9666667"}, {"lat": "5.3333333", "city": "Komna-Sang", "lon": "12.4333333"}, {"lat": "4.1", "city": "Konabing", "lon": "11.3333333"}, {"lat": "3.6", "city": "Kondan", "lon": "12.2333333"}, {"lat": "4.15", "city": "Kongak", "lon": "11.0166667"}, {"lat": "5.6", "city": "Kong", "lon": "12.0666667"}, {"lat": "4.15", "city": "Kongok", "lon": "11.0166667"}, {"lat": "4.7166667", "city": "Kon Kidoum", "lon": "11.0666667"}, {"lat": "4.8333333", "city": "Kon", "lon": "11.0666667"}, {"lat": "4.6666667", "city": "Kono", "lon": "12.1666667"}, {"lat": "4.4666667", "city": "Koro", "lon": "11.4833333"}, {"lat": "4.4333333", "city": "Kouambang III", "lon": "13.0"}, {"lat": "4.4333333", "city": "Kouambang II", "lon": "12.9166667"}, {"lat": "4.35", "city": "Kouambang I", "lon": "12.9666667"}, {"lat": "4.0833333", "city": "Koudanding", "lon": "11.4833333"}, {"lat": "3.9166667", "city": "Koudi", "lon": "11.2333333"}, {"lat": "3.55", "city": "Koudoukomo", "lon": "12.0666667"}, {"lat": "3.7333333", "city": "Koudou", "lon": "12.5666667"}, {"lat": "4.1666667", "city": "Koudoumba", "lon": "12.3666667"}, {"lat": "4.2333333", "city": "Kougouda", "lon": "11.3166667"}, {"lat": "3.9666667", "city": "Koukounou", "lon": "11.6666667"}, {"lat": "3.6333333", "city": "Koulboa", "lon": "11.4666667"}, {"lat": "4.0833333", "city": "Koulou", "lon": "11.6166667"}, {"lat": "3.3166667", "city": "Koumasi", "lon": "11.2166667"}, {"lat": "4.4", "city": "Koumbambang", "lon": "13.0166667"}, {"lat": "3.6666667", "city": "Koum", "lon": "12.2333333"}, {"lat": "3.65", "city": "Koumou", "lon": "11.5166667"}, {"lat": "5.55", "city": "Kound\u00e9", "lon": "12.2666667"}, {"lat": "3.7666667", "city": "Kound\u00e9song", "lon": "12.4666667"}, {"lat": "5.3666667", "city": "Koundjiri", "lon": "12.2166667"}, {"lat": "3.9", "city": "Koundou", "lon": "12.1166667"}, {"lat": "4.4833333", "city": "Koundoung", "lon": "11.6333333"}, {"lat": "5.1", "city": "Kouniakong", "lon": "11.4"}, {"lat": "3.7666667", "city": "Kourou", "lon": "12.5666667"}, {"lat": "4.45", "city": "Kous\u00e9", "lon": "11.5666667"}, {"lat": "4.45", "city": "Kouss\u00e9", "lon": "11.5666667"}, {"lat": "4.3", "city": "Koutoubingono", "lon": "12.6"}, {"lat": "4.0833333", "city": "Koutou", "lon": "11.8"}, {"lat": "5.2666667", "city": "Kpa", "lon": "11.4666667"}, {"lat": "3.8333333", "city": "Lada", "lon": "11.5833333"}, {"lat": "4.9666667", "city": "Lagosdorf", "lon": "10.7"}, {"lat": "3.9", "city": "Landa", "lon": "12.6333333"}, {"lat": "4.7833333", "city": "Lapouang", "lon": "11.1833333"}, {"lat": "4.5666667", "city": "Lati\u00e9", "lon": "12.1833333"}, {"lat": "4.9333333", "city": "Lati", "lon": "12.4333333"}, {"lat": "4.1333333", "city": "L\u00e9a Ngonbi", "lon": "11.0833333"}, {"lat": "4.2666667", "city": "Lebamzib", "lon": "11.4833333"}, {"lat": "4.2666667", "city": "L\u00e9bamzip I", "lon": "11.4833333"}, {"lat": "3.5166667", "city": "Leblibong", "lon": "11.1833333"}, {"lat": "3.9833333", "city": "L\u00e9bot", "lon": "11.4166667"}, {"lat": "3.9", "city": "Leboudi II", "lon": "11.45"}, {"lat": "3.9166667", "city": "Leboudi I", "lon": "11.45"}, {"lat": "4.2", "city": "L\u00e9ki\u00e9", "lon": "11.3666667"}, {"lat": "4.3833333", "city": "L\u00e9koubek", "lon": "11.4833333"}, {"lat": "4.2166667", "city": "L\u00e9koun", "lon": "11.2333333"}, {"lat": "3.8166667", "city": "L\u00e9", "lon": "12.5"}, {"lat": "3.8166667", "city": "L\u00e9lep I", "lon": "11.0833333"}, {"lat": "4.0", "city": "Lemb\u00e9", "lon": "12.6333333"}, {"lat": "5.8", "city": "L\u00e8na", "lon": "12.3666667"}, {"lat": "5.8", "city": "L\u00e9ne", "lon": "12.3666667"}, {"lat": "4.0333333", "city": "Leng Tombo", "lon": "12.75"}, {"lat": "4.2166667", "city": "L\u00e9nouk", "lon": "11.15"}, {"lat": "4.2666667", "city": "L\u00e9popomo", "lon": "11.5333333"}, {"lat": "3.4333333", "city": "Leps\u00e9", "lon": "11.2333333"}, {"lat": "4.2333333", "city": "Levem", "lon": "11.1833333"}, {"lat": "5.5166667", "city": "Lewou", "lon": "12.3666667"}, {"lat": "3.55", "city": "Libamba", "lon": "11.1"}, {"lat": "3.9166667", "city": "Lib\u00e9lengoi", "lon": "10.9333333"}, {"lat": "3.9166667", "city": "Libelgo\u00ef", "lon": "10.9333333"}, {"lat": "3.9333333", "city": "Libi", "lon": "11.8666667"}, {"lat": "4.0833333", "city": "Libobi", "lon": "11.05"}, {"lat": "4.1333333", "city": "Lihong", "lon": "11.05"}, {"lat": "4.1166667", "city": "Lika", "lon": "11.0166667"}, {"lat": "3.4166667", "city": "Likong\u00e9", "lon": "10.9833333"}, {"lat": "3.4166667", "city": "Likongu\u00e9", "lon": "10.9833333"}, {"lat": "3.75", "city": "Lindo", "lon": "11.1166667"}, {"lat": "4.0666667", "city": "Lindom II", "lon": "11.3833333"}, {"lat": "4.0333333", "city": "Lindom I", "lon": "11.35"}, {"lat": "4.3166667", "city": "Lindong", "lon": "11.2833333"}, {"lat": "4.1", "city": "Lingom", "lon": "11.4833333"}, {"lat": "4.0", "city": "Lingon", "lon": "11.35"}, {"lat": "5.4", "city": "Lint\u00e9", "lon": "11.7"}, {"lat": "3.8166667", "city": "Lis\u00e9", "lon": "11.1166667"}, {"lat": "5.4333333", "city": "Loa", "lon": "12.7"}, {"lat": "3.9", "city": "Lobo", "lon": "11.2333333"}, {"lat": "5.3666667", "city": "Lom", "lon": "12.2666667"}, {"lat": "4.1666667", "city": "Longo", "lon": "11.85"}, {"lat": "4.2", "city": "Loua II", "lon": "11.4833333"}, {"lat": "4.1833333", "city": "Loua I", "lon": "11.4833333"}, {"lat": "4.4333333", "city": "Loulou", "lon": "12.95"}, {"lat": "4.0666667", "city": "Louma", "lon": "11.4"}, {"lat": "3.6166667", "city": "Loum II", "lon": "11.6666667"}, {"lat": "3.6333333", "city": "Loum I", "lon": "11.6833333"}, {"lat": "3.4166667", "city": "Loum", "lon": "11.3166667"}, {"lat": "3.7666667", "city": "Maba", "lon": "12.5666667"}, {"lat": "4.3333333", "city": "Mabang", "lon": "12.5833333"}, {"lat": "3.9833333", "city": "Mabobol", "lon": "11.0666667"}, {"lat": "3.8", "city": "Madzap", "lon": "11.1666667"}, {"lat": "5.3333333", "city": "Mafia", "lon": "11.35"}, {"lat": "3.55", "city": "Makak", "lon": "11.0333333"}, {"lat": "3.55", "city": "Maka", "lon": "11.0333333"}, {"lat": "5.4333333", "city": "Makan", "lon": "12.75"}, {"lat": "3.7666667", "city": "Makas", "lon": "10.8666667"}, {"lat": "3.8166667", "city": "Makoda", "lon": "11.0333333"}, {"lat": "3.9666667", "city": "Makok", "lon": "12.7166667"}, {"lat": "3.5833333", "city": "Makomol", "lon": "10.8"}, {"lat": "5.0166667", "city": "Makouopchichi", "lon": "10.9"}, {"lat": "5.4833333", "city": "Makouri", "lon": "12.8666667"}, {"lat": "4.2333333", "city": "Makumba", "lon": "12.7666667"}, {"lat": "3.5666667", "city": "Maland\u00e9", "lon": "11.2166667"}, {"lat": "6.1333333", "city": "Malan II", "lon": "12.8833333"}, {"lat": "5.6", "city": "Malarba", "lon": "12.3166667"}, {"lat": "4.7", "city": "Mamatata", "lon": "11.6666667"}, {"lat": "3.75", "city": "Mambin\u00e9", "lon": "11.1"}, {"lat": "3.85", "city": "Mamb", "lon": "10.9666667"}, {"lat": "5.3666667", "city": "Mandi\u00e9", "lon": "11.3333333"}, {"lat": "4.3166667", "city": "Manding", "lon": "10.95"}, {"lat": "4.05", "city": "Mandjandja II", "lon": "11.1"}, {"lat": "4.05", "city": "Mandjandja I", "lon": "11.0666667"}, {"lat": "3.55", "city": "Mandjog", "lon": "10.8833333"}, {"lat": "3.55", "city": "Mandjok", "lon": "10.8833333"}, {"lat": "3.9833333", "city": "Mandoi", "lon": "11.0833333"}, {"lat": "3.7833333", "city": "Mandoumba II", "lon": "11.0833333"}, {"lat": "3.7666667", "city": "Mandoumba", "lon": "11.1"}, {"lat": "4.3166667", "city": "Man Elon", "lon": "11.4"}, {"lat": "5.2", "city": "Manga\u00ef", "lon": "12.15"}, {"lat": "5.2", "city": "Manga", "lon": "12.15"}, {"lat": "3.6833333", "city": "Mangana", "lon": "12.5166667"}, {"lat": "4.1", "city": "Manganga", "lon": "11.05"}, {"lat": "4.65", "city": "Mangang", "lon": "12.45"}, {"lat": "5.3833333", "city": "Mangan", "lon": "12.3"}, {"lat": "3.5666667", "city": "Mangenges", "lon": "10.7"}, {"lat": "3.5666667", "city": "Mangengu\u00e9s", "lon": "10.7"}, {"lat": "3.8", "city": "Mangenmandjok I", "lon": "11.0666667"}, {"lat": "5.2", "city": "Mangi", "lon": "12.15"}, {"lat": "4.1333333", "city": "Manginda I", "lon": "11.0166667"}, {"lat": "4.15", "city": "Mango", "lon": "11.0833333"}, {"lat": "3.5666667", "city": "Manguengue", "lon": "10.7"}, {"lat": "3.5666667", "city": "Manguengues", "lon": "10.7"}, {"lat": "5.6166667", "city": "Manguen I", "lon": "11.9333333"}, {"lat": "5.65", "city": "Manjou", "lon": "13.0166667"}, {"lat": "5.0166667", "city": "Mankim", "lon": "12.0"}, {"lat": "5.0833333", "city": "Mansen", "lon": "10.85"}, {"lat": "3.8166667", "city": "Manyay", "lon": "11.0166667"}, {"lat": "3.8333333", "city": "Manyim", "lon": "10.95"}, {"lat": "4.3666667", "city": "Maond", "lon": "10.9333333"}, {"lat": "3.8", "city": "Mapan III", "lon": "10.8166667"}, {"lat": "3.8", "city": "Mapan", "lon": "10.8166667"}, {"lat": "5.15", "city": "Maroua", "lon": "12.45"}, {"lat": "3.8166667", "city": "Matomb", "lon": "11.0666667"}, {"lat": "3.8", "city": "Matonb", "lon": "11.1333333"}, {"lat": "5.35", "city": "Matsa", "lon": "12.2333333"}, {"lat": "5.35", "city": "Matsari", "lon": "12.2333333"}, {"lat": "5.1", "city": "Mayakou\u00e9", "lon": "10.8833333"}, {"lat": "3.9333333", "city": "Mayos", "lon": "12.6833333"}, {"lat": "5.5833333", "city": "Mbabo\u00e8n", "lon": "11.8333333"}, {"lat": "3.3666667", "city": "Mbaboua", "lon": "11.2166667"}, {"lat": "3.5", "city": "Mbadoumou II", "lon": "11.75"}, {"lat": "3.6", "city": "Mbadoumou I", "lon": "11.55"}, {"lat": "3.6333333", "city": "Mbadoumou", "lon": "11.4166667"}, {"lat": "3.65", "city": "Mbaka", "lon": "11.45"}, {"lat": "4.6", "city": "M'Baka", "lon": "12.9666667"}, {"lat": "3.9", "city": "Mbala", "lon": "11.5166667"}, {"lat": "3.6166667", "city": "Mbaldjap", "lon": "12.2166667"}, {"lat": "3.55", "city": "Mbalelon", "lon": "11.3666667"}, {"lat": "3.7333333", "city": "Mbaligi", "lon": "11.45"}, {"lat": "3.5166667", "city": "Mbalmajo", "lon": "11.5"}, {"lat": "3.5166667", "city": "Mbalmayo", "lon": "11.5"}, {"lat": "3.8", "city": "Mbalngong", "lon": "11.4666667"}, {"lat": "4.1166667", "city": "Mbamayok", "lon": "11.8666667"}, {"lat": "3.6166667", "city": "Mba", "lon": "11.95"}, {"lat": "5.6666667", "city": "Mbamb\u00e9", "lon": "12.3833333"}, {"lat": "5.6166667", "city": "Mbamdi", "lon": "12.3333333"}, {"lat": "4.6", "city": "Mbam", "lon": "12.1333333"}, {"lat": "4.45", "city": "Mbandjock", "lon": "11.9"}, {"lat": "3.7", "city": "Mbandjok", "lon": "10.9333333"}, {"lat": "3.7", "city": "Mbandjouk", "lon": "10.9333333"}, {"lat": "3.6166667", "city": "Mbanga", "lon": "11.75"}, {"lat": "4.5666667", "city": "Mbangasina", "lon": "11.3833333"}, {"lat": "3.7833333", "city": "Mbang", "lon": "12.3666667"}, {"lat": "3.7833333", "city": "Mbankomo", "lon": "11.3833333"}, {"lat": "4.2666667", "city": "Mban", "lon": "11.5333333"}, {"lat": "6.1333333", "city": "Mbantim-Bang", "lon": "12.4833333"}, {"lat": "5.4", "city": "Mbar\u00e9", "lon": "12.3166667"}, {"lat": "4.45", "city": "Mbasila", "lon": "11.4333333"}, {"lat": "3.9", "city": "M'Bata", "lon": "11.5166667"}, {"lat": "5.0833333", "city": "Mbati", "lon": "12.0666667"}, {"lat": "4.3333333", "city": "Mbazoa", "lon": "11.45"}, {"lat": "3.6333333", "city": "Mbede-Ngubu's", "lon": "11.9333333"}, {"lat": "3.5333333", "city": "Mb\u00e9ga", "lon": "11.65"}, {"lat": "3.7", "city": "Mb\u00e9koa", "lon": "12.0333333"}, {"lat": "3.8833333", "city": "Mb\u00e9lalen", "lon": "11.8666667"}, {"lat": "4.1", "city": "Mb\u00e9l\u00e9ki\u00e9", "lon": "11.3666667"}, {"lat": "4.2", "city": "Mb\u00e9l\u00e9", "lon": "11.5166667"}, {"lat": "4.2833333", "city": "Mb\u00e9", "lon": "11.8666667"}, {"lat": "5.2333333", "city": "Mbemdem", "lon": "12.1833333"}, {"lat": "3.4833333", "city": "Mbemndjok", "lon": "11.15"}, {"lat": "4.7333333", "city": "Mbendzi", "lon": "12.0166667"}, {"lat": "4.4666667", "city": "Mb\u00e9n\u00e9ga", "lon": "11.35"}, {"lat": "5.4666667", "city": "Mbengang", "lon": "12.3333333"}, {"lat": "4.7833333", "city": "Mbengueni", "lon": "12.05"}, {"lat": "4.0666667", "city": "Mb\u00e9noa", "lon": "11.9"}, {"lat": "4.8", "city": "Mbenola", "lon": "12.6333333"}, {"lat": "5.4333333", "city": "Mbering", "lon": "12.3166667"}, {"lat": "4.1166667", "city": "Mb\u00e9si", "lon": "11.8"}, {"lat": "4.6166667", "city": "Mbet", "lon": "13.0166667"}, {"lat": "3.8166667", "city": "Mbeuga", "lon": "12.45"}, {"lat": "3.7166667", "city": "Mb\u00e9ying\u00e9", "lon": "11.3166667"}, {"lat": "4.5333333", "city": "Mbiam", "lon": "12.5166667"}, {"lat": "3.75", "city": "Mbi\u00e9l\u00e9", "lon": "12.35"}, {"lat": "3.75", "city": "Mbile", "lon": "12.35"}, {"lat": "3.7166667", "city": "Mbili", "lon": "12.15"}, {"lat": "3.5166667", "city": "Mbing", "lon": "11.2166667"}, {"lat": "3.3166667", "city": "Mbing Yelkas", "lon": "11.1"}, {"lat": "4.1666667", "city": "Mboa", "lon": "12.5"}, {"lat": "4.3166667", "city": "Mbog\u00e9", "lon": "12.7666667"}, {"lat": "3.6666667", "city": "Mboghom", "lon": "10.9833333"}, {"lat": "3.6666667", "city": "Mboglom", "lon": "10.9833333"}, {"lat": "4.3166667", "city": "Mbok\u00e9", "lon": "12.6166667"}, {"lat": "3.8", "city": "Mbok", "lon": "11.95"}, {"lat": "4.5", "city": "Mbola", "lon": "11.0833333"}, {"lat": "4.6833333", "city": "Mbomenjok", "lon": "12.6833333"}, {"lat": "4.8333333", "city": "Mbong", "lon": "12.4333333"}, {"lat": "3.8", "city": "Mbongo", "lon": "11.2333333"}, {"lat": "4.25", "city": "Mboni", "lon": "12.7333333"}, {"lat": "4.8166667", "city": "Mboum", "lon": "12.7166667"}, {"lat": "3.8333333", "city": "Mboun", "lon": "11.9333333"}, {"lat": "4.6166667", "city": "M\u00e9ba", "lon": "12.9833333"}, {"lat": "4.25", "city": "M\u00e9bangadzama", "lon": "11.8666667"}, {"lat": "4.35", "city": "Mebanga", "lon": "12.3"}, {"lat": "3.8666667", "city": "Mebang", "lon": "11.7833333"}, {"lat": "4.0333333", "city": "Meban", "lon": "12.0"}, {"lat": "4.3166667", "city": "M\u00e9basa", "lon": "11.6333333"}, {"lat": "3.9833333", "city": "M\u00e9bem", "lon": "11.2333333"}, {"lat": "4.25", "city": "M\u00e9bengadzama", "lon": "11.8666667"}, {"lat": "3.7166667", "city": "Mebengadzomo", "lon": "11.9"}, {"lat": "4.0166667", "city": "Mebessi", "lon": "12.35"}, {"lat": "4.0833333", "city": "M\u00e9bo\u00e9", "lon": "11.7666667"}, {"lat": "4.7666667", "city": "M\u00e9bol\u00e9", "lon": "12.1833333"}, {"lat": "4.05", "city": "M\u00e9bom\u00e9nyi\u00e9", "lon": "11.7"}, {"lat": "4.1666667", "city": "M\u00e9bomo", "lon": "11.3166667"}, {"lat": "3.85", "city": "M\u00e9bou", "lon": "11.7333333"}, {"lat": "4.7666667", "city": "M\u00e9dalmbom", "lon": "12.8333333"}, {"lat": "5.3666667", "city": "Medjambouni", "lon": "12.4333333"}, {"lat": "3.6", "city": "Medjap", "lon": "11.9833333"}, {"lat": "4.0333333", "city": "M\u00e9doumbou", "lon": "11.6666667"}, {"lat": "3.7", "city": "M\u00e9doumou", "lon": "12.1333333"}, {"lat": "3.6", "city": "Medzek", "lon": "12.2166667"}, {"lat": "3.7666667", "city": "M\u00e9fad\u00e9", "lon": "12.6166667"}, {"lat": "3.85", "city": "M\u00e9fomo", "lon": "11.2666667"}, {"lat": "3.7", "city": "M\u00e9fou", "lon": "11.5666667"}, {"lat": "5.5", "city": "M\u00e9gang", "lon": "12.3833333"}, {"lat": "4.6", "city": "Megangm\u00e9", "lon": "12.2333333"}, {"lat": "5.1666667", "city": "M\u00e9gobi", "lon": "12.1166667"}, {"lat": "3.7666667", "city": "M\u00e9handan", "lon": "11.5333333"}, {"lat": "4.25", "city": "M\u00e9kaa", "lon": "11.8166667"}, {"lat": "4.0166667", "city": "Mekak", "lon": "11.2"}, {"lat": "4.25", "city": "Mekala", "lon": "12.15"}, {"lat": "4.1833333", "city": "Meka", "lon": "12.4333333"}, {"lat": "4.35", "city": "M\u00e9kim\u00e9bodo", "lon": "11.5"}, {"lat": "3.8166667", "city": "Meko\u00e9", "lon": "11.65"}, {"lat": "4.3", "city": "M\u00e9komba", "lon": "11.8833333"}, {"lat": "4.15", "city": "Mekom", "lon": "12.1"}, {"lat": "3.4", "city": "M\u00e9komo", "lon": "11.6333333"}, {"lat": "4.9333333", "city": "Mekone II", "lon": "12.7166667"}, {"lat": "4.8666667", "city": "Mekone I", "lon": "12.9"}, {"lat": "4.15", "city": "Mekouma", "lon": "12.5833333"}, {"lat": "3.75", "city": "M\u00e9koumbou", "lon": "11.4333333"}, {"lat": "3.7666667", "city": "M\u00e9lan", "lon": "12.2833333"}, {"lat": "4.2", "city": "Mel\u00e9ne", "lon": "12.1666667"}, {"lat": "3.5166667", "city": "Melen", "lon": "11.3833333"}, {"lat": "4.3166667", "city": "M\u00e9lik", "lon": "11.5333333"}, {"lat": "4.15", "city": "Melo", "lon": "12.2833333"}, {"lat": "3.35", "city": "M\u00e9londo", "lon": "10.9666667"}, {"lat": "5.1833333", "city": "M\u00e9loumvi", "lon": "12.4666667"}, {"lat": "5.1833333", "city": "Melounvoun", "lon": "12.4666667"}, {"lat": "4.4333333", "city": "Membine", "lon": "12.2333333"}, {"lat": "3.8", "city": "M\u00e9mel", "lon": "10.75"}, {"lat": "4.9", "city": "M\u00e9mia", "lon": "12.5333333"}, {"lat": "3.4666667", "city": "M\u00e9miam", "lon": "11.6"}, {"lat": "4.8166667", "city": "Memvounga", "lon": "12.5333333"}, {"lat": "4.55", "city": "Mendjuo", "lon": "12.15"}, {"lat": "4.6666667", "city": "Mendom", "lon": "12.1333333"}, {"lat": "4.55", "city": "Mendoumb\u00e9", "lon": "12.6833333"}, {"lat": "4.5833333", "city": "Mendoume", "lon": "12.9166667"}, {"lat": "4.5833333", "city": "Mendoum", "lon": "12.9166667"}, {"lat": "4.4333333", "city": "Mengaa", "lon": "12.7166667"}, {"lat": "4.85", "city": "Menga\u00e9", "lon": "12.4333333"}, {"lat": "4.15", "city": "Mengala", "lon": "11.95"}, {"lat": "4.0333333", "city": "Mengam\u00e9", "lon": "12.2333333"}, {"lat": "4.4333333", "city": "Menga", "lon": "12.7166667"}, {"lat": "3.7166667", "city": "Mengana", "lon": "12.3333333"}, {"lat": "4.25", "city": "Mengane", "lon": "12.3666667"}, {"lat": "3.8833333", "city": "Mengang", "lon": "12.05"}, {"lat": "3.5666667", "city": "Mengangu\u00e8s", "lon": "10.7"}, {"lat": "4.0", "city": "Mengan", "lon": "12.1833333"}, {"lat": "3.4333333", "city": "Meng\u00e9m\u00e9", "lon": "11.7"}, {"lat": "4.3833333", "city": "Mengoa", "lon": "12.4"}, {"lat": "4.5333333", "city": "Mengond\u00e9", "lon": "12.0833333"}, {"lat": "3.7", "city": "Mengong", "lon": "11.45"}, {"lat": "5.05", "city": "Mengor", "lon": "12.0166667"}, {"lat": "4.15", "city": "Mengossa", "lon": "12.05"}, {"lat": "3.9", "city": "Mengou", "lon": "12.1333333"}, {"lat": "4.7833333", "city": "Mengue", "lon": "13.0166667"}, {"lat": "5.4", "city": "Menguendi", "lon": "12.8333333"}, {"lat": "3.8", "city": "Menvini", "lon": "11.2833333"}, {"lat": "3.6666667", "city": "Menyeng Adzap", "lon": "11.35"}, {"lat": "3.9666667", "city": "Menyoum\u00e9kombo", "lon": "11.7833333"}, {"lat": "3.7166667", "city": "M\u00e9sak", "lon": "12.5666667"}, {"lat": "3.8833333", "city": "Mesa", "lon": "11.4833333"}, {"lat": "3.8", "city": "Mesamindongo", "lon": "11.5166667"}, {"lat": "3.65", "city": "Mesing", "lon": "11.7166667"}, {"lat": "3.7333333", "city": "Mesok II", "lon": "11.2666667"}, {"lat": "3.75", "city": "Mesok I", "lon": "11.3"}, {"lat": "4.45", "city": "Messagu\u00e9", "lon": "12.9166667"}, {"lat": "4.4", "city": "Messa", "lon": "12.65"}, {"lat": "4.3", "city": "Messassa", "lon": "12.0166667"}, {"lat": "4.8333333", "city": "Mess\u00e9gu\u00e9", "lon": "12.5666667"}, {"lat": "4.8333333", "city": "Mess\u00e9k\u00e9", "lon": "12.5666667"}, {"lat": "4.5833333", "city": "Messeng", "lon": "12.2"}, {"lat": "4.5333333", "city": "Messibigui", "lon": "12.3666667"}, {"lat": "3.9333333", "city": "Metak", "lon": "11.4166667"}, {"lat": "5.4", "city": "Metchim", "lon": "12.0666667"}, {"lat": "4.65", "city": "Met\u00e9man\u00e9", "lon": "12.1333333"}, {"lat": "4.2666667", "city": "Met\u00e9", "lon": "12.2333333"}, {"lat": "3.3333333", "city": "M\u00e9tomba", "lon": "11.3333333"}, {"lat": "4.1166667", "city": "Meto", "lon": "12.6166667"}, {"lat": "3.85", "city": "M\u00e9tomo", "lon": "11.2666667"}, {"lat": "4.6666667", "city": "Metor\u00e9", "lon": "12.0833333"}, {"lat": "3.8666667", "city": "Meukong", "lon": "12.2333333"}, {"lat": "3.7166667", "city": "Meutondok", "lon": "12.5166667"}, {"lat": "3.7", "city": "Meuyos", "lon": "12.5333333"}, {"lat": "3.3833333", "city": "M\u00e9vam\u00e9bot", "lon": "11.2666667"}, {"lat": "4.2", "city": "M\u00e9vam\u00e9boto", "lon": "11.9666667"}, {"lat": "3.8333333", "city": "M\u00e9ven", "lon": "11.7666667"}, {"lat": "4.0166667", "city": "Mevo Mevo", "lon": "12.0166667"}, {"lat": "4.2833333", "city": "Mevong", "lon": "12.3"}, {"lat": "4.8333333", "city": "Mewom\u00e9", "lon": "12.55"}, {"lat": "3.85", "city": "M\u00e9woulou", "lon": "11.95"}, {"lat": "4.4833333", "city": "Mewout", "lon": "12.35"}, {"lat": "4.8", "city": "Meyak", "lon": "12.95"}, {"lat": "4.65", "city": "Meyan\u00e9", "lon": "12.1833333"}, {"lat": "4.1166667", "city": "Meyek", "lon": "12.3166667"}, {"lat": "5.95", "city": "Mey\u00e9r\u00e9", "lon": "12.3166667"}, {"lat": "4.1833333", "city": "Meyete", "lon": "12.1333333"}, {"lat": "3.6", "city": "M\u00e9yila", "lon": "11.3666667"}, {"lat": "3.5666667", "city": "M\u00e9yo", "lon": "11.9333333"}, {"lat": "3.9333333", "city": "M\u00e9yos", "lon": "12.6833333"}, {"lat": "4.5", "city": "Meyosso", "lon": "12.3333333"}, {"lat": "3.4333333", "city": "M\u00e9zali", "lon": "11.3333333"}, {"lat": "4.2666667", "city": "Meza", "lon": "12.1333333"}, {"lat": "4.4666667", "city": "Mezassa", "lon": "12.3666667"}, {"lat": "4.4166667", "city": "Mezass", "lon": "12.1166667"}, {"lat": "4.0833333", "city": "Mfand\u00e9na", "lon": "11.8833333"}, {"lat": "4.2166667", "city": "Mf\u00e9koundi", "lon": "11.9166667"}, {"lat": "3.4666667", "city": "Mfida", "lon": "11.3"}, {"lat": "4.0333333", "city": "Mfomakak", "lon": "11.5666667"}, {"lat": "4.6333333", "city": "Mfomal\u00e8ne", "lon": "12.55"}, {"lat": "4.1666667", "city": "Mfomo", "lon": "11.3833333"}, {"lat": "3.9666667", "city": "Mfou", "lon": "11.9333333"}, {"lat": "4.6", "city": "Mgbaga", "lon": "12.9666667"}, {"lat": "4.2666667", "city": "Miambo", "lon": "12.9"}, {"lat": "3.8", "city": "Mian", "lon": "11.3333333"}, {"lat": "4.7333333", "city": "Miba", "lon": "12.45"}, {"lat": "3.8666667", "city": "Miend\u00e9", "lon": "12.3166667"}, {"lat": "3.7333333", "city": "Mijem's", "lon": "10.8166667"}, {"lat": "3.9", "city": "Mimbang", "lon": "12.0166667"}, {"lat": "3.9", "city": "Mimban", "lon": "12.0166667"}, {"lat": "4.4833333", "city": "Mimb\u00e9l\u00e9", "lon": "12.4833333"}, {"lat": "3.8666667", "city": "Mimboman", "lon": "11.55"}, {"lat": "3.85", "city": "Minbang", "lon": "12.0666667"}, {"lat": "4.0", "city": "Mindombo", "lon": "11.8166667"}, {"lat": "3.5333333", "city": "Mindong", "lon": "11.4166667"}, {"lat": "4.4166667", "city": "Mindouga", "lon": "11.4666667"}, {"lat": "3.8333333", "city": "Mindzi\u00e9", "lon": "11.8333333"}, {"lat": "4.0", "city": "Mindzomo", "lon": "11.5166667"}, {"lat": "4.25", "city": "Mingama", "lon": "11.5333333"}, {"lat": "3.8666667", "city": "Mingek", "lon": "11.2666667"}, {"lat": "3.3833333", "city": "Ming\u00e9m\u00e9", "lon": "11.15"}, {"lat": "3.5833333", "city": "Mingeumeu", "lon": "12.25"}, {"lat": "4.4", "city": "Mingon", "lon": "11.45"}, {"lat": "3.5666667", "city": "Minifoumou", "lon": "11.8166667"}, {"lat": "4.1833333", "city": "Minkama", "lon": "11.5833333"}, {"lat": "3.5666667", "city": "Minka", "lon": "11.1333333"}, {"lat": "4.1833333", "city": "Minkana", "lon": "11.5833333"}, {"lat": "3.7666667", "city": "Minkan", "lon": "11.5166667"}, {"lat": "3.6333333", "city": "Minkoa Mimbang", "lon": "11.8166667"}, {"lat": "3.95", "city": "Minkoa", "lon": "11.3"}, {"lat": "4.25", "city": "Minkomib\u00e9", "lon": "11.8166667"}, {"lat": "3.8833333", "city": "Minkomilala", "lon": "11.75"}, {"lat": "4.1666667", "city": "Minko", "lon": "12.4333333"}, {"lat": "4.7333333", "city": "Minkom", "lon": "12.45"}, {"lat": "4.3833333", "city": "Minkouma", "lon": "11.7833333"}, {"lat": "4.1333333", "city": "Minkoumou", "lon": "11.7833333"}, {"lat": "3.8333333", "city": "Minlaba", "lon": "11.8666667"}, {"lat": "3.65", "city": "Minlop", "lon": "12.2166667"}, {"lat": "4.0333333", "city": "Minso II", "lon": "11.2833333"}, {"lat": "4.0833333", "city": "Minso I", "lon": "11.2666667"}, {"lat": "4.5833333", "city": "Minta", "lon": "12.8"}, {"lat": "4.0", "city": "Mintotomo", "lon": "11.5166667"}, {"lat": "4.0833333", "city": "Mintsang", "lon": "11.6"}, {"lat": "3.7166667", "city": "Moadoum", "lon": "12.5"}, {"lat": "5.4166667", "city": "Mogo", "lon": "12.5166667"}, {"lat": "4.4166667", "city": "Mokala", "lon": "11.4333333"}, {"lat": "3.8666667", "city": "Mokohon", "lon": "12.2333333"}, {"lat": "3.8833333", "city": "Mokolo", "lon": "11.5"}, {"lat": "4.1333333", "city": "Molane", "lon": "12.4833333"}, {"lat": "3.9166667", "city": "Mol\u00e9", "lon": "12.5"}, {"lat": "3.95", "city": "Momebelinga", "lon": "11.6666667"}, {"lat": "3.6", "city": "Mom", "lon": "11.1833333"}, {"lat": "3.55", "city": "Mom-Nug's", "lon": "11.0333333"}, {"lat": "4.4166667", "city": "Momo", "lon": "11.4833333"}, {"lat": "4.2333333", "city": "Monabo", "lon": "11.2666667"}, {"lat": "4.2666667", "city": "Monat\u00e9l\u00e9 II", "lon": "11.2666667"}, {"lat": "4.2666667", "city": "Monat\u00e9l\u00e9", "lon": "11.2"}, {"lat": "4.1666667", "city": "Mongwossa", "lon": "12.2166667"}, {"lat": "3.7", "city": "Mopfou", "lon": "11.5666667"}, {"lat": "4.75", "city": "Mouken", "lon": "11.15"}, {"lat": "4.6833333", "city": "Mouko", "lon": "11.2"}, {"lat": "3.7833333", "city": "Moumou", "lon": "11.9833333"}, {"lat": "4.8833333", "city": "Mouzi", "lon": "11.2"}, {"lat": "4.8666667", "city": "Mpandang", "lon": "12.8333333"}, {"lat": "3.75", "city": "Mpand", "lon": "12.6333333"}, {"lat": "4.3833333", "city": "Mpandz\u00e9", "lon": "12.5833333"}, {"lat": "4.6666667", "city": "Mpang", "lon": "12.2"}, {"lat": "4.0666667", "city": "Mvaa", "lon": "11.3166667"}, {"lat": "4.2666667", "city": "Mvab\u00e9kone", "lon": "12.0"}, {"lat": "4.45", "city": "Mvamba", "lon": "12.3166667"}, {"lat": "4.0666667", "city": "Mva", "lon": "11.3166667"}, {"lat": "4.1833333", "city": "Mvanda", "lon": "12.8333333"}, {"lat": "3.6833333", "city": "Mvan\u00e9", "lon": "12.5833333"}, {"lat": "4.0333333", "city": "Mvanessi", "lon": "12.1166667"}, {"lat": "3.6166667", "city": "Mvan", "lon": "12.3"}, {"lat": "3.9", "city": "Mv\u00e9 II", "lon": "11.7166667"}, {"lat": "3.9166667", "city": "Mv\u00e9 I", "lon": "11.7166667"}, {"lat": "4.2666667", "city": "Mv\u00e9", "lon": "12.3333333"}, {"lat": "3.2833333", "city": "Mvengu\u00e9", "lon": "11.0166667"}, {"lat": "4.6166667", "city": "Mvet", "lon": "13.0166667"}, {"lat": "3.2833333", "city": "Mving\u00e9 I", "lon": "11.0166667"}, {"lat": "4.2166667", "city": "Mvionga", "lon": "12.7166667"}, {"lat": "3.9833333", "city": "Mvolo", "lon": "12.0333333"}, {"lat": "3.8333333", "city": "Mvoly\u00e9", "lon": "11.5"}, {"lat": "4.3166667", "city": "Mvombo", "lon": "12.45"}, {"lat": "4.2333333", "city": "Mvomdoumba", "lon": "11.7"}, {"lat": "4.2333333", "city": "Mvom\u00e9kak", "lon": "11.2333333"}, {"lat": "4.1833333", "city": "Mvom", "lon": "11.9166667"}, {"lat": "3.2833333", "city": "Mvongo", "lon": "11.0166667"}, {"lat": "4.5166667", "city": "Mvono", "lon": "12.3666667"}, {"lat": "4.0666667", "city": "Mvoua", "lon": "11.4333333"}, {"lat": "3.4833333", "city": "Mvounkeng", "lon": "11.3666667"}, {"lat": "5.9333333", "city": "Mvoutoum", "lon": "12.3"}, {"lat": "3.2833333", "city": "Mwongo", "lon": "11.0166667"}, {"lat": "4.6166667", "city": "Myet", "lon": "13.0166667"}, {"lat": "4.05", "city": "Mying", "lon": "11.9166667"}, {"lat": "4.35", "city": "Nachtigal", "lon": "11.6333333"}, {"lat": "4.2833333", "city": "Nalasi", "lon": "11.6333333"}, {"lat": "4.6833333", "city": "Nanga Eboko", "lon": "12.3666667"}, {"lat": "4.65", "city": "Nangan", "lon": "12.45"}, {"lat": "4.65", "city": "Nanga's", "lon": "12.45"}, {"lat": "4.65", "city": "Nang-Ekak", "lon": "12.5833333"}, {"lat": "4.8333333", "city": "Nangman\u00e9", "lon": "12.3833333"}, {"lat": "3.3666667", "city": "Nbabewa", "lon": "11.2166667"}, {"lat": "4.3166667", "city": "Nbananga", "lon": "12.1"}, {"lat": "3.6166667", "city": "Ndagnan", "lon": "11.5833333"}, {"lat": "4.6333333", "city": "Ndameka", "lon": "12.15"}, {"lat": "4.6", "city": "Ndandouk", "lon": "12.7"}, {"lat": "3.6333333", "city": "Ndanging I", "lon": "11.6166667"}, {"lat": "3.5666667", "city": "Ndanging", "lon": "11.6"}, {"lat": "5.15", "city": "Ndani", "lon": "12.1"}, {"lat": "4.0166667", "city": "Ndel\u00e9", "lon": "12.55"}, {"lat": "4.0166667", "city": "Nd\u00e9ll\u00e9", "lon": "12.55"}, {"lat": "4.6666667", "city": "Nd\u00e9ma", "lon": "10.7833333"}, {"lat": "4.5", "city": "Ndemba", "lon": "12.3666667"}, {"lat": "4.8333333", "city": "Nd\u00e9n\u00e9", "lon": "12.9166667"}, {"lat": "3.8166667", "city": "Nden", "lon": "11.3"}, {"lat": "3.8833333", "city": "Ndibesong", "lon": "11.7666667"}, {"lat": "3.7666667", "city": "Ndibi", "lon": "12.2166667"}, {"lat": "3.3666667", "city": "Ndika", "lon": "11.3166667"}, {"lat": "4.7666667", "city": "Ndikinemeki", "lon": "10.8333333"}, {"lat": "4.7666667", "city": "Ndikinim\u00e9ki", "lon": "10.8333333"}, {"lat": "4.6666667", "city": "Ndikoko", "lon": "10.8333333"}, {"lat": "4.6333333", "city": "Ndimi", "lon": "11.6666667"}, {"lat": "4.6166667", "city": "Nding", "lon": "12.65"}, {"lat": "4.1333333", "city": "Nditsi", "lon": "12.0166667"}, {"lat": "4.3833333", "city": "Ndjam\u00e9", "lon": "11.6333333"}, {"lat": "5.4", "city": "Ndja", "lon": "12.2"}, {"lat": "4.7333333", "city": "Ndjimekong", "lon": "12.1333333"}, {"lat": "4.75", "city": "Ndjok", "lon": "13.0333333"}, {"lat": "3.8666667", "city": "Ndjok Nkong I", "lon": "10.9"}, {"lat": "4.8166667", "city": "Ndjol\u00e9", "lon": "11.9333333"}, {"lat": "4.8166667", "city": "Ndjomb\u00e9", "lon": "12.6666667"}, {"lat": "3.9", "city": "N'Djong Kong", "lon": "10.8833333"}, {"lat": "3.9", "city": "Ndjonkong", "lon": "10.8833333"}, {"lat": "4.4", "city": "Ndjor\u00e9", "lon": "11.8166667"}, {"lat": "4.4833333", "city": "Ndjoumb\u00e9", "lon": "12.7166667"}, {"lat": "3.45", "city": "Ndobo", "lon": "10.9833333"}, {"lat": "4.7166667", "city": "Ndokalend\u00e9", "lon": "10.7833333"}, {"lat": "4.85", "city": "Ndokhok", "lon": "10.8333333"}, {"lat": "4.85", "city": "Ndokohoc", "lon": "10.8333333"}, {"lat": "4.6166667", "city": "Ndokon", "lon": "10.65"}, {"lat": "4.65", "city": "Ndokononoro", "lon": "10.75"}, {"lat": "4.8", "city": "Ndoktol", "lon": "10.8166667"}, {"lat": "4.6833333", "city": "Ndokyab", "lon": "10.8833333"}, {"lat": "4.6166667", "city": "Ndombam", "lon": "12.25"}, {"lat": "4.0166667", "city": "Ndombo", "lon": "11.9166667"}, {"lat": "4.2", "city": "Ndomnjinge", "lon": "11.05"}, {"lat": "4.35", "city": "Ndo", "lon": "11.95"}, {"lat": "4.4666667", "city": "Ndong\u00e9lang", "lon": "11.4166667"}, {"lat": "3.7833333", "city": "Ndong", "lon": "11.5833333"}, {"lat": "4.6", "city": "Ndoumba", "lon": "12.2833333"}, {"lat": "4.45", "city": "Ndounda", "lon": "11.3666667"}, {"lat": "4.25", "city": "Ndoup", "lon": "11.1833333"}, {"lat": "4.45", "city": "N'Dui", "lon": "11.6333333"}, {"lat": "4.15", "city": "Ndzana", "lon": "11.65"}, {"lat": "3.7", "city": "Ndzandouan", "lon": "11.9666667"}, {"lat": "3.65", "city": "Ndzi\u00e9fidi", "lon": "11.6"}, {"lat": "4.3666667", "city": "Ndzi", "lon": "11.7166667"}, {"lat": "4.75", "city": "Nefant\u00e9", "lon": "10.9"}, {"lat": "4.3333333", "city": "N\u00e9ga", "lon": "11.2833333"}, {"lat": "4.8333333", "city": "Nene", "lon": "12.9166667"}, {"lat": "3.7833333", "city": "N\u00e9so", "lon": "12.5333333"}, {"lat": "4.1166667", "city": "Neyek", "lon": "12.3166667"}, {"lat": "4.1833333", "city": "Ngada", "lon": "12.5833333"}, {"lat": "3.7166667", "city": "Ngala", "lon": "12.4166667"}, {"lat": "3.5333333", "city": "Ngalan", "lon": "11.5166667"}, {"lat": "4.05", "city": "Ngali II", "lon": "11.6"}, {"lat": "4.0166667", "city": "Ngali I", "lon": "11.5833333"}, {"lat": "4.4333333", "city": "Ngamba", "lon": "12.0166667"}, {"lat": "3.7666667", "city": "Ngam", "lon": "12.5833333"}, {"lat": "3.7833333", "city": "Nganda II", "lon": "11.0833333"}, {"lat": "5.1166667", "city": "Ngandou", "lon": "12.1"}, {"lat": "4.3166667", "city": "Nganga", "lon": "12.55"}, {"lat": "3.75", "city": "Ngang", "lon": "11.7"}, {"lat": "5.3", "city": "Ngan", "lon": "12.2166667"}, {"lat": "4.4666667", "city": "Ngaound\u00e9", "lon": "11.8166667"}, {"lat": "4.8", "city": "Ngara", "lon": "12.1833333"}, {"lat": "3.65", "city": "Ngat II", "lon": "11.7666667"}, {"lat": "4.05", "city": "Ngat I", "lon": "11.85"}, {"lat": "3.4166667", "city": "Ngat", "lon": "11.5666667"}, {"lat": "3.6666667", "city": "Ngatsongo", "lon": "11.4333333"}, {"lat": "4.2333333", "city": "Ngbaba II", "lon": "11.2833333"}, {"lat": "4.2", "city": "Ngbaba I", "lon": "11.25"}, {"lat": "3.3666667", "city": "Ngen", "lon": "11.6333333"}, {"lat": "4.4333333", "city": "Ng\u00e9t\u00e9", "lon": "11.6"}, {"lat": "3.5833333", "city": "Ngibasal", "lon": "10.8"}, {"lat": "4.7166667", "city": "Ngila", "lon": "11.6833333"}, {"lat": "3.85", "city": "Nginda", "lon": "11.9166667"}, {"lat": "4.85", "city": "Nging", "lon": "11.2166667"}, {"lat": "4.4333333", "city": "Ngoakomba", "lon": "12.65"}, {"lat": "5.1333333", "city": "Ngoan", "lon": "12.1"}, {"lat": "3.9833333", "city": "Ngoantet", "lon": "11.8833333"}, {"lat": "3.9166667", "city": "Ngoas", "lon": "11.3333333"}, {"lat": "5.8166667", "city": "Ngoatsabe", "lon": "12.2833333"}, {"lat": "4.3333333", "city": "Ngodoumou", "lon": "12.9666667"}, {"lat": "3.8", "city": "Ngo\u00e9bi", "lon": "12.55"}, {"lat": "4.3333333", "city": "Ngoksa", "lon": "11.3333333"}, {"lat": "4.1166667", "city": "Ngol\u00e9bomon", "lon": "12.3333333"}, {"lat": "3.7", "city": "Ngol\u00e9", "lon": "12.4"}, {"lat": "4.2333333", "city": "Ngomban", "lon": "11.7833333"}, {"lat": "3.5666667", "city": "Ngombas", "lon": "11.15"}, {"lat": "4.2333333", "city": "Ngomo", "lon": "11.4166667"}, {"lat": "3.8833333", "city": "Ngona", "lon": "11.6"}, {"lat": "4.1666667", "city": "Ngondo", "lon": "12.75"}, {"lat": "3.75", "city": "Ngong", "lon": "10.9833333"}, {"lat": "4.2166667", "city": "Ngongo", "lon": "11.4833333"}, {"lat": "3.5666667", "city": "Ngon", "lon": "11.2666667"}, {"lat": "4.7666667", "city": "Ngonovoa", "lon": "12.0166667"}, {"lat": "4.7666667", "city": "Ngonovo", "lon": "12.0166667"}, {"lat": "5.4833333", "city": "Ngontan", "lon": "12.3333333"}, {"lat": "4.0333333", "city": "Ngonwa", "lon": "11.9666667"}, {"lat": "4.3833333", "city": "Ngoo", "lon": "12.8333333"}, {"lat": "4.95", "city": "Ngoro", "lon": "11.3833333"}, {"lat": "4.95", "city": "Ngorro", "lon": "11.3833333"}, {"lat": "3.95", "city": "Ngose", "lon": "11.9166667"}, {"lat": "4.1", "city": "Ngoubi", "lon": "12.4166667"}, {"lat": "3.7166667", "city": "Ngoubou", "lon": "12.2166667"}, {"lat": "4.1333333", "city": "Ngougoumou", "lon": "12.0333333"}, {"lat": "3.7166667", "city": "Ngoul\u00e9makong", "lon": "11.5"}, {"lat": "4.3833333", "city": "Ngoulemekong", "lon": "12.55"}, {"lat": "3.8", "city": "Ngoulmekong", "lon": "12.3"}, {"lat": "3.7666667", "city": "Ngoulminanga", "lon": "11.9333333"}, {"lat": "4.1333333", "city": "Ngoumesseng", "lon": "12.5166667"}, {"lat": "3.5833333", "city": "Ngoum", "lon": "11.3"}, {"lat": "3.5833333", "city": "Ngoumou", "lon": "11.3"}, {"lat": "4.0666667", "city": "Ngoundou", "lon": "11.85"}, {"lat": "3.3666667", "city": "Ngoungal", "lon": "11.2333333"}, {"lat": "3.6", "city": "Ngoungoum", "lon": "11.2166667"}, {"lat": "4.05", "city": "Ngoungoumou", "lon": "11.6333333"}, {"lat": "4.0166667", "city": "Ngoun", "lon": "12.4833333"}, {"lat": "4.2666667", "city": "Ngouong", "lon": "12.8"}, {"lat": "3.9", "city": "Ngouso", "lon": "11.5666667"}, {"lat": "3.9166667", "city": "Ngoya II", "lon": "11.4666667"}, {"lat": "3.95", "city": "Ngoya I", "lon": "11.45"}, {"lat": "4.3833333", "city": "Ngu\u00e9l\u00e9mendouka", "lon": "12.9166667"}, {"lat": "3.5833333", "city": "Nguibassal", "lon": "10.8"}, {"lat": "4.7166667", "city": "Nguila", "lon": "11.6833333"}, {"lat": "4.7166667", "city": "N'Guila", "lon": "11.6833333"}, {"lat": "4.05", "city": "Nguinda", "lon": "12.1"}, {"lat": "4.7833333", "city": "Nguiniouma", "lon": "12.7666667"}, {"lat": "3.8", "city": "Ngulemakong", "lon": "11.2"}, {"lat": "5.45", "city": "Nguyimi", "lon": "12.3166667"}, {"lat": "5.9333333", "city": "Niadaba", "lon": "12.8833333"}, {"lat": "4.5833333", "city": "Niamanga II", "lon": "11.3166667"}, {"lat": "4.35", "city": "Niamanga I", "lon": "11.1333333"}, {"lat": "4.5666667", "city": "Niambala", "lon": "11.3166667"}, {"lat": "4.3333333", "city": "Niamoumou", "lon": "12.4833333"}, {"lat": "4.1", "city": "Niamvoudou", "lon": "12.65"}, {"lat": "6.2333333", "city": "Niandjida", "lon": "12.5333333"}, {"lat": "6.2333333", "city": "Nianjida", "lon": "12.5333333"}, {"lat": "5.15", "city": "Niansom", "lon": "11.1166667"}, {"lat": "4.7666667", "city": "Niatchotta", "lon": "11.2833333"}, {"lat": "3.8166667", "city": "Niato", "lon": "11.9833333"}, {"lat": "4.3833333", "city": "Niayess\u00e9", "lon": "12.7166667"}, {"lat": "4.1", "city": "Niazongo", "lon": "12.6833333"}, {"lat": "4.5666667", "city": "Nie", "lon": "12.9"}, {"lat": "4.2", "city": "Niga", "lon": "11.3333333"}, {"lat": "4.6333333", "city": "Niloukou", "lon": "10.8833333"}, {"lat": "4.5", "city": "Nindje", "lon": "10.8333333"}, {"lat": "4.5", "city": "Ning\u00e9", "lon": "10.8333333"}, {"lat": "4.5", "city": "Ninje", "lon": "10.8333333"}, {"lat": "4.5", "city": "Niombo", "lon": "12.25"}, {"lat": "4.4333333", "city": "Nio", "lon": "11.8666667"}, {"lat": "4.4", "city": "Nior\u00e9", "lon": "11.8166667"}, {"lat": "4.6333333", "city": "Nitoukou", "lon": "10.8833333"}, {"lat": "3.9", "city": "Njognkong", "lon": "10.8833333"}, {"lat": "3.6166667", "city": "Njok", "lon": "10.8"}, {"lat": "3.9666667", "city": "Njon Asi", "lon": "11.5166667"}, {"lat": "3.8333333", "city": "Nkadip", "lon": "11.2833333"}, {"lat": "4.2", "city": "Nkakombo", "lon": "12.35"}, {"lat": "5.1833333", "city": "Nkam", "lon": "11.1666667"}, {"lat": "3.7166667", "city": "Nkangasi\u00e9", "lon": "12.5"}, {"lat": "4.2666667", "city": "Nkang", "lon": "11.3166667"}, {"lat": "4.2", "city": "Nkankombo", "lon": "12.35"}, {"lat": "3.7666667", "city": "Nkasomo", "lon": "11.6166667"}, {"lat": "3.8166667", "city": "Nkil", "lon": "11.7333333"}, {"lat": "3.55", "city": "Nkilnsam", "lon": "11.4166667"}, {"lat": "3.6666667", "city": "Nkilzok II", "lon": "11.6666667"}, {"lat": "3.6833333", "city": "Nkilzok I", "lon": "11.6333333"}, {"lat": "3.6666667", "city": "Nkilzok", "lon": "11.6666667"}, {"lat": "4.15", "city": "Nking\u00e9", "lon": "11.3"}, {"lat": "3.6833333", "city": "Nkoabang", "lon": "11.4166667"}, {"lat": "3.3", "city": "Nkoab\u00e9", "lon": "11.2"}, {"lat": "4.2333333", "city": "Nkoabong", "lon": "11.35"}, {"lat": "3.5833333", "city": "Nkoakom", "lon": "11.35"}, {"lat": "4.2833333", "city": "Nkoakone", "lon": "12.2833333"}, {"lat": "4.1666667", "city": "Nkoambang", "lon": "12.5333333"}, {"lat": "4.3166667", "city": "Nkoayos", "lon": "11.7666667"}, {"lat": "4.0166667", "city": "Nkobdombo", "lon": "12.7333333"}, {"lat": "4.3333333", "city": "Nkobiba", "lon": "12.25"}, {"lat": "4.05", "city": "Nkodasa", "lon": "11.2166667"}, {"lat": "3.5833333", "city": "Nko\u00e9b\u00e9", "lon": "11.4333333"}, {"lat": "3.5333333", "city": "Nko\u00e9lon", "lon": "11.3166667"}, {"lat": "4.2", "city": "Nkohakombo", "lon": "12.35"}, {"lat": "3.85", "city": "N'Kola Afamba", "lon": "11.6666667"}, {"lat": "3.85", "city": "Nkolafamba", "lon": "11.6666667"}, {"lat": "3.9833333", "city": "Nkolaki\u00e9", "lon": "11.3833333"}, {"lat": "3.5166667", "city": "Nkolakono II", "lon": "11.3166667"}, {"lat": "3.55", "city": "Nkolakono I", "lon": "11.3333333"}, {"lat": "4.4333333", "city": "Nkolang", "lon": "11.4833333"}, {"lat": "4.15", "city": "Nkolasa", "lon": "11.2"}, {"lat": "3.7166667", "city": "Nkolasi", "lon": "11.6833333"}, {"lat": "3.9166667", "city": "Nkolato", "lon": "11.7833333"}, {"lat": "4.05", "city": "Nkolavolo II", "lon": "11.8333333"}, {"lat": "4.0666667", "city": "Nkolavolo I", "lon": "11.8666667"}, {"lat": "4.35", "city": "Nkolayos", "lon": "11.5"}, {"lat": "4.3333333", "city": "Nkolbana", "lon": "12.9"}, {"lat": "3.9833333", "city": "Nkolba", "lon": "11.7666667"}, {"lat": "3.7666667", "city": "Nkolbeb\u00e9", "lon": "11.95"}, {"lat": "3.9833333", "city": "Nkolbek", "lon": "12.0833333"}, {"lat": "3.35", "city": "Nkolb\u00e9wa III", "lon": "11.2166667"}, {"lat": "4.2833333", "city": "Nkolbibak", "lon": "11.5"}, {"lat": "3.8", "city": "Nkolbikogo", "lon": "11.5666667"}, {"lat": "3.85", "city": "Nkolbison", "lon": "11.6166667"}, {"lat": "3.7166667", "city": "Nkolbiyen", "lon": "11.4166667"}, {"lat": "4.3333333", "city": "Nkolbogo III", "lon": "11.5666667"}, {"lat": "4.4", "city": "Nkolbogo II", "lon": "11.5166667"}, {"lat": "4.35", "city": "Nkolbogo I", "lon": "11.4833333"}, {"lat": "4.3333333", "city": "Nkolbogo", "lon": "11.5666667"}, {"lat": "4.3166667", "city": "Nkoldjama II", "lon": "11.5"}, {"lat": "3.7", "city": "Nkoldja", "lon": "12.1166667"}, {"lat": "3.9333333", "city": "Nkoldjob\u00e9", "lon": "11.35"}, {"lat": "3.3333333", "city": "Nkol\u00e9ba\u00e9", "lon": "11.4333333"}, {"lat": "4.4833333", "city": "Nkol\u00e9basimbi", "lon": "11.45"}, {"lat": "4.4833333", "city": "Nkolebassimbi", "lon": "11.45"}, {"lat": "4.4333333", "city": "Nkol\u00e9bouma", "lon": "11.4333333"}, {"lat": "4.1666667", "city": "Nkol\u00e9douma", "lon": "11.5333333"}, {"lat": "4.25", "city": "Nkolegok", "lon": "12.0333333"}, {"lat": "4.3", "city": "Nkol\u00e9kono", "lon": "11.45"}, {"lat": "4.0666667", "city": "Nkol\u00e9kotking", "lon": "11.1666667"}, {"lat": "4.4666667", "city": "Nkol\u00e9louga", "lon": "11.3666667"}, {"lat": "3.55", "city": "Nkol\u00e9man", "lon": "11.25"}, {"lat": "3.6", "city": "Nkolemomodo", "lon": "11.3166667"}, {"lat": "3.75", "city": "Nkolenda", "lon": "11.5333333"}, {"lat": "3.95", "city": "Nkolesong", "lon": "11.4833333"}, {"lat": "4.4166667", "city": "Nkolesono", "lon": "11.5"}, {"lat": "4.5166667", "city": "Nkolessong", "lon": "12.0333333"}, {"lat": "4.0833333", "city": "Nkolesson", "lon": "12.0833333"}, {"lat": "4.3166667", "city": "Nkol\u00e9vodo", "lon": "11.6"}, {"lat": "4.0833333", "city": "Nkolfem", "lon": "11.2"}, {"lat": "3.9833333", "city": "Nkolfep", "lon": "11.4"}, {"lat": "3.7666667", "city": "Nkolfon", "lon": "11.4333333"}, {"lat": "3.9166667", "city": "Nkolfoulou", "lon": "11.5833333"}, {"lat": "4.25", "city": "Nkolgok", "lon": "12.0333333"}, {"lat": "4.1666667", "city": "Nkolianga", "lon": "11.8333333"}, {"lat": "4.2833333", "city": "Nkolkos\u00e9", "lon": "11.2833333"}, {"lat": "4.2833333", "city": "Nkolkoss\u00e9", "lon": "11.2833333"}, {"lat": "4.1", "city": "Nkolkougda", "lon": "11.2166667"}, {"lat": "3.8666667", "city": "Nkolkoumou", "lon": "11.4"}, {"lat": "3.5166667", "city": "Nkolmaka", "lon": "11.8166667"}, {"lat": "4.1666667", "city": "Nkolmba", "lon": "11.3"}, {"lat": "4.1166667", "city": "Nkolmb\u00e9n\u00e9", "lon": "11.5333333"}, {"lat": "4.3833333", "city": "Nkolm\u00e9bang", "lon": "11.4166667"}, {"lat": "4.2", "city": "Nkolm\u00e9bel", "lon": "11.2"}, {"lat": "3.6166667", "city": "Nkolmedzap", "lon": "11.2666667"}, {"lat": "4.3333333", "city": "Nkolm\u00e9fon", "lon": "11.4666667"}, {"lat": "3.5666667", "city": "Nkolm\u00e9fou II", "lon": "11.6"}, {"lat": "3.7", "city": "Nkolm\u00e9fou I", "lon": "11.5333333"}, {"lat": "3.5166667", "city": "Nkolmeka", "lon": "11.8166667"}, {"lat": "4.2333333", "city": "Nkolm\u00e9kok", "lon": "11.6166667"}, {"lat": "4.0", "city": "Nkolm\u00e9kouma", "lon": "11.4"}, {"lat": "3.6", "city": "Nkolmelen", "lon": "11.2333333"}, {"lat": "4.25", "city": "Nkolm\u00e9lok", "lon": "11.4666667"}, {"lat": "3.7666667", "city": "Nkolmenying\u00e9", "lon": "11.3166667"}, {"lat": "3.7333333", "city": "Nkolmesing I", "lon": "11.4666667"}, {"lat": "3.8833333", "city": "Nkolm\u00e9sing", "lon": "11.5666667"}, {"lat": "3.6", "city": "Nkolmesi", "lon": "11.3666667"}, {"lat": "4.2666667", "city": "Nkolm\u00e9tolo", "lon": "11.3166667"}, {"lat": "3.5833333", "city": "Nkolm\u00e9va", "lon": "11.6333333"}, {"lat": "3.8166667", "city": "Nkolmewout", "lon": "11.2333333"}, {"lat": "3.8666667", "city": "Nkolmeyang", "lon": "11.65"}, {"lat": "4.0833333", "city": "Nkolmeyo", "lon": "11.9833333"}, {"lat": "4.15", "city": "Nkolm\u00e9yos I", "lon": "11.1333333"}, {"lat": "3.3166667", "city": "Nkolm\u00e9yos", "lon": "11.55"}, {"lat": "4.4", "city": "Nkolmgbana", "lon": "11.45"}, {"lat": "4.3", "city": "Nkolmvak", "lon": "11.5333333"}, {"lat": "4.0333333", "city": "Nkolmvanz\u00e9", "lon": "11.2"}, {"lat": "4.45", "city": "Nkolmveng", "lon": "12.4333333"}, {"lat": "3.75", "city": "Nkolnda", "lon": "11.5333333"}, {"lat": "4.0833333", "city": "Nkolndobo", "lon": "11.45"}, {"lat": "4.4833333", "city": "Nkolndzomo", "lon": "11.4166667"}, {"lat": "4.2333333", "city": "Nkolngal", "lon": "11.1666667"}, {"lat": "3.8333333", "city": "Nkolng\u00e9l\u00e9", "lon": "11.2"}, {"lat": "4.1", "city": "Nkolngem", "lon": "11.5333333"}, {"lat": "3.4833333", "city": "Nkolnget", "lon": "11.5166667"}, {"lat": "3.4833333", "city": "Nkolngi", "lon": "11.6833333"}, {"lat": "3.7333333", "city": "Nkolngo\u00e9", "lon": "11.7166667"}, {"lat": "3.5833333", "city": "Nkolngok III", "lon": "11.35"}, {"lat": "3.5", "city": "Nkolngok", "lon": "11.3666667"}, {"lat": "3.7666667", "city": "Nkol", "lon": "12.5333333"}, {"lat": "3.4666667", "city": "Nkolnlong III", "lon": "11.2"}, {"lat": "3.4666667", "city": "Nkolnlong II", "lon": "11.2333333"}, {"lat": "3.4833333", "city": "Nkolnlong I", "lon": "11.25"}, {"lat": "3.6666667", "city": "Nkolnsala", "lon": "11.6166667"}, {"lat": "3.8166667", "city": "Nkolnsam", "lon": "11.3666667"}, {"lat": "3.6833333", "city": "Nkolnso", "lon": "11.5333333"}, {"lat": "4.2666667", "city": "Nkolntsa", "lon": "11.4833333"}, {"lat": "3.9833333", "city": "Nkolnyada", "lon": "11.45"}, {"lat": "3.3833333", "city": "Nkolnyama", "lon": "11.6"}, {"lat": "4.1833333", "city": "Nkolobang II", "lon": "11.3666667"}, {"lat": "4.15", "city": "Nkolobang I", "lon": "11.3833333"}, {"lat": "4.0666667", "city": "Nkolobodou", "lon": "12.3333333"}, {"lat": "4.1666667", "city": "Nkoloboudou", "lon": "12.6166667"}, {"lat": "4.5", "city": "Nkoloboutou", "lon": "12.0"}, {"lat": "3.5666667", "city": "Nkolok\u00e9d\u00e9", "lon": "11.25"}, {"lat": "4.1", "city": "Nkolombond\u00e9", "lon": "11.9666667"}, {"lat": "3.65", "city": "Nkolombo", "lon": "10.7333333"}, {"lat": "4.2333333", "city": "Nkolondogo", "lon": "11.5333333"}, {"lat": "3.95", "city": "Nkolondom", "lon": "11.5"}, {"lat": "3.8666667", "city": "Nkolo", "lon": "11.5833333"}, {"lat": "4.2833333", "city": "Nkolosanga", "lon": "11.2333333"}, {"lat": "3.65", "city": "Nkoloumba", "lon": "10.7333333"}, {"lat": "4.3833333", "city": "Nkolovan", "lon": "12.0"}, {"lat": "3.7333333", "city": "Nkoloving", "lon": "11.5833333"}, {"lat": "4.0666667", "city": "Nkolpoblo", "lon": "11.2166667"}, {"lat": "4.5166667", "city": "Nkols\u00e9l\u00e9", "lon": "12.2666667"}, {"lat": "4.1333333", "city": "Nkolsing", "lon": "11.15"}, {"lat": "4.2333333", "city": "Nkoltai", "lon": "11.3833333"}, {"lat": "4.2166667", "city": "Nkoltomo II", "lon": "11.4333333"}, {"lat": "4.2333333", "city": "Nkoltomo I", "lon": "11.3833333"}, {"lat": "3.9833333", "city": "Nkoltsit", "lon": "11.6333333"}, {"lat": "4.2166667", "city": "Nkolv\u00e9", "lon": "11.3666667"}, {"lat": "3.7833333", "city": "Nkoly\u00e9g\u00e9", "lon": "11.2666667"}, {"lat": "3.9666667", "city": "Nkolyem", "lon": "11.3"}, {"lat": "4.3166667", "city": "Nkolzoa", "lon": "11.45"}, {"lat": "4.2666667", "city": "Nkolzomo", "lon": "11.4166667"}, {"lat": "4.1333333", "city": "Nkomassi", "lon": "12.2166667"}, {"lat": "3.8666667", "city": "Nkombasi", "lon": "11.6166667"}, {"lat": "4.2333333", "city": "Nkombibam", "lon": "11.2"}, {"lat": "3.85", "city": "Nkomekou", "lon": "11.3333333"}, {"lat": "3.8833333", "city": "Nkomes\u00e9b\u00e9", "lon": "11.7833333"}, {"lat": "4.3333333", "city": "Nkomessamba", "lon": "12.4166667"}, {"lat": "4.2666667", "city": "Nkomess\u00e9", "lon": "12.2333333"}, {"lat": "4.0333333", "city": "Nkom\u00e9tou II", "lon": "11.55"}, {"lat": "4.05", "city": "Nkom\u00e9tou I", "lon": "11.55"}, {"lat": "4.6333333", "city": "Nkomeye", "lon": "12.55"}, {"lat": "4.0833333", "city": "Nkom\u00e9yo", "lon": "11.9833333"}, {"lat": "4.4", "city": "Nkom II", "lon": "11.3666667"}, {"lat": "4.4166667", "city": "Nkom I", "lon": "11.3666667"}, {"lat": "3.8333333", "city": "Nkomo", "lon": "11.55"}, {"lat": "3.7666667", "city": "Nkondom", "lon": "11.6333333"}, {"lat": "3.65", "city": "Nkondougou I", "lon": "11.4"}, {"lat": "3.7166667", "city": "Nkongabok II", "lon": "11.25"}, {"lat": "3.7", "city": "Nkongabok I", "lon": "11.2666667"}, {"lat": "3.7", "city": "Nkongabok", "lon": "11.2666667"}, {"lat": "3.55", "city": "Nkongbibega", "lon": "11.3"}, {"lat": "3.7333333", "city": "Nkong Bingela", "lon": "11.4166667"}, {"lat": "3.6166667", "city": "Nkongdougou", "lon": "11.3833333"}, {"lat": "3.65", "city": "Nkong-Dougou", "lon": "11.4"}, {"lat": "3.55", "city": "Nkongi", "lon": "11.0166667"}, {"lat": "3.6833333", "city": "Nkongmedzap", "lon": "11.7333333"}, {"lat": "3.85", "city": "Nkongmelen", "lon": "11.7666667"}, {"lat": "3.8833333", "city": "Nkongmesa", "lon": "11.3166667"}, {"lat": "3.6166667", "city": "Nkongmeyos", "lon": "11.3166667"}, {"lat": "3.4666667", "city": "Nkongnen II", "lon": "11.4"}, {"lat": "3.4833333", "city": "Nkongnen I", "lon": "11.4166667"}, {"lat": "4.15", "city": "Nkongngok", "lon": "11.0166667"}, {"lat": "3.5", "city": "Nkong", "lon": "11.3833333"}, {"lat": "3.4833333", "city": "Nkongnsam", "lon": "11.25"}, {"lat": "3.8166667", "city": "Nkongoa", "lon": "11.6"}, {"lat": "3.7666667", "city": "Nkongtok", "lon": "11.1333333"}, {"lat": "3.5666667", "city": "Nkongzok I", "lon": "11.3"}, {"lat": "4.05", "city": "Nkongzok", "lon": "11.35"}, {"lat": "3.8333333", "city": "Nkosim", "lon": "10.8"}, {"lat": "3.8333333", "city": "Nkossim", "lon": "10.8"}, {"lat": "4.1333333", "city": "Nkotabel", "lon": "11.2166667"}, {"lat": "4.5166667", "city": "Nkoteng", "lon": "12.0333333"}, {"lat": "3.7833333", "city": "Nkotnkong", "lon": "11.2666667"}, {"lat": "3.55", "city": "Nkouamendjing", "lon": "12.1"}, {"lat": "3.3666667", "city": "Nkoulngoui", "lon": "11.1"}, {"lat": "3.7833333", "city": "Nkoulou", "lon": "11.5666667"}, {"lat": "3.3666667", "city": "Nkoumadzap", "lon": "11.5666667"}, {"lat": "4.5", "city": "Nkoumoutou", "lon": "12.0833333"}, {"lat": "3.9666667", "city": "Nkozoa", "lon": "11.5333333"}, {"lat": "3.8", "city": "Nlobol\u00e9", "lon": "12.3833333"}, {"lat": "4.2", "city": "Nlongbon", "lon": "11.1666667"}, {"lat": "4.1166667", "city": "Nlongm\u00e9nanga", "lon": "11.2"}, {"lat": "3.8166667", "city": "Nlong", "lon": "11.2"}, {"lat": "4.25", "city": "Nlongonamb\u00e9l\u00e9", "lon": "11.4166667"}, {"lat": "4.25", "city": "Nlongonemb\u00e9la", "lon": "11.4166667"}, {"lat": "4.3833333", "city": "Nlongzok", "lon": "11.3166667"}, {"lat": "4.1333333", "city": "Nloudou", "lon": "11.1333333"}, {"lat": "3.7833333", "city": "Nomajos", "lon": "11.4333333"}, {"lat": "3.7833333", "city": "Nomayos", "lon": "11.4333333"}, {"lat": "4.65", "city": "Nong-Ekak", "lon": "12.5833333"}, {"lat": "3.9666667", "city": "Nouma", "lon": "11.4333333"}, {"lat": "4.1833333", "city": "Nsamba", "lon": "12.2333333"}, {"lat": "3.9333333", "city": "Nsan", "lon": "11.5833333"}, {"lat": "3.8166667", "city": "Nsazomo", "lon": "11.5833333"}, {"lat": "3.7833333", "city": "Ns\u00e9b\u00e9", "lon": "11.9666667"}, {"lat": "4.8833333", "city": "Nsem", "lon": "12.9333333"}, {"lat": "3.4833333", "city": "Nsenglong", "lon": "11.4833333"}, {"lat": "3.8", "city": "Ns\u00e9osou", "lon": "11.9666667"}, {"lat": "3.3666667", "city": "Nsimalen", "lon": "11.25"}, {"lat": "3.8333333", "city": "Nsim\u00e9k\u00e9l\u00e9", "lon": "10.8333333"}, {"lat": "3.8333333", "city": "Nsim\u00e9k\u00e9ll\u00e9", "lon": "10.8333333"}, {"lat": "4.1333333", "city": "Nsimi", "lon": "11.8833333"}, {"lat": "3.8166667", "city": "Ntang", "lon": "11.25"}, {"lat": "4.0166667", "city": "Ntem", "lon": "11.3166667"}, {"lat": "4.2", "city": "Ntol", "lon": "11.1166667"}, {"lat": "4.0833333", "city": "Nto", "lon": "11.5166667"}, {"lat": "4.1666667", "city": "Ntouda", "lon": "11.2166667"}, {"lat": "3.7166667", "city": "Ntouesong", "lon": "11.4333333"}, {"lat": "3.9666667", "city": "Ntouesong V", "lon": "11.6166667"}, {"lat": "4.0166667", "city": "Ntouiesong", "lon": "11.35"}, {"lat": "3.6166667", "city": "Ntoumou", "lon": "11.5666667"}, {"lat": "3.7333333", "city": "Ntoun", "lon": "11.5"}, {"lat": "4.2333333", "city": "Ntsa\u00e9kang", "lon": "11.5"}, {"lat": "4.0333333", "city": "Ntsama", "lon": "11.4333333"}, {"lat": "4.4166667", "city": "Ntsan", "lon": "11.4666667"}, {"lat": "4.45", "city": "Ntui", "lon": "11.6333333"}, {"lat": "4.45", "city": "Ntwi", "lon": "11.6333333"}, {"lat": "3.9333333", "city": "Nyab\u00e9wa", "lon": "12.5333333"}, {"lat": "4.3", "city": "Nyambat", "lon": "11.0166667"}, {"lat": "4.7333333", "city": "Nyambay", "lon": "11.0333333"}, {"lat": "4.8", "city": "Nyamongo", "lon": "11.3"}, {"lat": "4.75", "city": "Nyamsong", "lon": "11.2666667"}, {"lat": "4.2666667", "city": "Nyanon", "lon": "10.95"}, {"lat": "4.05", "city": "Ny\u00e9m\u00e9yong", "lon": "11.25"}, {"lat": "5.0833333", "city": "Nyem", "lon": "12.05"}, {"lat": "3.9833333", "city": "Nyenda", "lon": "12.6666667"}, {"lat": "3.4333333", "city": "Nyeng\u00e9", "lon": "11.1333333"}, {"lat": "4.95", "city": "Nyokon I", "lon": "10.75"}, {"lat": "3.9833333", "city": "Nyom II", "lon": "11.5166667"}, {"lat": "3.9333333", "city": "Nyom I", "lon": "11.5166667"}, {"lat": "3.75", "city": "Nyomo", "lon": "11.4833333"}, {"lat": "4.9166667", "city": "Nzink\u00e9", "lon": "12.4333333"}, {"lat": "3.9833333", "city": "Obak", "lon": "11.4666667"}, {"lat": "4.1666667", "city": "Obala", "lon": "11.5333333"}, {"lat": "4.05", "city": "Oban", "lon": "11.4166667"}, {"lat": "3.9833333", "city": "Obis", "lon": "12.4666667"}, {"lat": "4.1166667", "city": "Oboa", "lon": "11.6333333"}, {"lat": "3.7166667", "city": "Obofianga", "lon": "11.85"}, {"lat": "3.95", "city": "Obok", "lon": "12.0166667"}, {"lat": "3.65", "city": "Oboko\u00e9", "lon": "11.3333333"}, {"lat": "3.85", "city": "Obom", "lon": "11.6833333"}, {"lat": "3.4666667", "city": "Obout", "lon": "11.7333333"}, {"lat": "4.45", "city": "Odon", "lon": "11.6166667"}, {"lat": "3.95", "city": "Odoudouma", "lon": "11.8666667"}, {"lat": "3.8", "city": "Odza II", "lon": "11.5333333"}, {"lat": "3.7833333", "city": "Odza I", "lon": "11.5333333"}, {"lat": "3.7833333", "city": "Odza", "lon": "11.5333333"}, {"lat": "3.55", "city": "Ofoumou Nselek I", "lon": "11.3833333"}, {"lat": "3.9833333", "city": "Ofoumselek", "lon": "11.7166667"}, {"lat": "4.3333333", "city": "Okala", "lon": "12.5166667"}, {"lat": "3.3833333", "city": "Okarob\u00e9l\u00e9", "lon": "11.0333333"}, {"lat": "4.5166667", "city": "Okassang", "lon": "12.2833333"}, {"lat": "3.8", "city": "Okoa", "lon": "11.35"}, {"lat": "3.4833333", "city": "Okod\u00e9", "lon": "11.45"}, {"lat": "4.1333333", "city": "Okok", "lon": "11.25"}, {"lat": "4.0166667", "city": "Okola", "lon": "11.3833333"}, {"lat": "3.9333333", "city": "Okolo", "lon": "11.5166667"}, {"lat": "3.6", "city": "Okong", "lon": "11.6333333"}, {"lat": "4.4666667", "city": "Okoualane", "lon": "12.45"}, {"lat": "4.0166667", "city": "Okoukouda", "lon": "11.45"}, {"lat": "3.8", "city": "Okoyen", "lon": "11.8166667"}, {"lat": "3.4333333", "city": "Olama", "lon": "11.2833333"}, {"lat": "3.9833333", "city": "Olela", "lon": "11.8166667"}, {"lat": "3.9166667", "city": "Olemb\u00e9", "lon": "12.5"}, {"lat": "3.9666667", "city": "Olengina", "lon": "12.0166667"}, {"lat": "3.7166667", "city": "Oloa", "lon": "11.5"}, {"lat": "3.7833333", "city": "Olom", "lon": "11.9"}, {"lat": "3.6166667", "city": "Oman II", "lon": "11.4666667"}, {"lat": "3.6333333", "city": "Oman I", "lon": "11.4833333"}, {"lat": "4.4333333", "city": "Ombamo", "lon": "10.9833333"}, {"lat": "4.6", "city": "Omb\u00e9sa", "lon": "11.25"}, {"lat": "4.6", "city": "Ombessa", "lon": "11.25"}, {"lat": "4.55", "city": "Omeng", "lon": "10.8833333"}, {"lat": "4.5333333", "city": "Omgbangdouma", "lon": "12.2833333"}, {"lat": "3.8", "city": "Omgbang", "lon": "11.9"}, {"lat": "4.3833333", "city": "Omind\u00e9", "lon": "11.0666667"}, {"lat": "4.7", "city": "Oming", "lon": "11.0833333"}, {"lat": "3.85", "city": "Omok", "lon": "10.9333333"}, {"lat": "3.8333333", "city": "Omvan", "lon": "11.6833333"}, {"lat": "3.4", "city": "Onana Besa", "lon": "11.3166667"}, {"lat": "3.4", "city": "Onana Bessa", "lon": "11.3166667"}, {"lat": "3.4", "city": "Onana Mbesa", "lon": "11.3166667"}, {"lat": "3.5", "city": "Onangona", "lon": "11.4166667"}, {"lat": "4.1333333", "city": "Ondek", "lon": "12.3833333"}, {"lat": "4.3666667", "city": "Ondokoa", "lon": "11.7333333"}, {"lat": "4.3166667", "city": "Ondondo II", "lon": "11.6"}, {"lat": "4.35", "city": "Ondondo I", "lon": "11.5833333"}, {"lat": "4.1", "city": "Ondoundou", "lon": "11.75"}, {"lat": "3.8833333", "city": "Ongandi", "lon": "11.6333333"}, {"lat": "3.9833333", "city": "Ongbwang", "lon": "12.15"}, {"lat": "3.85", "city": "Ongot", "lon": "11.3833333"}, {"lat": "4.35", "city": "Ongoua", "lon": "12.25"}, {"lat": "3.85", "city": "Onjod", "lon": "11.3833333"}, {"lat": "3.6333333", "city": "Onyi\u00e9", "lon": "11.75"}, {"lat": "3.85", "city": "Onyod", "lon": "11.3833333"}, {"lat": "4.1833333", "city": "Os\u00e9b\u00e9", "lon": "11.0833333"}, {"lat": "4.6333333", "city": "Osimb II", "lon": "11.0166667"}, {"lat": "4.6", "city": "Osimb I", "lon": "11.0333333"}, {"lat": "3.45", "city": "Oso\u00e9 B\u00e9kada", "lon": "11.2"}, {"lat": "3.4", "city": "Oso\u00e9bemva", "lon": "11.25"}, {"lat": "3.45", "city": "Oso\u00e9 Bikobo", "lon": "11.1833333"}, {"lat": "3.3833333", "city": "Osoe M\u00e9k\u00e9ning", "lon": "11.25"}, {"lat": "3.6666667", "city": "Osoko\u00e9", "lon": "11.35"}, {"lat": "4.6", "city": "Osomb\u00e9", "lon": "11.65"}, {"lat": "3.8666667", "city": "Osonkia", "lon": "11.3"}, {"lat": "3.45", "city": "Osso\u00e9-Bikobo", "lon": "11.1833333"}, {"lat": "4.6", "city": "Ossombe", "lon": "11.65"}, {"lat": "3.5833333", "city": "Ot\u00e9l\u00e9", "lon": "11.25"}, {"lat": "3.5833333", "city": "Otell\u00e9", "lon": "11.25"}, {"lat": "4.3333333", "city": "Otibili", "lon": "11.6333333"}, {"lat": "4.3333333", "city": "Otibil", "lon": "11.6333333"}, {"lat": "3.6833333", "city": "Otoangan", "lon": "11.8833333"}, {"lat": "3.65", "city": "Ototomo", "lon": "11.3166667"}, {"lat": "4.4333333", "city": "Otou\u00e9", "lon": "12.2666667"}, {"lat": "4.4333333", "city": "Otou", "lon": "12.2666667"}, {"lat": "3.5833333", "city": "Ott\u00e9l\u00e9", "lon": "11.25"}, {"lat": "3.65", "city": "Ottotomo", "lon": "11.3166667"}, {"lat": "3.65", "city": "Ottotom", "lon": "11.3166667"}, {"lat": "3.65", "city": "Ottotumo", "lon": "11.3166667"}, {"lat": "4.4333333", "city": "Otu\u00e9", "lon": "12.2666667"}, {"lat": "4.5", "city": "Ouassa Babout\u00e9", "lon": "12.2"}, {"lat": "4.9", "city": "Ouassa Bamv\u00e9l\u00e9", "lon": "12.6"}, {"lat": "4.5", "city": "Ouassa", "lon": "12.2"}, {"lat": "4.45", "city": "Ou\u00e9ya", "lon": "13.0333333"}, {"lat": "3.6166667", "city": "Oundi-Mekui's", "lon": "12.2166667"}, {"lat": "3.9333333", "city": "Ovang I", "lon": "11.3"}, {"lat": "3.55", "city": "Ovangoul", "lon": "11.2666667"}, {"lat": "3.6", "city": "Ovangou", "lon": "11.5333333"}, {"lat": "3.7", "city": "Oveng", "lon": "11.3666667"}, {"lat": "3.4166667", "city": "Oving", "lon": "11.7"}, {"lat": "4.0166667", "city": "Ovong", "lon": "12.6333333"}, {"lat": "3.4833333", "city": "Oyak I", "lon": "11.5"}, {"lat": "4.0666667", "city": "Oyama", "lon": "11.4166667"}, {"lat": "3.7833333", "city": "Ozoa", "lon": "11.5333333"}, {"lat": "3.9", "city": "Ozom III", "lon": "11.4"}, {"lat": "3.8833333", "city": "Ozom Nkolaf\u00e9m\u00e9", "lon": "11.4166667"}, {"lat": "3.6833333", "city": "Ozom", "lon": "11.4666667"}, {"lat": "4.45", "city": "Pandzo", "lon": "11.9166667"}, {"lat": "3.95", "city": "Pan Makak", "lon": "11.0"}, {"lat": "3.5666667", "city": "Pem-Jei's", "lon": "10.7"}, {"lat": "3.7", "city": "P\u00e9nanhouat", "lon": "10.6666667"}, {"lat": "4.2833333", "city": "Polo II", "lon": "11.3666667"}, {"lat": "4.2833333", "city": "Polo I", "lon": "11.4"}, {"lat": "4.45", "city": "Polo", "lon": "11.4"}, {"lat": "4.8166667", "city": "Ponck", "lon": "11.0333333"}, {"lat": "4.8166667", "city": "Ponek", "lon": "11.0333333"}, {"lat": "4.1166667", "city": "Pongsolo", "lon": "11.2833333"}, {"lat": "4.2333333", "city": "Poupouma", "lon": "11.3166667"}, {"lat": "4.7", "city": "Ribang", "lon": "11.15"}, {"lat": "4.7166667", "city": "Rionong", "lon": "11.2"}, {"lat": "4.7333333", "city": "Roum", "lon": "11.1333333"}, {"lat": "4.3666667", "city": "Saa", "lon": "11.45"}, {"lat": "4.5666667", "city": "Salakounou", "lon": "11.6333333"}, {"lat": "4.1166667", "city": "Sala", "lon": "12.75"}, {"lat": "4.45", "city": "Samba III", "lon": "12.9333333"}, {"lat": "4.4333333", "city": "Samba II", "lon": "12.9666667"}, {"lat": "3.5333333", "city": "Samba", "lon": "11.0166667"}, {"lat": "4.7", "city": "Sandza", "lon": "12.0166667"}, {"lat": "4.5833333", "city": "Sanga", "lon": "12.5166667"}, {"lat": "6.05", "city": "Sangb\u00e9", "lon": "12.4666667"}, {"lat": "3.9666667", "city": "Sang\u00e9la", "lon": "11.9833333"}, {"lat": "4.9833333", "city": "Sass\u00e9", "lon": "12.5833333"}, {"lat": "3.9833333", "city": "Scho", "lon": "11.6"}, {"lat": "3.7833333", "city": "S\u00e9l\u00e9", "lon": "12.5666667"}, {"lat": "5.25", "city": "S\u00e9m\u00e9k\u00e9", "lon": "11.45"}, {"lat": "5.7666667", "city": "Sengb\u00e9", "lon": "13.0666667"}, {"lat": "3.6666667", "city": "Sib\u00e9kon", "lon": "11.25"}, {"lat": "4.35", "city": "Simbane", "lon": "12.1"}, {"lat": "3.8166667", "city": "Simbok", "lon": "11.4833333"}, {"lat": "3.45", "city": "Sim", "lon": "11.25"}, {"lat": "3.5", "city": "Sipou\u00e9", "lon": "10.75"}, {"lat": "3.9833333", "city": "Soa", "lon": "11.6"}, {"lat": "4.1833333", "city": "Sobia", "lon": "12.7"}, {"lat": "4.7666667", "city": "Somo", "lon": "10.85"}, {"lat": "4.4166667", "city": "Song Andzanga", "lon": "11.3166667"}, {"lat": "3.7666667", "city": "Song Bayang", "lon": "10.7333333"}, {"lat": "3.6833333", "city": "Songdeng", "lon": "10.9"}, {"lat": "3.45", "city": "Songmimbias", "lon": "11.4166667"}, {"lat": "3.85", "city": "Songmpek", "lon": "10.8833333"}, {"lat": "3.6833333", "city": "Songndeng", "lon": "10.9"}, {"lat": "4.0666667", "city": "Song Onana", "lon": "11.3166667"}, {"lat": "3.75", "city": "Song Poa", "lon": "10.6666667"}, {"lat": "5.85", "city": "Songwi", "lon": "12.25"}, {"lat": "3.5333333", "city": "Song Yogo", "lon": "10.9666667"}, {"lat": "3.5333333", "city": "Song Yoyo", "lon": "10.9666667"}, {"lat": "4.8833333", "city": "Sonkot", "lon": "12.5166667"}, {"lat": "3.6", "city": "So", "lon": "12.0833333"}, {"lat": "4.5", "city": "Tab\u00e9n\u00e9", "lon": "12.2"}, {"lat": "4.1666667", "city": "Tala", "lon": "11.2333333"}, {"lat": "4.6", "city": "Tama\u00ef", "lon": "12.05"}, {"lat": "4.6666667", "city": "Tam\u00e9", "lon": "12.0333333"}, {"lat": "4.35", "city": "Tanga", "lon": "12.55"}, {"lat": "4.3333333", "city": "Tapar\u00e9", "lon": "12.1166667"}, {"lat": "4.8833333", "city": "Tchaouri", "lon": "12.4333333"}, {"lat": "4.7", "city": "Tch\u00e9kan\u00e9", "lon": "11.3"}, {"lat": "4.6", "city": "Tch\u00e9kos", "lon": "11.0833333"}, {"lat": "5.25", "city": "Tchenguen", "lon": "12.4833333"}, {"lat": "3.8666667", "city": "Tikong", "lon": "11.2666667"}, {"lat": "3.9", "city": "Ting", "lon": "11.6333333"}, {"lat": "5.4166667", "city": "Tiofoun", "lon": "12.3166667"}, {"lat": "4.7166667", "city": "Tipane's", "lon": "11.6833333"}, {"lat": "4.55", "city": "Tobagn", "lon": "11.0833333"}, {"lat": "4.3", "city": "Tomba II", "lon": "12.5"}, {"lat": "4.2666667", "city": "Tomba I", "lon": "12.55"}, {"lat": "4.15", "city": "Tombi", "lon": "11.0333333"}, {"lat": "3.5333333", "city": "Tombo", "lon": "12.1333333"}, {"lat": "3.9", "city": "Tom", "lon": "11.75"}, {"lat": "4.9666667", "city": "Tonga's", "lon": "10.7"}, {"lat": "4.9666667", "city": "Tonga", "lon": "10.7"}, {"lat": "3.9", "city": "Top", "lon": "12.0"}, {"lat": "5.3", "city": "Toumbi", "lon": "12.45"}, {"lat": "4.3166667", "city": "Tsang", "lon": "11.2333333"}, {"lat": "3.8833333", "city": "Tsek", "lon": "11.25"}, {"lat": "3.7333333", "city": "Vegb\u00e9", "lon": "11.4666667"}, {"lat": "4.7", "city": "Vela", "lon": "12.8166667"}, {"lat": "3.7666667", "city": "Vian", "lon": "11.6"}, {"lat": "4.0", "city": "Voua III", "lon": "11.2333333"}, {"lat": "4.0166667", "city": "Voua II", "lon": "11.2"}, {"lat": "3.7666667", "city": "Wada", "lon": "12.6"}, {"lat": "4.5833333", "city": "Wala", "lon": "12.3166667"}, {"lat": "5.1666667", "city": "Woar\u00e8me", "lon": "12.4666667"}, {"lat": "5.4333333", "city": "Woa", "lon": "11.95"}, {"lat": "4.35", "city": "Wom\u00e9koa", "lon": "11.5333333"}, {"lat": "4.35", "city": "Womkoa", "lon": "11.5333333"}, {"lat": "3.9666667", "city": "Yagona", "lon": "12.2833333"}, {"lat": "4.7166667", "city": "Yakan", "lon": "11.1666667"}, {"lat": "4.65", "city": "Yalongo", "lon": "11.6833333"}, {"lat": "4.5333333", "city": "Yambasa", "lon": "11.25"}, {"lat": "4.5333333", "city": "Yambassa", "lon": "11.25"}, {"lat": "4.3", "city": "Yamba", "lon": "12.3833333"}, {"lat": "4.85", "city": "Yamb\u00e9ta", "lon": "11.0333333"},