{"CO": {"24": [{"lat": "5.157098", "city": "Abejero", "lon": "-75.906734"}, {"lat": "4.876667", "city": "Aguazul", "lon": "-75.648889"}, {"lat": "5.3", "city": "Ag\u00fcita", "lon": "-76.2"}, {"lat": "5.3", "city": "Ag\u00fcitas", "lon": "-76.2"}, {"lat": "5.406764", "city": "Albania", "lon": "-75.915516"}, {"lat": "4.753056", "city": "Alegr\u00edas", "lon": "-75.672778"}, {"lat": "4.738333", "city": "Altagracia", "lon": "-75.713611"}, {"lat": "4.96", "city": "Alto de La Cruz", "lon": "-75.5775"}, {"lat": "4.805", "city": "Alto El Toro", "lon": "-75.639444"}, {"lat": "4.971111", "city": "Alto Villaraso", "lon": "-75.555556"}, {"lat": "5.355382", "city": "Alturas", "lon": "-75.811307"}, {"lat": "5.332778", "city": "Anserma", "lon": "-75.791111"}, {"lat": "5.10645", "city": "Ap\u00eda", "lon": "-75.943177"}, {"lat": "4.717778", "city": "Arabia", "lon": "-75.715556"}, {"lat": "5.128612", "city": "Argentina", "lon": "-75.85242"}, {"lat": "5.329458", "city": "Arribat\u00f3", "lon": "-75.940443"}, {"lat": "5.425", "city": "Atarraya", "lon": "-75.929167"}, {"lat": "4.783333", "city": "Azufrera", "lon": "-75.45"}, {"lat": "4.951667", "city": "Balboa", "lon": "-75.957222"}, {"lat": "5.366667", "city": "Barroblanco", "lon": "-75.783333"}, {"lat": "5.37654", "city": "Batero", "lon": "-75.712501"}, {"lat": "5.200875", "city": "Bel\u00e9n", "lon": "-75.868652"}, {"lat": "5.200875", "city": "Bel\u00e9n de Umbr\u00eda", "lon": "-75.868652"}, {"lat": "5.258802", "city": "Bellavista", "lon": "-75.804025"}, {"lat": "4.820278", "city": "Belmonte", "lon": "-75.758889"}, {"lat": "4.961944", "city": "Beltr\u00e1n", "lon": "-75.791944"}, {"lat": "4.721667", "city": "Betulia", "lon": "-75.764167"}, {"lat": "5.266667", "city": "Bocana", "lon": "-75.7"}, {"lat": "5.339302", "city": "Bol\u00edvar", "lon": "-75.772489"}, {"lat": "4.863333", "city": "Boquer\u00f3n", "lon": "-75.639722"}, {"lat": "5.033333", "city": "Breta\u00f1a", "lon": "-75.95"}, {"lat": "5.006389", "city": "Buenos A\u00edres", "lon": "-75.951389"}, {"lat": "4.933333", "city": "Cachipay", "lon": "-75.916667"}, {"lat": "4.778611", "city": "Ca\u00f1averal", "lon": "-75.717778"}, {"lat": "5.437222", "city": "Caracol\u00ed", "lon": "-75.888056"}, {"lat": "4.813333", "city": "Cartago Viejo", "lon": "-75.696111"}, {"lat": "4.836389", "city": "Cauquillo", "lon": "-75.808056"}, {"lat": "4.8", "city": "Cerrito", "lon": "-75.85"}, {"lat": "4.808333", "city": "Cerritos", "lon": "-75.839722"}, {"lat": "4.787222", "city": "Choco", "lon": "-75.658333"}, {"lat": "5.37", "city": "Chorro Seco", "lon": "-75.929444"}, {"lat": "5.393866", "city": "Citabar\u00e1", "lon": "-75.921321"}, {"lat": "4.982778", "city": "Colorados", "lon": "-75.921667"}, {"lat": "5.216985", "city": "Columbia", "lon": "-75.821148"}, {"lat": "4.871389", "city": "Combia Alta", "lon": "-75.741389"}, {"lat": "4.823889", "city": "Combia Baja", "lon": "-75.754444"}, {"lat": "4.823889", "city": "Combia", "lon": "-75.754444"}, {"lat": "4.7", "city": "Corozal", "lon": "-75.533333"}, {"lat": "5.377778", "city": "Costa Rica", "lon": "-75.903056"}, {"lat": "4.8025", "city": "Cuba", "lon": "-75.738889"}, {"lat": "4.721667", "city": "Cuchilla Corozal", "lon": "-75.59"}, {"lat": "5.266667", "city": "Currumay", "lon": "-76.1"}, {"lat": "4.866667", "city": "Dabeiba", "lon": "-75.466667"}, {"lat": "4.765833", "city": "Damasco", "lon": "-75.828889"}, {"lat": "4.839164", "city": "Dos Quebradas", "lon": "-75.667265"}, {"lat": "5.157098", "city": "El Abejero", "lon": "-75.906734"}, {"lat": "5.358611", "city": "El Asomadero", "lon": "-75.9325"}, {"lat": "5.067222", "city": "El Brasil", "lon": "-75.935556"}, {"lat": "4.930278", "city": "El Cairo", "lon": "-75.8525"}, {"lat": "4.703056", "city": "El Cedral", "lon": "-75.535278"}, {"lat": "5.388481", "city": "El Chuscal", "lon": "-75.747019"}, {"lat": "4.751944", "city": "El Contento", "lon": "-75.777222"}, {"lat": "4.831389", "city": "El Crucero", "lon": "-75.755278"}, {"lat": "5.234286", "city": "El Eden", "lon": "-75.850198"}, {"lat": "4.926389", "city": "El Espa\u00f1ol", "lon": "-75.692222"}, {"lat": "5.150556", "city": "El Guarne", "lon": "-75.918611"}, {"lat": "4.883333", "city": "El Guayabo", "lon": "-75.766667"}, {"lat": "5.359768", "city": "El Higo", "lon": "-75.712591"}, {"lat": "5.335", "city": "El Jard\u00edn", "lon": "-75.831389"}, {"lat": "4.919444", "city": "El Lembo", "lon": "-75.63"}, {"lat": "5.153333", "city": "El Lucero", "lon": "-75.946667"}, {"lat": "4.941944", "city": "El Madro\u00f1o", "lon": "-75.824722"}, {"lat": "4.856111", "city": "El Pital", "lon": "-75.736111"}, {"lat": "5.057778", "city": "El Porvenir", "lon": "-75.93"}, {"lat": "4.908889", "city": "El Rayo", "lon": "-75.723056"}, {"lat": "4.761389", "city": "El Retiro", "lon": "-75.743889"}, {"lat": "4.745", "city": "El Roc\u00edo", "lon": "-75.652222"}, {"lat": "4.854722", "city": "El Rodeo", "lon": "-75.636667"}, {"lat": "5.433056", "city": "El Silencio", "lon": "-75.891667"}, {"lat": "4.893611", "city": "El Sina\u00ed", "lon": "-75.694444"}, {"lat": "5.104007", "city": "El Socorro", "lon": "-75.886908"}, {"lat": "5.316667", "city": "El Tigre", "lon": "-75.8"}, {"lat": "5.152222", "city": "El Vesubio", "lon": "-75.931389"}, {"lat": "5.327806", "city": "Ensemillal", "lon": "-75.748705"}, {"lat": "4.843333", "city": "Erazo", "lon": "-75.728611"}, {"lat": "4.769167", "city": "Estrella", "lon": "-75.645278"}, {"lat": "4.8", "city": "Fonda Central", "lon": "-75.816667"}, {"lat": "4.815278", "city": "Frailes", "lon": "-75.652778"}, {"lat": "4.764167", "city": "Frascate", "lon": "-75.772222"}, {"lat": "4.898056", "city": "Guacas", "lon": "-75.615278"}, {"lat": "5.399722", "city": "Guapa", "lon": "-75.916111"}, {"lat": "5.315691", "city": "Gu\u00e1tica", "lon": "-75.79826"}, {"lat": "5.398333", "city": "Guayabal", "lon": "-75.91"}, {"lat": "4.889167", "city": "Guayabo", "lon": "-75.791667"}, {"lat": "5.281389", "city": "Guerrero", "lon": "-75.666944"}, {"lat": "5.3", "city": "Hern\u00e1ndez", "lon": "-76.2"}, {"lat": "5.479167", "city": "Hoyo Hondo", "lon": "-75.854444"}, {"lat": "4.779444", "city": "Huertas", "lon": "-75.693889"}, {"lat": "5.330523", "city": "Insambra", "lon": "-75.757052"}, {"lat": "5.271389", "city": "Irr\u00e1", "lon": "-75.666389"}, {"lat": "5.196483", "city": "Jamarraja", "lon": "-76.159838"}, {"lat": "5.196483", "city": "Jamarrava", "lon": "-76.159838"}, {"lat": "5.196483", "city": "Jamarraya", "lon": "-76.159838"}, {"lat": "5.148915", "city": "Jordania", "lon": "-75.95823"}, {"lat": "5.331703", "city": "Jord\u00e1n", "lon": "-75.793454"}, {"lat": "5.093889", "city": "La Arabia", "lon": "-75.906667"}, {"lat": "4.9075", "city": "La Argentina", "lon": "-75.778333"}, {"lat": "4.824722", "city": "La Badea", "lon": "-75.688889"}, {"lat": "4.771389", "city": "La Bananera", "lon": "-75.633611"}, {"lat": "4.762222", "city": "La Bella", "lon": "-75.636389"}, {"lat": "5.266667", "city": "La Bocana", "lon": "-75.7"}, {"lat": "4.977222", "city": "La Candelaria", "lon": "-75.959167"}, {"lat": "4.955556", "city": "La Capilla", "lon": "-75.641944"}, {"lat": "5.37117", "city": "La Ceiba", "lon": "-75.749485"}, {"lat": "5.043333", "city": "La Celia", "lon": "-76.016667"}, {"lat": "5.015191", "city": "La Coquera", "lon": "-75.905638"}, {"lat": "5.059026", "city": "La Cort\u00e9s", "lon": "-75.958537"}, {"lat": "4.885", "city": "La Cruz", "lon": "-75.658611"}, {"lat": "5.005", "city": "La Cumbre", "lon": "-75.986944"}, {"lat": "5.190278", "city": "La Delfa", "lon": "-75.864444"}, {"lat": "5.023056", "city": "La Despensa", "lon": "-75.966111"}, {"lat": "5.198056", "city": "La Divisa", "lon": "-75.846389"}, {"lat": "4.807222", "city": "La Esperanza", "lon": "-75.812778"}, {"lat": "4.928056", "city": "La Estrella", "lon": "-75.673611"}, {"lat": "4.760556", "city": "La Florida", "lon": "-75.618333"}, {"lat": "4.741944", "city": "La Gram\u00ednea", "lon": "-75.674167"}, {"lat": "4.87", "city": "La Honda", "lon": "-75.790278"}, {"lat": "5.1075", "city": "La Julia", "lon": "-75.880833"}, {"lat": "4.795556", "city": "La Libertad", "lon": "-75.530278"}, {"lat": "5.323056", "city": "La Linda", "lon": "-75.846667"}, {"lat": "5.1675", "city": "La L\u00ednea", "lon": "-75.978889"}, {"lat": "5.345278", "city": "La Magdalena", "lon": "-75.865833"}, {"lat": "5.119992", "city": "La Mar\u00eda", "lon": "-75.947883"}, {"lat": "5.401944", "city": "La Merced", "lon": "-75.884722"}, {"lat": "4.961111", "city": "La Montoya", "lon": "-75.986111"}, {"lat": "4.911667", "city": "La Nubia", "lon": "-75.764167"}, {"lat": "4.8825", "city": "La Oriental", "lon": "-75.762222"}, {"lat": "5.378466", "city": "La Palma", "lon": "-75.744437"}, {"lat": "5.349367", "city": "La Palmera", "lon": "-75.828288"}, {"lat": "5.113056", "city": "La Pastora", "lon": "-75.887778"}, {"lat": "4.959722", "city": "La Playa", "lon": "-75.896667"}, {"lat": "5.129444", "city": "La Popa", "lon": "-75.947222"}, {"lat": "4.941389", "city": "La Quiebra", "lon": "-75.938889"}, {"lat": "5.332778", "city": "La Robada", "lon": "-75.874722"}, {"lat": "4.933889", "city": "La Rosa", "lon": "-75.938889"}, {"lat": "4.821667", "city": "La Samaria", "lon": "-75.603889"}, {"lat": "4.7475", "city": "La Selva", "lon": "-75.760278"}, {"lat": "5.354631", "city": "La Serna", "lon": "-75.793602"}, {"lat": "5.339894", "city": "Las Lomas", "lon": "-75.807208"}, {"lat": "4.783333", "city": "Las Mangas", "lon": "-75.641667"}, {"lat": "5.111447", "city": "La Sombra", "lon": "-75.901907"}, {"lat": "5.350036", "city": "Las Pe\u00f1as", "lon": "-75.806451"}, {"lat": "4.899444", "city": "Las Tazas", "lon": "-75.767222"}, {"lat": "4.732778", "city": "La Suiza", "lon": "-75.589167"}, {"lat": "5.1825", "city": "La Tolda", "lon": "-75.948889"}, {"lat": "4.856944", "city": "La Uni\u00f3n", "lon": "-75.688889"}, {"lat": "4.899722", "city": "La Virginia", "lon": "-75.8825"}, {"lat": "4.823056", "city": "Llano Grande", "lon": "-75.73"}, {"lat": "5.385833", "city": "Loma Hermosa", "lon": "-75.889444"}, {"lat": "5.326439", "city": "Los \u00c1lpes", "lon": "-75.779671"}, {"lat": "5.36328", "city": "Los Naranjos", "lon": "-75.790681"}, {"lat": "5.36", "city": "Mampay", "lon": "-75.879722"}, {"lat": "5.211667", "city": "Marapr\u00e1", "lon": "-75.778611"}, {"lat": "4.75", "city": "Marinita", "lon": "-75.916667"}, {"lat": "4.937222", "city": "Marsella", "lon": "-75.737778"}, {"lat": "4.9", "city": "Miracampos", "lon": "-75.700833"}, {"lat": "4.964722", "city": "Miraflores", "lon": "-75.566389"}, {"lat": "5.297302", "city": "Mistrat\u00f3", "lon": "-75.883217"}, {"lat": "5.200875", "city": "Mocat\u00e1n", "lon": "-75.868652"}, {"lat": "5.2675", "city": "Montealegre", "lon": "-75.862222"}, {"lat": "4.755278", "city": "Montelargo", "lon": "-75.716389"}, {"lat": "4.766667", "city": "Morelia", "lon": "-75.766667"}, {"lat": "5.359076", "city": "Moreta", "lon": "-75.692993"}, {"lat": "4.783611", "city": "Mundo Nuevo", "lon": "-75.666667"}, {"lat": "5.331467", "city": "Murrapal", "lon": "-75.741622"}, {"lat": "5.321003", "city": "Nacedero", "lon": "-75.876903"}, {"lat": "5.323333", "city": "Naranjal", "lon": "-75.726389"}, {"lat": "5.339573", "city": "Nazaret", "lon": "-75.730184"}, {"lat": "4.866667", "city": "Obito", "lon": "-75.566667"}, {"lat": "5.339389", "city": "Ocharma", "lon": "-75.817995"}, {"lat": "5.329015", "city": "Ospirma", "lon": "-75.809877"}, {"lat": "4.745833", "city": "Palmerita", "lon": "-75.84"}, {"lat": "5.245717", "city": "Palo Blanco", "lon": "-75.765398"}, {"lat": "4.883611", "city": "Palogordo", "lon": "-75.950278"}, {"lat": "5.216389", "city": "Palo Redondo", "lon": "-75.865278"}, {"lat": "4.995833", "city": "Patio Bonito", "lon": "-75.980833"}, {"lat": "5.257027", "city": "Pe\u00f1as Blancas", "lon": "-75.874838"}, {"lat": "4.991667", "city": "Peralonso", "lon": "-75.924167"}, {"lat": "4.813333", "city": "Pereira", "lon": "-75.696111"}, {"lat": "4.724444", "city": "P\u00e9rez", "lon": "-75.687778"}, {"lat": "5.33358", "city": "Playa Bonita", "lon": "-75.880558"}, {"lat": "4.883333", "city": "Portobelo", "lon": "-75.9"}, {"lat": "4.85", "city": "Potreros", "lon": "-75.483333"}, {"lat": "5.300953", "city": "Primavera", "lon": "-75.733015"}, {"lat": "5.238333", "city": "Pueblo Rico", "lon": "-76.036389"}, {"lat": "5.238333", "city": "Pueblorrico", "lon": "-76.036389"}, {"lat": "4.861667", "city": "Puerto Alegre", "lon": "-75.906667"}, {"lat": "4.816944", "city": "Puerto Caldas", "lon": "-75.909167"}, {"lat": "4.883333", "city": "Puerto Dagua", "lon": "-75.85"}, {"lat": "4.907778", "city": "Puerto Pereira", "lon": "-75.813056"}, {"lat": "4.883333", "city": "Puerto Velo", "lon": "-75.9"}, {"lat": "5.339573", "city": "Quinch\u00eda", "lon": "-75.730184"}, {"lat": "4.852778", "city": "Renaciemiento", "lon": "-75.64"}, {"lat": "5.483333", "city": "Risaralda", "lon": "-75.856111"}, {"lat": "5.415833", "city": "Saman\u00e1", "lon": "-75.995556"}, {"lat": "5.127763", "city": "San Agust\u00edn", "lon": "-75.889618"}, {"lat": "5.415954", "city": "San Antonio de Chami", "lon": "-75.90453"}, {"lat": "5.415954", "city": "San Antonio del Cham\u00ed", "lon": "-75.90453"}, {"lat": "4.923333", "city": "San Antonio", "lon": "-75.971111"}, {"lat": "5.312266", "city": "San Clemente", "lon": "-75.78207"}, {"lat": "4.782778", "city": "San Felipe", "lon": "-75.822778"}, {"lat": "5.026272", "city": "San Isidro", "lon": "-75.813682"}, {"lat": "4.790278", "city": "San Joaqu\u00edn", "lon": "-75.7375"}, {"lat": "4.791944", "city": "San Jos\u00e9", "lon": "-75.649167"}, {"lat": "4.946389", "city": "San Juanito", "lon": "-75.645278"}, {"lat": "5.25", "city": "San Pedro", "lon": "-75.8"}, {"lat": "4.854444", "city": "San Ram\u00f3n", "lon": "-75.580556"}, {"lat": "4.883333", "city": "San Roque", "lon": "-75.766667"}, {"lat": "5.307468", "city": "Santa Ana", "lon": "-75.819496"}, {"lat": "4.915", "city": "Santa B\u00e1rbara", "lon": "-75.588333"}, {"lat": "5.3", "city": "Santa Cecilia", "lon": "-76.216667"}, {"lat": "5.283333", "city": "Santa Elena", "lon": "-75.733333"}, {"lat": "4.8625", "city": "Santander", "lon": "-75.766389"}, {"lat": "4.8925", "city": "Santa Rita", "lon": "-75.571389"}, {"lat": "4.868056", "city": "Santa Rosa Cabal", "lon": "-75.621389"}, {"lat": "4.868056", "city": "Santa Rosa de Cabal", "lon": "-75.621389"}, {"lat": "4.868056", "city": "Santa Rosa", "lon": "-75.621389"}, {"lat": "5.327778", "city": "Santa Teresita", "lon": "-75.830833"}, {"lat": "5.072367", "city": "Santuario", "lon": "-75.963407"}, {"lat": "4.871389", "city": "San Vicente", "lon": "-75.741389"}, {"lat": "4.937222", "city": "Segovia", "lon": "-75.737778"}, {"lat": "5.426824", "city": "Soratama", "lon": "-75.921344"}, {"lat": "5.328058", "city": "Sumera", "lon": "-75.770943"}, {"lat": "5.25", "city": "Tabuy\u00e1", "lon": "-75.8"}, {"lat": "5.25", "city": "Tabuyo", "lon": "-75.8"}, {"lat": "5.350797", "city": "Tambora", "lon": "-75.775874"}, {"lat": "4.885", "city": "Tambores", "lon": "-75.969167"}, {"lat": "5.167262", "city": "Taparal", "lon": "-75.876939"}, {"lat": "5.167262", "city": "Taparcal", "lon": "-75.876939"}, {"lat": "5.25", "city": "Tauya", "lon": "-75.8"}, {"lat": "4.838889", "city": "Termales", "lon": "-75.545833"}, {"lat": "4.992222", "city": "Totu\u00ed", "lon": "-75.943889"}, {"lat": "4.714722", "city": "Tres Esquinas", "lon": "-75.753333"}, {"lat": "4.787222", "city": "Tres Puertas", "lon": "-75.758056"}, {"lat": "4.766944", "city": "Tribunas", "lon": "-75.683333"}, {"lat": "5.252778", "city": "Umbr\u00eda", "lon": "-75.843333"}, {"lat": "5.133611", "city": "Valladolid", "lon": "-75.949167"}, {"lat": "5.266667", "city": "Villa Claret", "lon": "-76.1"}, {"lat": "5.283333", "city": "Villa Loba", "lon": "-75.8"}, {"lat": "4.722222", "city": "Yarumal", "lon": "-75.674722"}], "03": [{"lat": "6.876111", "city": "Abuyama", "lon": "-70.585833"}, {"lat": "6.475564", "city": "Acapulco", "lon": "-71.712911"}, {"lat": "6.471379", "city": "Agrumito", "lon": "-70.539085"}, {"lat": "6.630754", "city": "Agua Linda", "lon": "-70.897045"}, {"lat": "6.985167", "city": "Agualinda", "lon": "-71.890567"}, {"lat": "6.438323", "city": "Algarrobo", "lon": "-71.520518"}, {"lat": "6.343186", "city": "Altagracia", "lon": "-70.487305"}, {"lat": "6.356303", "city": "Alto Mira", "lon": "-71.792934"}, {"lat": "6.533333", "city": "Angosturas", "lon": "-71.783333"}, {"lat": "7.084512", "city": "Arauca", "lon": "-70.755366"}, {"lat": "6.977292", "city": "Ares Bocas", "lon": "-71.219466"}, {"lat": "7.00847", "city": "Argentina", "lon": "-71.82767"}, {"lat": "6.981944", "city": "Arrecife", "lon": "-70.602778"}, {"lat": "6.416667", "city": "Atanasio", "lon": "-70.516667"}, {"lat": "6.873245", "city": "Avelinere", "lon": "-70.594996"}, {"lat": "6.873245", "city": "Avelinero", "lon": "-70.594996"}, {"lat": "7.030685", "city": "Babitas", "lon": "-71.59591"}, {"lat": "6.616667", "city": "Balsilla", "lon": "-71.733333"}, {"lat": "6.9", "city": "Banad\u00eda", "lon": "-71.85"}, {"lat": "7.00114", "city": "Banco Amarillo", "lon": "-70.931951"}, {"lat": "7.00114", "city": "Banco Amarilo", "lon": "-70.931951"}, {"lat": "6.280164", "city": "Banco", "lon": "-71.897169"}, {"lat": "6.55", "city": "Baritalia", "lon": "-71.633333"}, {"lat": "6.4501", "city": "Barquere\u00f1a", "lon": "-71.12154"}, {"lat": "6.953753", "city": "Barranc\u00f3n", "lon": "-70.247222"}, {"lat": "7.072778", "city": "Barrio Costa Hermosa", "lon": "-70.711944"}, {"lat": "7.024444", "city": "Barrio Santo", "lon": "-71.386111"}, {"lat": "6.963275", "city": "Bartolote", "lon": "-70.224766"}, {"lat": "6.266667", "city": "Batal\u00f3n", "lon": "-71.033333"}, {"lat": "6.735087", "city": "Batotal", "lon": "-70.933139"}, {"lat": "7.016667", "city": "Bejuco", "lon": "-71.516667"}, {"lat": "6.713056", "city": "Bejuquero", "lon": "-70.414167"}, {"lat": "6.366667", "city": "Bellavista", "lon": "-70.716667"}, {"lat": "6.926307", "city": "Belmonta", "lon": "-70.837873"}, {"lat": "6.638534", "city": "Belmonte", "lon": "-70.913263"}, {"lat": "6.491649", "city": "Betoyes", "lon": "-71.558811"}, {"lat": "6.333333", "city": "Bochalema", "lon": "-71.416667"}, {"lat": "6.51089", "city": "Bogador", "lon": "-70.971505"}, {"lat": "6.237914", "city": "Bosque Palmas", "lon": "-71.574044"}, {"lat": "6.266667", "city": "Botal\u00f3n", "lon": "-71.033333"}, {"lat": "6.735087", "city": "Bototal", "lon": "-70.933139"}, {"lat": "6.586908", "city": "Buenavista", "lon": "-70.490004"}, {"lat": "6.263694", "city": "Buenos Aires", "lon": "-71.931924"}, {"lat": "6.249722", "city": "Caballos", "lon": "-70.581944"}, {"lat": "6.292069", "city": "Cabiona", "lon": "-70.26665"}, {"lat": "6.259049", "city": "Cacho", "lon": "-70.116465"}, {"lat": "6.475823", "city": "California", "lon": "-70.99229"}, {"lat": "6.497359", "city": "Camoruco", "lon": "-71.06912"}, {"lat": "6.93985", "city": "Campoalegre", "lon": "-70.532973"}, {"lat": "7.032804", "city": "Campo Alegre", "lon": "-71.393756"}, {"lat": "6.62092", "city": "Campo Lindo", "lon": "-70.496512"}, {"lat": "7.003468", "city": "Campo Oscuro", "lon": "-71.923394"}, {"lat": "6.45", "city": "Campo Raso", "lon": "-71.083333"}, {"lat": "6.418507", "city": "Ca\u00f1o Rico", "lon": "-70.266575"}, {"lat": "6.418507", "city": "Ca\u00f1o rrico", "lon": "-70.266575"}, {"lat": "6.466667", "city": "Ca\u00f1os", "lon": "-71.1"}, {"lat": "6.938705", "city": "Caracol", "lon": "-70.268717"}, {"lat": "7.011089", "city": "Carretero", "lon": "-71.358911"}, {"lat": "6.364577", "city": "Casablanca", "lon": "-71.740464"}, {"lat": "6.228805", "city": "Casanare", "lon": "-71.61492"}, {"lat": "6.884222", "city": "Caser\u00edo Aguachica", "lon": "-71.519915"}, {"lat": "6.650833", "city": "Caser\u00edo Alto Cauca", "lon": "-71.472222"}, {"lat": "6.850278", "city": "Caser\u00edo Barrancones", "lon": "-71.793333"}, {"lat": "6.703056", "city": "Caser\u00edo Bocas del Ele", "lon": "-71.046944"}, {"lat": "6.634167", "city": "Caser\u00edo Botal\u00f3n", "lon": "-71.579722"}, {"lat": "6.819762", "city": "Caser\u00edo Brisas del Caranal", "lon": "-71.428399"}, {"lat": "6.674167", "city": "Caser\u00edo Ca\u00f1o Azul", "lon": "-71.066389"}, {"lat": "6.705", "city": "Caser\u00edo Ca\u00f1o Florez", "lon": "-71.601944"}, {"lat": "6.798333", "city": "Caser\u00edo Ca\u00f1o Hondo", "lon": "-71.525"}, {"lat": "6.700556", "city": "Caser\u00edo Ca\u00f1o Rico", "lon": "-71.380278"}, {"lat": "6.418507", "city": "Caser\u00edo Ca\u00f1o rrico", "lon": "-70.266575"}, {"lat": "6.759722", "city": "Caser\u00edo Ca\u00f1o Seco", "lon": "-71.854444"}, {"lat": "6.575278", "city": "Caser\u00edo Ca\u00f1o Verde", "lon": "-71.340556"}, {"lat": "6.565278", "city": "Caser\u00edo Corocitos", "lon": "-71.701389"}, {"lat": "6.438323", "city": "Caser\u00edo El Algarrobo", "lon": "-71.520518"}, {"lat": "6.746667", "city": "Caser\u00edo El Camping", "lon": "-71.445278"}, {"lat": "6.725833", "city": "Caser\u00edo El Milagro", "lon": "-71.54"}, {"lat": "6.675833", "city": "Caser\u00edo El Mordisco", "lon": "-71.686111"}, {"lat": "6.858611", "city": "Caser\u00edo El Oasis", "lon": "-71.484444"}, {"lat": "6.934722", "city": "Caser\u00edo El Rosario", "lon": "-70.87"}, {"lat": "6.924167", "city": "Caser\u00edo El Triunfo", "lon": "-71.589167"}, {"lat": "7.021478", "city": "Caser\u00edo El Troncal", "lon": "-71.384261"}, {"lat": "6.666389", "city": "Caser\u00edo Filipinas", "lon": "-71.2075"}, {"lat": "6.520556", "city": "Caser\u00edo Flor Amarillo", "lon": "-71.508611"}, {"lat": "6.658333", "city": "Caser\u00edo La Arenosa", "lon": "-71.289722"}, {"lat": "6.909444", "city": "Caser\u00edo La Copa", "lon": "-71.829722"}, {"lat": "6.451944", "city": "Caser\u00edo La Holanda", "lon": "-71.475556"}, {"lat": "6.897778", "city": "Caser\u00edo La Pajuila", "lon": "-71.712222"}, {"lat": "6.943333", "city": "Caser\u00edo La Pesquera", "lon": "-71.216667"}, {"lat": "6.875556", "city": "Caser\u00edo La Primavera", "lon": "-71.667778"}, {"lat": "6.646667", "city": "Caser\u00edo Las Malvinas", "lon": "-71.810278"}, {"lat": "6.991687", "city": "Caser\u00edo Los Angeles", "lon": "-71.108659"}, {"lat": "6.828056", "city": "Caser\u00edo Los Colonos", "lon": "-71.288889"}, {"lat": "6.583333", "city": "Caserio Macagu\u00e1n", "lon": "-71.716667"}, {"lat": "6.280328", "city": "Caserio Mapoy", "lon": "-71.701269"}, {"lat": "6.681944", "city": "Caser\u00edo Matecana", "lon": "-71.462778"}, {"lat": "6.691944", "city": "Caser\u00edo Muriba", "lon": "-71.447778"}, {"lat": "6.713056", "city": "Caser\u00edo Nuevo Caranal", "lon": "-71.691389"}, {"lat": "6.666111", "city": "Caser\u00edo Nuevo Horizonte", "lon": "-71.644722"}, {"lat": "6.636111", "city": "Caser\u00edo Nuevo Sol", "lon": "-71.330833"}, {"lat": "6.744444", "city": "Caser\u00edo Palmarito", "lon": "-71.7125"}, {"lat": "7.016667", "city": "Caser\u00edo Pueblo Nuevo", "lon": "-71.235"}, {"lat": "6.618333", "city": "Caser\u00edo Pueblo Sucio", "lon": "-71.518889"}, {"lat": "6.756944", "city": "Caser\u00edo Puerto Gloria", "lon": "-71.621389"}, {"lat": "6.947222", "city": "Caser\u00edo Puerto Matus", "lon": "-71.485833"}, {"lat": "6.640871", "city": "Caser\u00edo Puerto Miranda", "lon": "-71.659137"}, {"lat": "6.656094", "city": "Caser\u00edo Puerto Nidia", "lon": "-71.580944"}, {"lat": "6.228805", "city": "Caser\u00edo Puerto San Salvador", "lon": "-71.61492"}, {"lat": "6.721389", "city": "Caser\u00edo San Francisco", "lon": "-71.565278"}, {"lat": "6.225751", "city": "Caser\u00edo San Joaqu\u00edn", "lon": "-71.521954"}, {"lat": "7.015833", "city": "Caser\u00edo San Lorenzo", "lon": "-71.516944"}, {"lat": "6.8625", "city": "Caser\u00edo San Miguel", "lon": "-71.418889"}, {"lat": "6.431113", "city": "Caser\u00edo San Rafael", "lon": "-70.524028"}, {"lat": "6.228805", "city": "Caser\u00edo San Salvador", "lon": "-71.61492"}, {"lat": "6.805556", "city": "Caser\u00edo Santa Isabel", "lon": "-71.380278"}, {"lat": "6.246389", "city": "Caser\u00edo Santa Teresa", "lon": "-71.445833"}, {"lat": "6.540556", "city": "Caser\u00edo Santo Domingo", "lon": "-71.345556"}, {"lat": "6.800556", "city": "Caser\u00edo Uni\u00f3n de Los Cardenales", "lon": "-71.428611"}, {"lat": "6.723056", "city": "Caser\u00edo Viejo Caranal", "lon": "-71.699722"}, {"lat": "7.032555", "city": "Castillero", "lon": "-70.744597"}, {"lat": "6.966667", "city": "Catesal", "lon": "-71.1"}, {"lat": "6.361255", "city": "Chaparral", "lon": "-71.604513"}, {"lat": "6.341441", "city": "Chaparrito", "lon": "-70.531323"}, {"lat": "6.250671", "city": "Chaparrote", "lon": "-70.794309"}, {"lat": "6.482329", "city": "Cicibito", "lon": "-71.673858"}, {"lat": "6.700264", "city": "Cimarron", "lon": "-71.382317"}, {"lat": "7.078454", "city": "Clarinetero", "lon": "-70.654994"}, {"lat": "6.849909", "city": "Cocuicitas", "lon": "-70.403793"}, {"lat": "6.849909", "city": "Cocuisitas", "lon": "-70.403793"}, {"lat": "6.266667", "city": "Corocito", "lon": "-71.1"}, {"lat": "6.997229", "city": "Corozal", "lon": "-70.861808"}, {"lat": "6.454235", "city": "Corozo Largo", "lon": "-71.540233"}, {"lat": "6.301735", "city": "Corregimiento Cravo Norte", "lon": "-70.204154"}, {"lat": "6.280477", "city": "Corregimiento Puerto Rend\u00f3n", "lon": "-71.1"}, {"lat": "6.301735", "city": "Cravo", "lon": "-70.204154"}, {"lat": "6.301735", "city": "Cravo Norte", "lon": "-70.204154"}, {"lat": "6.649722", "city": "Crio Indigena", "lon": "-70.941111"}, {"lat": "6.967787", "city": "Cubarro", "lon": "-70.198049"}, {"lat": "6.6375", "city": "Cuivas", "lon": "-71.153611"}, {"lat": "6.533333", "city": "Cupere\u00f1a", "lon": "-71.7"}, {"lat": "6.816877", "city": "Delicias", "lon": "-70.630971"}, {"lat": "6.884547", "city": "Diamante", "lon": "-71.793018"}, {"lat": "6.635101", "city": "Diamante Rojo", "lon": "-70.407847"}, {"lat": "7.067483", "city": "El Aceite", "lon": "-70.629057"}, {"lat": "6.83582", "city": "El Agrado", "lon": "-71.801059"}, {"lat": "6.433333", "city": "El Algarrobo", "lon": "-71.066667"}, {"lat": "6.866667", "city": "El Avelinero", "lon": "-70.633333"}, {"lat": "6.280164", "city": "El Banco", "lon": "-71.897169"}, {"lat": "6.280164", "city": "El Bango", "lon": "-71.897169"}, {"lat": "7.016667", "city": "El Bejuco", "lon": "-71.516667"}, {"lat": "6.536064", "city": "El Bogante", "lon": "-70.622514"}, {"lat": "6.266667", "city": "El Botal\u00f3n", "lon": "-71.033333"}, {"lat": "6.283333", "city": "El Bot\u00f3n", "lon": "-70.85"}, {"lat": "6.562892", "city": "El Buey", "lon": "-70.601656"}, {"lat": "6.259049", "city": "El Cacho", "lon": "-70.116465"}, {"lat": "6.580859", "city": "El Cairo", "lon": "-70.723744"}, {"lat": "6.880926", "city": "El Candidero", "lon": "-70.548238"}, {"lat": "6.291857", "city": "El Capricho", "lon": "-70.320721"}, {"lat": "6.938705", "city": "El Caracol", "lon": "-70.268717"}, {"lat": "6.527973", "city": "El Carmen", "lon": "-70.856875"}, {"lat": "6.959764", "city": "El Caro", "lon": "-70.253071"}, {"lat": "6.505739", "city": "El Cedral", "lon": "-70.965401"}, {"lat": "7.054031", "city": "El Cedrito", "lon": "-71.650742"}, {"lat": "6.95544", "city": "El Ceibote", "lon": "-70.838657"}, {"lat": "6.933425", "city": "El Cerrito", "lon": "-70.298706"}, {"lat": "7.028442", "city": "El Charito", "lon": "-71.774504"}, {"lat": "6.433333", "city": "El Chivero", "lon": "-71.133333"}, {"lat": "6.716667", "city": "El Chorro", "lon": "-71.75"}, {"lat": "6.772664", "city": "El Cid", "lon": "-70.873401"}, {"lat": "6.233333", "city": "El Convenio", "lon": "-70.65"}, {"lat": "6.967787", "city": "El Cubarro", "lon": "-70.198049"}, {"lat": "7.083876", "city": "El Cuerero", "lon": "-70.681307"}, {"lat": "7.083876", "city": "El Cuervo", "lon": "-70.681307"}, {"lat": "6.536608", "city": "El Danubio", "lon": "-70.818304"}, {"lat": "6.502562", "city": "El Delirio", "lon": "-70.994795"}, {"lat": "6.5", "city": "El Diamante", "lon": "-71.716667"}, {"lat": "6.718822", "city": "El Dorado", "lon": "-71.012355"}, {"lat": "6.581349", "city": "Ele", "lon": "-70.714423"}, {"lat": "6.903345", "city": "El Ensue\u00f1o", "lon": "-71.857756"}, {"lat": "6.955278", "city": "El Faro", "lon": "-70.936389"}, {"lat": "6.955278", "city": "El Fr\u00edo", "lon": "-70.936389"}, {"lat": "6.235685", "city": "El Fustero", "lon": "-70.930408"}, {"lat": "6.8", "city": "El Guamo", "lon": "-70.616667"}, {"lat": "6.851111", "city": "El Guayabo", "lon": "-70.491944"}, {"lat": "6.821756", "city": "El Jobal", "lon": "-70.616021"}, {"lat": "6.87", "city": "El Lamero", "lon": "-70.637216"}, {"lat": "6.589722", "city": "El Le\u00f3n", "lon": "-70.375556"}, {"lat": "7.073082", "city": "El Lim\u00f3n", "lon": "-70.840225"}, {"lat": "6.225934", "city": "El Loro", "lon": "-70.718752"}, {"lat": "7.057048", "city": "El Manguito", "lon": "-70.608056"}, {"lat": "6.418494", "city": "El Martirio", "lon": "-70.461514"}, {"lat": "6.338531", "city": "El Milagro", "lon": "-70.545773"}, {"lat": "6.332363", "city": "El Morenero", "lon": "-70.222211"}, {"lat": "6.3", "city": "El Musiu", "lon": "-71.1"}, {"lat": "6.595686", "city": "El Negro", "lon": "-70.630701"}, {"lat": "6.440571", "city": "El Nogal", "lon": "-71.709608"}, {"lat": "6.716667", "city": "El Ocaso", "lon": "-71.233333"}, {"lat": "6.280477", "city": "El Padre", "lon": "-71.1"}, {"lat": "6.536215", "city": "El Pae\u00f1o", "lon": "-70.689517"}, {"lat": "7.020258", "city": "El Palenque", "lon": "-70.769013"}, {"lat": "6.483333", "city": "El Panche", "lon": "-71.033333"}, {"lat": "6.266667", "city": "El Para\u00edso", "lon": "-71.083333"}, {"lat": "6.617818", "city": "El Para\u00edso Terrenal", "lon": "-70.436486"}, {"lat": "6.546316", "city": "El Parale\u00f1o", "lon": "-70.39593"}, {"lat": "6.806991", "city": "El Pelero", "lon": "-70.744674"}, {"lat": "7.001646", "city": "El Picacho", "lon": "-70.973408"}, {"lat": "6.886442", "city": "El Picure", "lon": "-70.747979"}, {"lat": "6.739286", "city": "El Pil\u00f3n", "lon": "-70.63942"}, {"lat": "6.233333", "city": "El Porvenir", "lon": "-71.933333"}, {"lat": "7.01248", "city": "El Progreso", "lon": "-71.464305"}, {"lat": "6.552325", "city": "El Recelo", "lon": "-70.946922"}, {"lat": "6.987398", "city": "El Refugio", "lon": "-71.128803"}, {"lat": "7.010923", "city": "El Rel\u00e1mpago", "lon": "-70.969371"}, {"lat": "6.366667", "city": "El Respiro", "lon": "-71.25"}, {"lat": "6.517222", "city": "El Retiro", "lon": "-70.408611"}, {"lat": "6.542037", "city": "El Rinc\u00f3n", "lon": "-71.028764"}, {"lat": "6.537005", "city": "El Ripial", "lon": "-70.897563"}, {"lat": "6.64963", "city": "El Roble", "lon": "-70.394776"}, {"lat": "6.685315", "city": "El Rosario", "lon": "-70.354486"}, {"lat": "7.01321", "city": "El Rub\u00ed", "lon": "-71.318566"}, {"lat": "6.806991", "city": "El Saman", "lon": "-70.744674"}, {"lat": "6.483333", "city": "El Sarare", "lon": "-71.033333"}, {"lat": "6.414845", "city": "El Sarrapio", "lon": "-71.685098"}, {"lat": "7.067801", "city": "El Sarre", "lon": "-70.633298"}, {"lat": "6.981034", "city": "El Silencio", "lon": "-70.980391"}, {"lat": "6.304008", "city": "El Sina\u00ed", "lon": "-71.889448"}, {"lat": "6.63076", "city": "El Sol", "lon": "-70.730744"}, {"lat": "6.51043", "city": "El Suro", "lon": "-70.893672"}, {"lat": "6.661075", "city": "El Tesoro", "lon": "-70.740972"}, {"lat": "6.583333", "city": "El Tigre", "lon": "-70.25"}, {"lat": "7.065963", "city": "El Torno", "lon": "-70.844942"}, {"lat": "6.533333", "city": "El Totumo", "lon": "-71.7"}, {"lat": "6.780679", "city": "El Tr\u00e9bol", "lon": "-70.686638"}, {"lat": "6.718056", "city": "El Trompillo", "lon": "-70.588889"}, {"lat": "6.857889", "city": "El Velorio", "lon": "-70.497998"}, {"lat": "6.880177", "city": "El Vergel", "lon": "-70.691372"}, {"lat": "6.880177", "city": "El Verjel", "lon": "-70.691372"}, {"lat": "6.7877", "city": "El Vicentero", "lon": "-70.631157"}, {"lat": "7.016667", "city": "El Zamuro", "lon": "-71.583333"}, {"lat": "7.000278", "city": "El Zapatero", "lon": "-70.684722"}, {"lat": "6.545831", "city": "Escudillas", "lon": "-70.40954"}, {"lat": "6.545831", "city": "Escutillas", "lon": "-70.40954"}, {"lat": "6.616667", "city": "Europa", "lon": "-71.733333"}, {"lat": "6.833263", "city": "Feliciano", "lon": "-70.483964"}, {"lat": "6.473254", "city": "Filadelfia", "lon": "-71.56763"}, {"lat": "6.884542", "city": "Flor Amarilla", "lon": "-70.848812"}, {"lat": "6.681111", "city": "Flor Amarillo", "lon": "-70.428611"}, {"lat": "6.792768", "city": "Fortoul", "lon": "-71.771699"}, {"lat": "6.4501", "city": "Fundo Barquere\u00f1a", "lon": "-71.12154"}, {"lat": "6.51089", "city": "Fundo Bogador", "lon": "-70.971505"}, {"lat": "6.263694", "city": "Fundo Buenos Aires", "lon": "-71.931924"}, {"lat": "6.364577", "city": "Fundo Casablanca", "lon": "-71.740464"}, {"lat": "6.667868", "city": "Fundo Chaparral", "lon": "-70.494825"}, {"lat": "6.433333", "city": "Fundo El Algarrobo", "lon": "-71.066667"}, {"lat": "6.527973", "city": "Fundo El Carmen", "lon": "-70.856875"}, {"lat": "6.363767", "city": "Fundo La Casirba", "lon": "-71.890356"}, {"lat": "6.218153", "city": "Fundo La Illusi\u00f3n", "lon": "-71.926665"}, {"lat": "6.387057", "city": "Fundo La Mancha", "lon": "-71.69931"}, {"lat": "6.567601", "city": "Fundo Las Abejas", "lon": "-71.000766"}, {"lat": "6.451216", "city": "Fundo Las Delicias", "lon": "-71.063468"}, {"lat": "6.322844", "city": "Fundo Las Palmas", "lon": "-71.739047"}, {"lat": "6.216667", "city": "Fundo La Victoria", "lon": "-71.933333"}, {"lat": "6.508446", "city": "Fundo La Vile\u00f1a", "lon": "-71.161282"}, {"lat": "6.68361", "city": "Fundo Los Iguanitos", "lon": "-70.595842"}, {"lat": "6.514142", "city": "Fundo Los Trompillos", "lon": "-71.109633"}, {"lat": "6.649199", "city": "Fundo Matagruesa", "lon": "-70.460818"}, {"lat": "6.386119", "city": "Fundo Matarrala", "lon": "-71.524831"}, {"lat": "6.197405", "city": "Fundo Risaralda", "lon": "-71.91753"}, {"lat": "6.512757", "city": "Fundo Rosa Blanca", "lon": "-70.984743"}, {"lat": "6.66965", "city": "Fundo Santa Cruz", "lon": "-70.625556"}, {"lat": "6.387603", "city": "Fundo Veracruz", "lon": "-71.728249"}, {"lat": "6.723428", "city": "Galiquientas", "lon": "-70.47472"}, {"lat": "6.65", "city": "Garcitas", "lon": "-69.95"}, {"lat": "7.050637", "city": "Golondrinas", "lon": "-71.732695"}, {"lat": "6.301735", "city": "Gravo", "lon": "-70.204154"}, {"lat": "7.010833", "city": "Guachamaro", "lon": "-70.951944"}, {"lat": "6.816667", "city": "Guadasmero", "lon": "-70.75"}, {"lat": "6.266667", "city": "Guanare", "lon": "-70.75"}, {"lat": "6.701692", "city": "Guaramaco", "lon": "-70.848768"}, {"lat": "6.832026", "city": "Guaratarito", "lon": "-70.81803"}, {"lat": "6.832026", "city": "Guarataros", "lon": "-70.81803"}, {"lat": "6.5", "city": "Guat\u00e1", "lon": "-71.733333"}, {"lat": "6.832026", "city": "Guatarito", "lon": "-70.81803"}, {"lat": "6.624719", "city": "Guayabital", "lon": "-70.584936"}, {"lat": "6.5", "city": "Hacienda Guat\u00e1", "lon": "-71.733333"}, {"lat": "6.468856", "city": "Hato El Porvenir", "lon": "-71.707097"}, {"lat": "6.583333", "city": "Hato El Tigre", "lon": "-70.25"}, {"lat": "6.832026", "city": "Hato Guaratarito", "lon": "-70.81803"}, {"lat": "6.832026", "city": "Hato Guavatarito", "lon": "-70.81803"}, {"lat": "6.547623", "city": "Hato La Argentina", "lon": "-70.848141"}, {"lat": "6.758382", "city": "Hato La Erica", "lon": "-70.620885"}, {"lat": "6.700201", "city": "Hato La Hidalguia", "lon": "-70.835182"}, {"lat": "6.366667", "city": "Hato La Porf\u00eda", "lon": "-70.716667"}, {"lat": "6.433056", "city": "Hato La Primavera", "lon": "-70.2614"}, {"lat": "6.716667", "city": "Hato Los Chorros", "lon": "-71.75"}, {"lat": "6.483333", "city": "Hato Los Gara\u00f1os", "lon": "-70.383333"}, {"lat": "6.712293", "city": "Hato Maporillal", "lon": "-70.613607"}, {"lat": "6.377736", "city": "Hato Matanegra", "lon": "-71.287097"}, {"lat": "6.338739", "city": "Hato Santa Cruz", "lon": "-70.556688"}, {"lat": "6.3", "city": "Hato Sendas", "lon": "-70.2"}, {"lat": "6.240776", "city": "Hato Tocoragua", "lon": "-71.772564"}, {"lat": "6.919567", "city": "Hato Valbuena", "lon": "-70.363492"}, {"lat": "6.236752", "city": "Hato Valparaiso", "lon": "-71.870293"}, {"lat": "6.894643", "city": "Hato Viejo", "lon": "-70.78493"}, {"lat": "6.288387", "city": "Hato Villa Silvia", "lon": "-71.730206"}, {"lat": "6.94148", "city": "Herradero", "lon": "-70.157408"}, {"lat": "6.880483", "city": "Indios Tunebos", "lon": "-71.956392"}, {"lat": "6.491649", "city": "Inspecci\u00f3n de Policia de Betoyes", "lon": "-71.558811"}, {"lat": "6.938705", "city": "Inspecci\u00f3n de Policia El Caracol", "lon": "-70.268717"}, {"lat": "6.225934", "city": "Inspecci\u00f3n de Policia El Loro", "lon": "-70.718752"}, {"lat": "6.833263", "city": "Inspecci\u00f3n de Polic\u00eda Feliciano", "lon": "-70.483964"}, {"lat": "6.280328", "city": "Inspecci\u00f3n de Policia Mapoy", "lon": "-71.701269"}, {"lat": "6.431113", "city": "Inspecci\u00f3n de Policia San Rafael", "lon": "-70.524028"}, {"lat": "6.333333", "city": "Jaguari", "lon": "-71.5"}, {"lat": "6.333333", "city": "Jaguir\u00ed", "lon": "-71.5"}, {"lat": "6.225751", "city": "Joaquin", "lon": "-71.521954"}, {"lat": "6.942953", "city": "Jobalita", "lon": "-70.250998"}, {"lat": "6.942953", "city": "Jobalito", "lon": "-70.250998"}, {"lat": "6.300287", "city": "Jurifera", "lon": "-71.220195"}, {"lat": "7.012237", "city": "La Aguaita", "lon": "-70.667228"}, {"lat": "6.988804", "city": "La Antioque\u00f1a", "lon": "-70.835738"}, {"lat": "6.547623", "city": "La Argentina", "lon": "-70.848141"}, {"lat": "6.742606", "city": "La Avile\u00f1a", "lon": "-70.904953"}, {"lat": "7.007978", "city": "La Boca de las Gaviotas", "lon": "-71.266567"}, {"lat": "7.035462", "city": "La Capilla", "lon": "-71.386512"}, {"lat": "6.363767", "city": "La Casirba", "lon": "-71.890356"}, {"lat": "6.412199", "city": "La Ceiba", "lon": "-70.960861"}, {"lat": "7.048445", "city": "La Ceibita", "lon": "-70.738295"}, {"lat": "6.940125", "city": "La Conquista", "lon": "-71.04924"}, {"lat": "6.878056", "city": "La Curva del Diablo", "lon": "-71.8025"}, {"lat": "6.722405", "city": "La Dalia", "lon": "-70.988117"}, {"lat": "6.583333", "city": "La Derrota", "lon": "-71.75"}, {"lat": "6.952567", "city": "La Desgracia", "lon": "-70.572899"}, {"lat": "6.98001", "city": "La Elevaci\u00f3n", "lon": "-71.089773"}, {"lat": "6.758382", "city": "La Erica", "lon": "-70.620885"}, {"lat": "6.545831", "city": "La Escudilla", "lon": "-70.40954"}, {"lat": "6.6825", "city": "La Esmeralda", "lon": "-70.446667"}, {"lat": "6.330653", "city": "La Esperanza", "lon": "-70.270309"}, {"lat": "6.462812", "city": "La Estaci\u00f3n", "lon": "-71.586973"}, {"lat": "6.720596", "city": "La Estampa", "lon": "-70.686394"}, {"lat": "6.897794", "city": "La Florida", "lon": "-70.664901"}, {"lat": "6.918791", "city": "La Fortuna", "lon": "-70.100933"}, {"lat": "6.711684", "city": "La Gallardera", "lon": "-70.810609"}, {"lat": "6.907156", "city": "La Guafilla", "lon": "-70.128794"}, {"lat": "6.895835", "city": "La Guaracura", "lon": "-70.226839"}, {"lat": "6.459477", "city": "La Guinchera", "lon": "-71.573013"}, {"lat": "6.264577", "city": "La Heliera", "lon": "-71.014045"}, {"lat": "6.700201", "city": "La Hidalgu\u00eda", "lon": "-70.835182"}, {"lat": "6.264577", "city": "La Hiliera de la Shell", "lon": "-71.014045"}, {"lat": "6.264577", "city": "La Hiliera", "lon": "-71.014045"}, {"lat": "6.218153", "city": "La Ilusi\u00f3n", "lon": "-71.926665"}, {"lat": "7.041292", "city": "La Inesera", "lon": "-70.701393"}, {"lat": "6.283333", "city": "La Islita", "lon": "-70.866667"}, {"lat": "6.433333", "city": "La Laguna", "lon": "-70.75"}, {"lat": "6.483333", "city": "La Liberalidad", "lon": "-70.683333"}, {"lat": "6.506632", "city": "La Libertad", "lon": "-70.769115"}, {"lat": "7.037748", "city": "La Lucha", "lon": "-71.703655"}, {"lat": "6.387057", "city": "La Mancha", "lon": "-71.69931"}, {"lat": "6.566667", "city": "La Manga", "lon": "-71.75"}, {"lat": "6.233333", "city": "La Mapora", "lon": "-70.516667"}, {"lat": "6.94148", "city": "La Maporita", "lon": "-70.157408"}, {"lat": "6.575908", "city": "La Maravilla", "lon": "-70.777898"}, {"lat": "6.516667", "city": "La Margarita", "lon": "-71.7"}, {"lat": "6.433333", "city": "La Napa", "lon": "-71.033333"}, {"lat": "6.233333", "city": "La Nueva Ola", "lon": "-70.916667"}, {"lat": "6.608645", "city": "La Nueva Reforma", "lon": "-70.408551"}, {"lat": "6.528056", "city": "La Oponidad", "lon": "-70.400838"}, {"lat": "6.626389", "city": "La Osa", "lon": "-70.711944"}, {"lat": "6.943939", "city": "La Palmera", "lon": "-71.818854"}, {"lat": "6.944735", "city": "La Palmita", "lon": "-70.117141"}, {"lat": "6.930331", "city": "La Panchera", "lon": "-70.487779"}, {"lat": "6.982778", "city": "La Pascualera", "lon": "-70.945"}, {"lat": "6.780538", "city": "La Pastora", "lon": "-70.92222"}, {"lat": "7.047643", "city": "La Payara", "lon": "-70.856403"}, {"lat": "6.779736", "city": "La Piedra", "lon": "-70.716604"}, {"lat": "6.95", "city": "La Pi\u00f1a", "lon": "-70.916667"}, {"lat": "6.871828", "city": "La Playita", "lon": "-70.757221"}, {"lat": "6.366667", "city": "La Porf\u00eda", "lon": "-70.716667"}, {"lat": "6.688039", "city": "La Pradera", "lon": "-71.723339"}, {"lat": "6.538846", "city": "La Prevenci\u00f3n", "lon": "-70.5168"}, {"lat": "6.433056", "city": "La Primavera", "lon": "-70.2614"}, {"lat": "6.480965", "city": "La Providencia", "lon": "-71.046208"}, {"lat": "6.934359", "city": "La Puerta", "lon": "-70.24001"}, {"lat": "6.72632", "city": "La Realidad", "lon": "-70.582843"}, {"lat": "6.665128", "city": "La Reforma", "lon": "-70.412355"}, {"lat": "6.950888", "city": "La Reinera", "lon": "-71.18812"}, {"lat": "6.466667", "city": "La Reserva", "lon": "-70.866667"}, {"lat": "6.758382", "city": "La Rica", "lon": "-70.620885"}, {"lat": "6.993315", "city": "La Romere\u00f1a", "lon": "-71.120263"}, {"lat": "7.04189", "city": "La Rompida", "lon": "-71.813414"}, {"lat": "6.568251", "city": "La Rosita", "lon": "-70.757008"}, {"lat": "6.567601", "city": "Las Abejas", "lon": "-71.000766"}, {"lat": "6.89387", "city": "La Saya", "lon": "-70.737164"}, {"lat": "6.512113", "city": "Las Brisas", "lon": "-70.930448"}, {"lat": "6.444037", "city": "Las Camelias", "lon": "-71.646177"}, {"lat": "7.030556", "city": "Las Cancioes", "lon": "-71.557222"}, {"lat": "7.030556", "city": "Las Canciones", "lon": "-71.557222"}, {"lat": "6.267528", "city": "Las Caucasias", "lon": "-70.798006"}, {"lat": "6.866205", "city": "Las Cayeras", "lon": "-70.456468"}, {"lat": "6.537019", "city": "Las Chaparritas", "lon": "-70.848997"}, {"lat": "6.783333", "city": "Las Clavellinas", "lon": "-70.466667"}, {"lat": "6.451216", "city": "Las Delicias", "lon": "-71.063468"}, {"lat": "6.545831", "city": "Las Escudillas", "lon": "-70.40954"}, {"lat": "6.981232", "city": "Las Flores", "lon": "-71.093166"}, {"lat": "6.960278", "city": "Las Gardenias", "lon": "-70.580278"}, {"lat": "6.862222", "city": "Las Ilusiones", "lon": "-70.174722"}, {"lat": "6.999293", "city": "Las Lagunitas", "lon": "-70.910578"}, {"lat": "6.548815", "city": "Las Maporas", "lon": "-71.075079"}, {"lat": "6.290407", "city": "Las Margaritas", "lon": "-70.309593"}, {"lat": "6.532372", "city": "Las Maticas", "lon": "-71.013954"}, {"lat": "6.283333", "city": "Las Mercedes", "lon": "-71"}, {"lat": "6.482181", "city": "La Soledad", "lon": "-71.045893"}, {"lat": "6.312058", "city": "La Sonrisa", "lon": "-70.222766"}, {"lat": "6.322844", "city": "Las Palmas", "lon": "-71.739047"}, {"lat": "6.758051", "city": "Las Pi\u00f1as", "lon": "-70.524861"}, {"lat": "6.552501", "city": "Las Queseras", "lon": "-70.675078"}, {"lat": "6.705695", "city": "Las Tres Eras", "lon": "-70.657201"}, {"lat": "6.994014", "city": "Las Tres Matas", "lon": "-70.572899"}, {"lat": "6.528463", "city": "Las Tres Palmas", "lon": "-70.955728"}, {"lat": "6.682693", "city": "Las Ventanas", "lon": "-70.544378"}, {"lat": "7.023664", "city": "La Tristeza", "lon": "-71.548702"}, {"lat": "6.533333", "city": "La Uni\u00f3n", "lon": "-71.633333"}, {"lat": "6.629165", "city": "Laurel Gacho", "lon": "-70.512874"}, {"lat": "6.629165", "city": "Laurel Gecho", "lon": "-70.512874"}, {"lat": "6.653721", "city": "La Vega", "lon": "-70.401917"}, {"lat": "6.936543", "city": "La Veracruz", "lon": "-70.473981"}, {"lat": "6.593742", "city": "La Verdad", "lon": "-70.245077"}, {"lat": "6.441365", "city": "La Vereda", "lon": "-70.680383"}, {"lat": "6.597849", "city": "La Veremos", "lon": "-70.393302"}, {"lat": "6.678463", "city": "La Victoria", "lon": "-70.781831"}, {"lat": "6.946326", "city": "La Vig\u00eda", "lon": "-70.527163"}, {"lat": "6.508446", "city": "La Vile\u00f1a", "lon": "-71.161282"}, {"lat": "6.054908", "city": "La Virgen", "lon": "-69.730925"}, {"lat": "6.203108", "city": "La Yag\u00fcita", "lon": "-69.972949"}, {"lat": "6.938703", "city": "Les Pajuicitos", "lon": "-70.234257"}, {"lat": "6.057128", "city": "Lipa", "lon": "-69.756387"}, {"lat": "6.186964", "city": "Lope", "lon": "-71.925108"}, {"lat": "7.065434", "city": "Lorena", "lon": "-70.586933"}, {"lat": "6.225934", "city": "Loro", "lon": "-70.718752"}, {"lat": "6.991687", "city": "Los Angelitos", "lon": "-71.108659"}, {"lat": "6.780134", "city": "Los Anzuelos", "lon": "-70.68043"}, {"lat": "6.981944", "city": "Los Arrecifes", "lon": "-70.602778"}, {"lat": "6.848614", "city": "Los Boquerones", "lon": "-70.468145"}, {"lat": "6.249722", "city": "Los Caballos", "lon": "-70.581944"}, {"lat": "6.466667", "city": "Los Ca\u00f1os", "lon": "-71.1"}, {"lat": "6.716667", "city": "Los Chorros", "lon": "-71.75"}, {"lat": "6.684513", "city": "Los Cocuisos", "lon": "-70.482834"}, {"lat": "6.483333", "city": "Los Gara\u00f1os", "lon": "-70.383333"}, {"lat": "6.865001", "city": "Los Guamitos", "lon": "-70.537776"}, {"lat": "6.316667", "city": "Los Guarataros", "lon": "-71.3"}, {"lat": "6.316667", "city": "Los Guarateros", "lon": "-71.3"}, {"lat": "6.975556", "city": "Los Gu\u00e1simos", "lon": "-70.193611"}, {"lat": "6.611111", "city": "Los Iguanitos", "lon": "-70.530556"}, {"lat": "7.041936", "city": "Los Mangos", "lon": "-70.895241"}, {"lat": "6.816667", "city": "Los Mapurites", "lon": "-70.733333"}, {"lat": "6.750961", "city": "Los Maromos", "lon": "-70.799211"}, {"lat": "6.614036", "city": "Los Medanos", "lon": "-70.493486"}, {"lat": "6.850832", "city": "Los Morrocoyes", "lon": "-70.43666"}, {"lat": "6.938703", "city": "Los Pajuicitos", "lon": "-70.234257"}, {"lat": "6.521852", "city": "Los Patos", "lon": "-70.452266"}, {"lat": "7.065795", "city": "Los Pechos", "lon": "-70.567479"}, {"lat": "6.690681", "city": "Los Placeres", "lon": "-70.657942"}, {"lat": "6.444488", "city": "Los Pomarrosos", "lon": "-70.69902"}, {"lat": "6.514142", "city": "Los Trompillos", "lon": "-71.109633"}, {"lat": "6.967451", "city": "Los Vinos", "lon": "-70.666777"}, {"lat": "6.583333", "city": "Macaguana", "lon": "-71.716667"}, {"lat": "6.583333", "city": "Macaguane", "lon": "-71.716667"}, {"lat": "6.583333", "city": "Macagu\u00e1n", "lon": "-71.716667"}, {"lat": "6.317308", "city": "Macoya de Goaf\u00ed", "lon": "-70.902957"}, {"lat": "6.317308", "city": "Macoya de Guaf\u00ed", "lon": "-70.902957"}, {"lat": "6.288396", "city": "Managua", "lon": "-70.297349"}, {"lat": "6.083333", "city": "Manat\u00ed", "lon": "-69.466667"}, {"lat": "6.5", "city": "Manquetalia", "lon": "-71.716667"}, {"lat": "6.712293", "city": "Maporillal", "lon": "-70.613607"}, {"lat": "6.317066", "city": "Maporilla", "lon": "-70.921581"}, {"lat": "6.280328", "city": "Mapoy", "lon": "-71.701269"}, {"lat": "6.662184", "city": "Mapurite", "lon": "-70.622146"}, {"lat": "6.879909", "city": "Maracay", "lon": "-70.315367"}, {"lat": "7.08136", "city": "Marco Fidel Su\u00e1rez", "lon": "-70.677604"}, {"lat": "6.290407", "city": "Margaritas", "lon": "-70.309593"}, {"lat": "6.35", "city": "Marichal", "lon": "-71.383333"}, {"lat": "6.55", "city": "Marrenos", "lon": "-71.033333"}, {"lat": "6.55", "city": "Marrero", "lon": "-71.033333"}, {"lat": "6.649199", "city": "Matagruesa", "lon": "-70.460818"}, {"lat": "6.416667", "city": "Matalarga", "lon": "-70.8"}, {"lat": "6.55", "city": "Mata Marrero", "lon": "-71.033333"}, {"lat": "6.377736", "city": "Matanegra", "lon": "-71.287097"}, {"lat": "6.980896", "city": "Mata Palito", "lon": "-71.134175"}, {"lat": "6.386119", "city": "Matarrala", "lon": "-71.524831"}, {"lat": "6.848984", "city": "Matarrosa", "lon": "-70.304689"}, {"lat": "6.55", "city": "Matemarrero", "lon": "-71.033333"}, {"lat": "6.269285", "city": "Matepalma", "lon": "-70.754364"}, {"lat": "6.860278", "city": "Matepi\u00f1a", "lon": "-70.779167"}, {"lat": "6.89145", "city": "Matetranquero", "lon": "-70.654365"}, {"lat": "6.614036", "city": "M\u00e9danos", "lon": "-70.493486"}, {"lat": "6.708471", "city": "Merecure", "lon": "-70.812716"}, {"lat": "6.371564", "city": "Milagro", "lon": "-70.230531"}, {"lat": "6.590996", "city": "Miraflores", "lon": "-70.647657"}, {"lat": "6.421456", "city": "Montebello", "lon": "-71.68876"}, {"lat": "6.35", "city": "Morichal", "lon": "-71.383333"}, {"lat": "6.3", "city": "Morital", "lon": "-72.083333"}, {"lat": "6.583333", "city": "Morochito", "lon": "-71.716667"}, {"lat": "6.3", "city": "Morti\u00f1al", "lon": "-72.083333"}, {"lat": "6.133333", "city": "Mu\u00f1eque", "lon": "-72.216667"}, {"lat": "7.085", "city": "Municipio de Arauca", "lon": "-70.756667"}, {"lat": "7.029167", "city": "Municipio de Arauquita", "lon": "-71.428056"}, {"lat": "6.792768", "city": "Municipio de Fortul", "lon": "-71.771699"}, {"lat": "6.817223", "city": "Neiva", "lon": "-71.793782"}, {"lat": "6.233333", "city": "Nomenome", "lon": "-71.35"}, {"lat": "6.65619", "city": "Nueva Granada", "lon": "-70.431661"}, {"lat": "6.747234", "city": "Nueva Zelandia", "lon": "-70.649373"}, {"lat": "7.032891", "city": "Palenque", "lon": "-70.748807"}, {"lat": "6.660653", "city": "Palmarrala", "lon": "-70.507781"}, {"lat": "7.009444", "city": "Panam\u00e1", "lon": "-71.758333"}, {"lat": "6.5", "city": "Paraiso", "lon": "-71.733333"}, {"lat": "6.367418", "city": "P\u00e1ratebueno", "lon": "-70.215693"}, {"lat": "6.367418", "city": "Parate Paratebueno", "lon": "-70.215693"}, {"lat": "6.680492", "city": "Pardillal", "lon": "-70.601695"}, {"lat": "6.876111", "city": "Paso La Ahuyama", "lon": "-70.585833"}, {"lat": "6.724106", "city": "Paso Real", "lon": "-70.90309"}, {"lat": "6.536944", "city": "Paso Ripial", "lon": "-70.895"}, {"lat": "6.780538", "city": "Pastora", "lon": "-70.92222"}, {"lat": "6.810195", "city": "Patebaco", "lon": "-70.923717"}, {"lat": "7.065795", "city": "Pechos", "lon": "-70.567479"}, {"lat": "6.977157", "city": "Pelena", "lon": "-71.05388"}, {"lat": "7.018181", "city": "Peralonso", "lon": "-71.478536"}, {"lat": "7", "city": "Pescado", "lon": "-71.916667"}, {"lat": "6.886442", "city": "Picure", "lon": "-70.747979"}, {"lat": "6.716667", "city": "Pi\u00f1alito", "lon": "-70.6075"}, {"lat": "6.301866", "city": "Pioresnada", "lon": "-70.163889"}, {"lat": "6.3432", "city": "Pitalito", "lon": "-70.337337"}, {"lat": "6.457778", "city": "Planch\u00f3n de Palo Herrado", "lon": "-70.596111"}, {"lat": "6.529659", "city": "Portugal", "lon": "-70.714108"}, {"lat": "6.233333", "city": "Porvenir", "lon": "-71.933333"}, {"lat": "6.485606", "city": "Potreritos", "lon": "-70.991493"}, {"lat": "6.474924", "city": "Presa", "lon": "-71.504954"}, {"lat": "6.653933", "city": "Providencia", "lon": "-70.941046"}, {"lat": "7.032222", "city": "Pueblo Nuevo", "lon": "-71.686944"}, {"lat": "6.986109", "city": "Puerta Alicia", "lon": "-70.586763"}, {"lat": "6.977796", "city": "Puerto Arturo", "lon": "-71.814735"}, {"lat": "6.95", "city": "Puerto Colombia", "lon": "-70.133333"}, {"lat": "7.050026", "city": "Puerto Contreras", "lon": "-71.820941"}, {"lat": "6.228805", "city": "Puerto de San Salvador", "lon": "-71.61492"}, {"lat": "6.581349", "city": "Puerto Ele", "lon": "-70.714423"}, {"lat": "6.245361", "city": "Puerto Gait\u00e1n", "lon": "-71.450408"}, {"lat": "6.905578", "city": "Puerto Lim\u00f3n", "lon": "-71.793625"}, {"lat": "7.032885", "city": "Puerto Lleras", "lon": "-71.690052"}, {"lat": "7.011145", "city": "Puerto Ni\u00f1o", "lon": "-71.782994"}, {"lat": "6.280477", "city": "Puerto Rendon", "lon": "-71.1"}, {"lat": "6.280477", "city": "Puerto Rond\u00f3n", "lon": "-71.1"}, {"lat": "6.8", "city": "Ranch\u00e9rias Ind\u00edos Tunebos", "lon": "-71.883333"}, {"lat": "6.280723", "city": "Rascador", "lon": "-71.281015"}, {"lat": "6.418507", "city": "Rigo", "lon": "-70.266575"}, {"lat": "6.447159", "city": "Rinconhondo", "lon": "-71.662836"}, {"lat": "7.027018", "city": "R\u00edo Viejo", "lon": "-71.287357"}, {"lat": "7.032419", "city": "R\u00edoviejo", "lon": "-71.280076"}, {"lat": "6.197405", "city": "Risaralda", "lon": "-71.91753"}, {"lat": "6.280477", "city": "Rond\u00f3n", "lon": "-71.1"}, {"lat": "6.512757", "city": "Rosa Blanca", "lon": "-70.984743"}, {"lat": "6.634722", "city": "Rosa Monta\u00f1a", "lon": "-70.643056"}, {"lat": "6.934722", "city": "Rosario", "lon": "-70.87"}, {"lat": "6.666667", "city": "Sabana de Jos\u00e9", "lon": "-70.9"}, {"lat": "7.004823", "city": "Saladilial", "lon": "-70.944471"}, {"lat": "7.004823", "city": "Saladillal", "lon": "-70.944471"}, {"lat": "6.8", "city": "Salib\u00f3n", "lon": "-71.783333"}, {"lat": "6.967787", "city": "San Bartolo", "lon": "-70.198049"}, {"lat": "7.07309", "city": "San Carlos", "lon": "-70.74799"}, {"lat": "6.412437", "city": "San Fel\u00edx", "lon": "-70.727847"}, {"lat": "6.3", "city": "San Ignacio", "lon": "-71.216667"}, {"lat": "6.507456", "city": "San Jorge", "lon": "-70.9035"}, {"lat": "6.530177", "city": "San Jos\u00e9 de Jobito", "lon": "-70.706362"}, {"lat": "6.239188", "city": "San Jos\u00e9", "lon": "-70.920051"}, {"lat": "6.186964", "city": "San Lope", "lon": "-71.925108"}, {"lat": "7.018007", "city": "San Lorenzo", "lon": "-71.515264"}, {"lat": "6.951944", "city": "San Luis", "lon": "-70.097778"}, {"lat": "6.433333", "city": "San Mart\u00edn", "lon": "-71.7"}, {"lat": "6.768801", "city": "San Miguel", "lon": "-70.502407"}, {"lat": "7.02865", "city": "San Nicol\u00e1s", "lon": "-70.727185"}, {"lat": "6.339338", "city": "San Pablo", "lon": "-70.483624"}, {"lat": "6.533333", "city": "San Pedro", "lon": "-71.966667"}, {"lat": "6.431113", "city": "San Rafael", "lon": "-70.524028"}, {"lat": "6.364577", "city": "San Regis", "lon": "-71.740464"}, {"lat": "7.000278", "city": "San Remo", "lon": "-70.684722"}, {"lat": "6.55", "city": "Santa Ana", "lon": "-69.8"}, {"lat": "6.549077", "city": "Santa B\u00e1rbara", "lon": "-70.40565"}, {"lat": "6.338739", "city": "Santa Cruz", "lon": "-70.556688"}, {"lat": "6.5", "city": "Santa Elena", "lon": "-71.783333"}, {"lat": "6.640635", "city": "Santa F\u00e9", "lon": "-70.77174"}, {"lat": "6.95099", "city": "Santa In\u00e9s", "lon": "-70.858508"}, {"lat": "6.707712", "city": "Santa Isabel", "lon": "-70.615624"}, {"lat": "6.930833", "city": "Santa Mar\u00eda", "lon": "-70.268333"}, {"lat": "6.685905", "city": "Santa Marta", "lon": "-70.792906"}, {"lat": "6.573663", "city": "Santa Rita", "lon": "-70.749991"}, {"lat": "6.627052", "city": "Santa Rosa", "lon": "-70.727172"}, {"lat": "6.627052", "city": "Santa Rosita", "lon": "-70.727172"}, {"lat": "6.686391", "city": "Santa Teresa", "lon": "-70.60604"}, {"lat": "6.330653", "city": "Santo Cristo", "lon": "-70.270309"}, {"lat": "6.334266", "city": "Santo Domingo", "lon": "-70.499475"}, {"lat": "6.573298", "city": "San Vicente", "lon": "-70.774743"}, {"lat": "6.953758", "city": "Saravena", "lon": "-71.87523"}, {"lat": "6.3", "city": "Sendas", "lon": "-70.2"}, {"lat": "6.433333", "city": "Sevilla", "lon": "-71.133333"}, {"lat": "6.264577", "city": "Shell", "lon": "-71.014045"}, {"lat": "7.031726", "city": "Sim\u00f3n Bol\u00edvar", "lon": "-71.435571"}, {"lat": "6.633333", "city": "Sinsiga", "lon": "-72.083333"}, {"lat": "6.700264", "city": "Siram\u00f3n", "lon": "-71.382317"}, {"lat": "6.633333", "city": "Sisiga", "lon": "-72.083333"}, {"lat": "6.633333", "city": "Sisinga", "lon": "-72.083333"}, {"lat": "6.482329", "city": "Sisivito", "lon": "-71.673858"}, {"lat": "6.566667", "city": "Tamanga", "lon": "-71.75"}, {"lat": "6.460995", "city": "Tame", "lon": "-71.730043"}, {"lat": "6.300287", "city": "Tarifero", "lon": "-71.220195"}, {"lat": "6.953333", "city": "Tierra Grara", "lon": "-70.1125"}, {"lat": "6.953333", "city": "Tierra Grata", "lon": "-70.1125"}, {"lat": "7.052678", "city": "Tinajas", "lon": "-71.775855"}, {"lat": "6.240776", "city": "Tocoragua", "lon": "-71.772564"}, {"lat": "7.005862", "city": "Todos Los Santos", "lon": "-70.949557"}, {"lat": "7.011876", "city": "Totumal", "lon": "-71.537915"}, {"lat": "6.977292", "city": "Tres Bocas", "lon": "-71.219466"}, {"lat": "6.366667", "city": "Tres Matas", "lon": "-70.716667"}, {"lat": "7.021478", "city": "Troncal", "lon": "-71.384261"}, {"lat": "6.78698", "city": "Tutagua", "lon": "-70.947226"}, {"lat": "6.919567", "city": "Valbuena", "lon": "-70.363492"}, {"lat": "6.236752", "city": "Valpara\u00edso", "lon": "-71.870293"}, {"lat": "6.266667", "city": "Veladero Rub\u00ed", "lon": "-71.266667"}, {"lat": "6.284234", "city": "Veladero", "lon": "-70.623181"}, {"lat": "6.387603", "city": "Veracruz", "lon": "-71.728249"}, {"lat": "6.593742", "city": "Verdad", "lon": "-70.245077"}, {"lat": "6.216667", "city": "Victoria", "lon": "-71.933333"}, {"lat": "6.643084", "city": "Vidatranquila", "lon": "-70.379686"}, {"lat": "6.635493", "city": "Villa Franca", "lon": "-70.752174"}, {"lat": "6.390309", "city": "Villa Nueva", "lon": "-71.791436"}, {"lat": "6.937953", "city": "Villanueva", "lon": "-70.295103"}, {"lat": "6.288387", "city": "Villa Silvia", "lon": "-71.730206"}, {"lat": "6.266667", "city": "Voladero", "lon": "-71.266667"}, {"lat": "7.076529", "city": "Vuelta Los Torumos", "lon": "-71.732179"}, {"lat": "6.791952", "city": "Yagrumito", "lon": "-70.791008"}, {"lat": "6.466667", "city": "Yopito", "lon": "-71.666667"}, {"lat": "6.95", "city": "Yopo", "lon": "-70.483333"}], "26": [{"lat": "6.666667", "city": "Acu\u00f1a", "lon": "-74.266667"}, {"lat": "6.333333", "city": "Agua Blanca", "lon": "-73.666667"}, {"lat": "6.388692", "city": "Aguablanca", "lon": "-73.377732"}, {"lat": "6.686389", "city": "Agua Blanca", "lon": "-73.793056"}, {"lat": "7.366667", "city": "Aguablanca", "lon": "-73.155278"}, {"lat": "6.623333", "city": "Agua Bonita", "lon": "-73.831389"}, {"lat": "6.394039", "city": "Aguabuena", "lon": "-73.259321"}, {"lat": "7.498333", "city": "Aguacaliente", "lon": "-73.216667"}, {"lat": "7.181865", "city": "Aguada de Caferino", "lon": "-73.166003"}, {"lat": "5.779722", "city": "Agua de Dios", "lon": "-73.866111"}, {"lat": "5.83", "city": "Agua Fr\u00eda", "lon": "-73.842778"}, {"lat": "7.155779", "city": "Agualinda", "lon": "-73.34215"}, {"lat": "6.264167", "city": "Aguanegra", "lon": "-74.449722"}, {"lat": "6.834792", "city": "Aguas Blancas", "lon": "-73.801341"}, {"lat": "6.5741", "city": "Aguas Claras", "lon": "-73.931706"}, {"lat": "6.6", "city": "Agua Sucia", "lon": "-72.683333"}, {"lat": "7.470556", "city": "\u00c1guilas", "lon": "-73.315833"}, {"lat": "7.1", "city": "Aguisi", "lon": "-73.65"}, {"lat": "5.761389", "city": "Albania", "lon": "-73.917778"}, {"lat": "5.855984", "city": "Alemania", "lon": "-73.981748"}, {"lat": "7.433333", "city": "Algarrobo", "lon": "-73.235278"}, {"lat": "6.769191", "city": "Aljibes", "lon": "-73.548828"}, {"lat": "5.763889", "city": "Almorzadero", "lon": "-73.851389"}, {"lat": "6.637222", "city": "Alta Flores", "lon": "-73.836667"}, {"lat": "7.280278", "city": "Alta Gloria", "lon": "-73.307222"}, {"lat": "5.966667", "city": "Altamira", "lon": "-73.983333"}, {"lat": "6.083095", "city": "Alto Bello", "lon": "-73.360338"}, {"lat": "7.106899", "city": "Alto Buey Pelado", "lon": "-73.702421"}, {"lat": "5.860903", "city": "Alto Campo Alegre", "lon": "-73.876817"}, {"lat": "5.844167", "city": "Alto Cantano", "lon": "-73.628333"}, {"lat": "5.834722", "city": "Alto Capilla", "lon": "-73.635"}, {"lat": "6.373313", "city": "Alto Caracuchal", "lon": "-73.12032"}, {"lat": "5.981667", "city": "Alto Centro Boquer\u00f3n", "lon": "-73.786111"}, {"lat": "7.319444", "city": "Alto de Angosturas", "lon": "-73.313889"}, {"lat": "6.396614", "city": "Alto El Caj\u00f3n", "lon": "-73.093089"}, {"lat": "5.873889", "city": "Alto Guamito", "lon": "-73.620833"}, {"lat": "6.204734", "city": "Alto Jordan", "lon": "-73.743447"}, {"lat": "5.916269", "city": "Alto Juyamoca", "lon": "-73.670007"}, {"lat": "5.935278", "city": "Alto La Belleza", "lon": "-73.866389"}, {"lat": "5.904648", "city": "Alto La Meseta", "lon": "-73.63265"}, {"lat": "6.484001", "city": "Alto Las Niguas", "lon": "-73.153383"}, {"lat": "6.283333", "city": "Alto Palma", "lon": "-73.65"}, {"lat": "6.289983", "city": "Alto Su\u00e1rez", "lon": "-73.401932"}, {"lat": "6.749874", "city": "Alto Viento", "lon": "-73.696296"}, {"lat": "6.277778", "city": "Amansagatos", "lon": "-73.22"}, {"lat": "6.158014", "city": "Anacal", "lon": "-73.148386"}, {"lat": "6.143059", "city": "Andorra", "lon": "-73.177442"}, {"lat": "6.813959", "city": "Angentina", "lon": "-73.705911"}, {"lat": "7.036564", "city": "Angostura", "lon": "-73.276734"}, {"lat": "6.244624", "city": "Angosturas", "lon": "-73.261442"}, {"lat": "6.272725", "city": "Antonia Santos", "lon": "-73.036037"}, {"lat": "5.929722", "city": "Aposentos", "lon": "-73.856111"}, {"lat": "6.283333", "city": "Aranda", "lon": "-73.366667"}, {"lat": "6.693532", "city": "Aratoca", "lon": "-73.020826"}, {"lat": "6.207264", "city": "Arbolsolo", "lon": "-73.103748"}, {"lat": "6.419832", "city": "\u00c1rbol Solo", "lon": "-73.222773"}, {"lat": "7.233556", "city": "Arenales", "lon": "-73.186238"}, {"lat": "6.813959", "city": "Argentina", "lon": "-73.705911"}, {"lat": "7.139015", "city": "Armenia", "lon": "-73.376389"}, {"lat": "7.185556", "city": "Arnan\u00eda", "lon": "-73.033889"}, {"lat": "7.026389", "city": "Atenas", "lon": "-73.809444"}, {"lat": "6.02863", "city": "Avenda\u00f1o La Antigua", "lon": "-73.041186"}, {"lat": "7.005289", "city": "Baborreal", "lon": "-73.166597"}, {"lat": "7.969025", "city": "Badillo", "lon": "-73.851103"}, {"lat": "6.209875", "city": "Bajo Jordan", "lon": "-73.746178"}, {"lat": "6.298534", "city": "Balcones", "lon": "-73.480631"}, {"lat": "6.733333", "city": "B\u00e1lsamo", "lon": "-73.6"}, {"lat": "6.321947", "city": "Baraya", "lon": "-73.411237"}, {"lat": "6.716667", "city": "Barbacoas", "lon": "-74.2"}, {"lat": "5.931675", "city": "Barbosa", "lon": "-73.615065"}, {"lat": "7.234985", "city": "Barcelona", "lon": "-73.146804"}, {"lat": "6.635725", "city": "Barichara", "lon": "-73.222824"}, {"lat": "6.446674", "city": "Barlovento", "lon": "-73.289199"}, {"lat": "6.033333", "city": "Barranca", "lon": "-73.7"}, {"lat": "7.065278", "city": "Barrancabermeja", "lon": "-73.854722"}, {"lat": "7.083333", "city": "Barranquita", "lon": "-73.9"}, {"lat": "7.1", "city": "Barranquito", "lon": "-73.9"}, {"lat": "7.290556", "city": "Barr\u00edales", "lon": "-73.292778"}, {"lat": "6.264459", "city": "Barro Blanco", "lon": "-73.232856"}, {"lat": "5.858969", "city": "Barro Blanko", "lon": "-74.001639"}, {"lat": "6.4", "city": "Barro Hondo", "lon": "-73.333333"}, {"lat": "6.325094", "city": "Batall\u00f3n Ingenieros", "lon": "-73.405466"}, {"lat": "6.3525", "city": "Ba\u00fal", "lon": "-74.435833"}, {"lat": "7.161433", "city": "Bavaria", "lon": "-73.139771"}, {"lat": "7.492778", "city": "Bebedero", "lon": "-73.4075"}, {"lat": "6.889448", "city": "Belgica", "lon": "-73.729511"}, {"lat": "6.346317", "city": "Bella Cristina", "lon": "-73.213636"}, {"lat": "7.241944", "city": "Bella Cruz", "lon": "-73.741667"}, {"lat": "5.933439", "city": "Bellavista", "lon": "-73.644921"}, {"lat": "6.836014", "city": "Bella Vista", "lon": "-73.785417"}, {"lat": "7.047776", "city": "Bellavista", "lon": "-73.035061"}, {"lat": "7.341667", "city": "Bella Vista", "lon": "-73.524167"}, {"lat": "7.379444", "city": "Bellavista", "lon": "-73.209722"}, {"lat": "6.075143", "city": "Berbeo", "lon": "-73.751052"}, {"lat": "5.858889", "city": "Berl\u00edn", "lon": "-73.862778"}, {"lat": "6.075143", "city": "Berveo", "lon": "-73.751052"}, {"lat": "6.344864", "city": "Betania", "lon": "-73.257713"}, {"lat": "5.789444", "city": "Bethel", "lon": "-73.864167"}, {"lat": "6.900694", "city": "Betulia", "lon": "-73.283472"}, {"lat": "7.616667", "city": "Boca de Lim\u00f3n", "lon": "-73.8"}, {"lat": "5.816667", "city": "Bocamonte", "lon": "-73.883333"}, {"lat": "7.215431", "city": "Bocas", "lon": "-73.158052"}, {"lat": "7.738333", "city": "Bocas del Rosario", "lon": "-73.7977"}, {"lat": "7.738333", "city": "Bocas de Rosario", "lon": "-73.7977"}, {"lat": "7.2475", "city": "Bodega", "lon": "-73.681944"}, {"lat": "6.009592", "city": "Bogotacito", "lon": "-73.221553"}, {"lat": "7.172041", "city": "Bolarqui", "lon": "-73.072129"}, {"lat": "5.989426", "city": "Bol\u00edvar", "lon": "-73.770208"}, {"lat": "5.822222", "city": "Bombachos", "lon": "-73.744167"}, {"lat": "6.99329", "city": "Bonaire", "lon": "-73.601675"}, {"lat": "7.192222", "city": "Bonanza", "lon": "-73.331389"}, {"lat": "6.065069", "city": "Boquemonte", "lon": "-73.020599"}, {"lat": "6.391552", "city": "Boquer\u00f3n", "lon": "-73.339704"}, {"lat": "6.233333", "city": "Borrascoso", "lon": "-73.783333"}, {"lat": "6.455924", "city": "Bosque", "lon": "-73.185939"}, {"lat": "6.45", "city": "Bot\u00f3n", "lon": "-74.083333"}, {"lat": "5.94313", "city": "Bot\u00faa", "lon": "-73.738842"}, {"lat": "6.216667", "city": "Brasil", "lon": "-74.1"}, {"lat": "5.848889", "city": "Brazuelito", "lon": "-73.662778"}, {"lat": "7.496111", "city": "Brillamar", "lon": "-73.446667"}, {"lat": "7.117071", "city": "Brisas", "lon": "-73.07024"}, {"lat": "6.665769", "city": "Brisas del Op\u00f3n", "lon": "-73.845737"}, {"lat": "7.062096", "city": "Brujas", "lon": "-72.997224"}, {"lat": "7.125393", "city": "Bucaramanga", "lon": "-73.119804"}, {"lat": "6.946808", "city": "Bucarelia", "lon": "-73.701251"}, {"lat": "6.483333", "city": "Buena Fortuna", "lon": "-74.1"}, {"lat": "6.777199", "city": "Buenaventura", "lon": "-73.509393"}, {"lat": "5.757347", "city": "Buenavista", "lon": "-73.653357"}, {"lat": "5.768333", "city": "Buenos Aires", "lon": "-73.790833"}, {"lat": "6.929472", "city": "Caballero", "lon": "-73.628437"}, {"lat": "7.114444", "city": "Cabecera del Llano", "lon": "-73.107222"}, {"lat": "6.593261", "city": "Cabrera", "lon": "-73.245453"}, {"lat": "6.9", "city": "Cabuyal", "lon": "-73.066667"}, {"lat": "6.069768", "city": "Cachal\u00fa", "lon": "-73.297502"}, {"lat": "6.188104", "city": "Cachipay", "lon": "-73.182905"}, {"lat": "7.352222", "city": "C\u00e1chira", "lon": "-73.281389"}, {"lat": "7.352222", "city": "Cachira Sur", "lon": "-73.281389"}, {"lat": "7.5", "city": "Cachir\u00ed", "lon": "-73.016667"}, {"lat": "7.45", "city": "Cachiricito", "lon": "-73.2"}, {"lat": "5.943889", "city": "Cachitos", "lon": "-73.840278"}, {"lat": "6.383333", "city": "Cachos", "lon": "-74.05"}, {"lat": "5.845556", "city": "Cajamarca", "lon": "-73.686389"}, {"lat": "7.090942", "city": "Caldas", "lon": "-73.104415"}, {"lat": "6.333333", "city": "Calderita", "lon": "-73.233333"}, {"lat": "7.347089", "city": "California", "lon": "-72.945185"}, {"lat": "6.3", "city": "Callejas", "lon": "-74.483333"}, {"lat": "6.326739", "city": "Callejona", "lon": "-73.311828"}, {"lat": "6.466667", "city": "Calz\u00f3n", "lon": "-74.1"}, {"lat": "5.9902", "city": "Campamento", "lon": "-73.153718"}, {"lat": "6.781707", "city": "Campo 27", "lon": "-73.60632"}, {"lat": "6.861667", "city": "Campo Alegre", "lon": "-73.794444"}, {"lat": "6.920166", "city": "Campoalegre", "lon": "-73.662397"}, {"lat": "6.94963", "city": "Campo Alegre", "lon": "-73.555809"}, {"lat": "6.675083", "city": "Campo Alicias", "lon": "-73.684731"}, {"lat": "7.225124", "city": "Campoamor", "lon": "-73.185807"}, {"lat": "6.227275", "city": "Campo Bello", "lon": "-72.826867"}, {"lat": "6.617188", "city": "Campo Capote", "lon": "-73.918894"}, {"lat": "7.243611", "city": "Campo de Oro", "lon": "-73.683333"}, {"lat": "6.781707", "city": "Campo El Veintisiete", "lon": "-73.60632"}, {"lat": "5.859722", "city": "Campo Hermosa", "lon": "-73.888611"}, {"lat": "6.200783", "city": "Campo Hermoso", "lon": "-73.186057"}, {"lat": "6.864652", "city": "Campo Lejano", "lon": "-73.602618"}, {"lat": "6.698606", "city": "Campo Nuevo", "lon": "-73.756469"}, {"lat": "5.963333", "city": "Campo Quinche", "lon": "-74.174167"}, {"lat": "6.263333", "city": "Campo Seco", "lon": "-74.298889"}, {"lat": "5.821111", "city": "Canacanales", "lon": "-73.974167"}, {"lat": "6.04243", "city": "Ca\u00f1ada", "lon": "-73.038031"}, {"lat": "5.764303", "city": "Ca\u00f1ada Larga", "lon": "-73.702965"}, {"lat": "6.25", "city": "Ca\u00f1af\u00edstola", "lon": "-73.45"}, {"lat": "6.083333", "city": "Ca\u00f1averal", "lon": "-73.216667"}, {"lat": "6.083333", "city": "Ca\u00f1averales", "lon": "-73.216667"}, {"lat": "6.109991", "city": "Ca\u00f1averde", "lon": "-73.25134"}, {"lat": "6.823083", "city": "Ca\u00f1o Hondo", "lon": "-73.723375"}, {"lat": "6.516667", "city": "Cantimplora", "lon": "-74.4"}, {"lat": "6.271087", "city": "Caparosa", "lon": "-73.086423"}, {"lat": "6.7", "city": "Capellan\u00eda", "lon": "-72.866667"}, {"lat": "6.528812", "city": "Capitanejo", "lon": "-72.695949"}, {"lat": "6.773302", "city": "Carabal\u00ed", "lon": "-72.854641"}, {"lat": "7.490833", "city": "Caraco", "lon": "-73.361111"}, {"lat": "6.119047", "city": "Caracol", "lon": "-73.362214"}, {"lat": "6.9", "city": "Caracoles", "lon": "-73.466667"}, {"lat": "6.320988", "city": "Caracol\u00ed", "lon": "-73.424074"}, {"lat": "5.869167", "city": "Caralito", "lon": "-73.819722"}, {"lat": "6.302246", "city": "Caraota", "lon": "-73.157392"}, {"lat": "6.332497", "city": "Carare", "lon": "-73.334737"}, {"lat": "6.781632", "city": "Carare Nuevo", "lon": "-74.098825"}, {"lat": "6.783333", "city": "Carare Viejo", "lon": "-74.1"}, {"lat": "6.17413", "city": "Cararito", "lon": "-73.31911"}, {"lat": "6.627114", "city": "Carcas\u00ed", "lon": "-72.626249"}, {"lat": "6.697358", "city": "Carmen", "lon": "-73.511165"}, {"lat": "6.166667", "city": "Carrero", "lon": "-73.55"}, {"lat": "5.837222", "city": "Carretero", "lon": "-73.776389"}, {"lat": "6.17935", "city": "Carrillo", "lon": "-73.155386"}, {"lat": "7.356944", "city": "Carure", "lon": "-73.230556"}, {"lat": "5.016667", "city": "Casablanca", "lon": "-74.016667"}, {"lat": "5.995278", "city": "Casa Blanca", "lon": "-73.621628"}, {"lat": "7.439195", "city": "Casablanca", "lon": "-73.798436"}, {"lat": "7.466667", "city": "Casa Blanca", "lon": "-73.466667"}, {"lat": "6.282305", "city": "Casa de Arcos", "lon": "-73.055847"}, {"lat": "6.282305", "city": "Casa de Aroos", "lon": "-73.055847"}, {"lat": "7.245833", "city": "Casa de Zinc", "lon": "-73.621667"}, {"lat": "6.396205", "city": "Casa Nueva", "lon": "-73.280782"}, {"lat": "7.533333", "city": "Casanueva", "lon": "-73.533333"}, {"lat": "6.165057", "city": "Casa Vieja", "lon": "-73.153987"}, {"lat": "7.684972", "city": "Caser\u00edo de Chingale", "lon": "-73.801218"}, {"lat": "6.67394", "city": "Caser\u00edo El Basto", "lon": "-72.919393"}, {"lat": "6.781707", "city": "Caser\u00edo El Veintisiete", "lon": "-73.60632"}, {"lat": "6.897525", "city": "Caser\u00edo La Bomba", "lon": "-73.612709"}, {"lat": "6.775278", "city": "Caser\u00edo La Sierra", "lon": "-73.995833"}, {"lat": "7.611179", "city": "Caser\u00edo Papayal", "lon": "-73.639962"}, {"lat": "7.585086", "city": "Caser\u00edo Paturia", "lon": "-73.826429"}, {"lat": "7.062222", "city": "Casiano", "lon": "-73.05809"}, {"lat": "6.051442", "city": "Castame", "lon": "-73.331623"}, {"lat": "5.837778", "city": "Castillos", "lon": "-73.708889"}, {"lat": "7.263889", "city": "Catatumbo", "lon": "-73.301111"}, {"lat": "7.046111", "city": "Caucaya", "lon": "-73.833889"}, {"lat": "7.261111", "city": "Cayumba", "lon": "-73.546944"}, {"lat": "7.162181", "city": "Cebuentos", "lon": "-73.137106"}, {"lat": "7.233333", "city": "Cedro", "lon": "-73.733333"}, {"lat": "7.411111", "city": "Ceiba", "lon": "-73.187778"}, {"lat": "7.183333", "city": "Ceil\u00e1n", "lon": "-73.115556"}, {"lat": "5.9015", "city": "Ceniza", "lon": "-73.641451"}, {"lat": "6.687227", "city": "Centenario", "lon": "-73.579837"}, {"lat": "6.870878", "city": "Centenos", "lon": "-73.628909"}, {"lat": "6.925799", "city": "Centro", "lon": "-73.742044"}, {"lat": "6.754266", "city": "Cepit\u00e1", "lon": "-72.974395"}, {"lat": "6.843147", "city": "Cerrito", "lon": "-72.694041"}, {"lat": "7.022813", "city": "Cerro de Morales", "lon": "-73.122019"}, {"lat": "6.316667", "city": "Chaguaca", "lon": "-72.816667"}, {"lat": "6.633333", "city": "Champ\u00e1n", "lon": "-72.883333"}, {"lat": "6.466798", "city": "Chanch\u00f3n", "lon": "-73.29125"}, {"lat": "6.124232", "city": "Chapa", "lon": "-73.123413"}, {"lat": "6.445562", "city": "Chapet\u00f3n", "lon": "-72.601522"}, {"lat": "5.836474", "city": "Charal\u00e1", "lon": "-73.281049"}, {"lat": "5.908856", "city": "Charco Bejuco", "lon": "-74.099755"}, {"lat": "7.280252", "city": "Charta", "lon": "-72.967815"}, {"lat": "6.655846", "city": "Chicacuta", "lon": "-72.879393"}, {"lat": "6.35507", "city": "Chicaqu\u00edn", "lon": "-73.26493"}, {"lat": "7.285", "city": "Chiguagua", "lon": "-73.620278"}, {"lat": "6.34431", "city": "Chima", "lon": "-73.373929"}, {"lat": "7.140906", "city": "Chimit\u00e1", "lon": "-73.063804"}, {"lat": "6.8", "city": "Chinchorrera", "lon": "-74.1"}, {"lat": "6.8", "city": "Chinchorrero", "lon": "-74.1"}, {"lat": "7.684972", "city": "Chingal\u00e1", "lon": "-73.801218"}, {"lat": "7.684972", "city": "Chingal\u00e9", "lon": "-73.801218"}, {"lat": "7.277717", "city": "Chinigua", "lon": "-73.299637"}, {"lat": "6.061956", "city": "Chipat\u00e1", "lon": "-73.637181"}, {"lat": "6.05", "city": "Chipat\u00e1 Viejo", "lon": "-73.666667"}, {"lat": "6.303372", "city": "Chircal", "lon": "-73.300246"}, {"lat": "7.151667", "city": "Chitota", "lon": "-73.115"}, {"lat": "6.952155", "city": "Chocoa", "lon": "-73.156529"}, {"lat": "6.261398", "city": "Chonriche", "lon": "-73.154532"}, {"lat": "6.381073", "city": "Chucur\u00ed", "lon": "-73.15181"}, {"lat": "7.363056", "city": "Chuspas", "lon": "-73.336667"}, {"lat": "6.314192", "city": "Cimitarra", "lon": "-73.949684"}, {"lat": "6.239079", "city": "Cincelada", "lon": "-73.078445"}, {"lat": "5.788333", "city": "Circacia", "lon": "-73.725278"}, {"lat": "5.964662", "city": "Cite", "lon": "-73.602871"}, {"lat": "6.133333", "city": "Claro", "lon": "-73.766667"}, {"lat": "5.776944", "city": "Clavelinos", "lon": "-73.853889"}, {"lat": "7.136151", "city": "Clavellina", "lon": "-73.361075"}, {"lat": "6.197648", "city": "Clavellino", "lon": "-73.494003"}, {"lat": "7.114722", "city": "Cocohondo", "lon": "-73.70012"}, {"lat": "6.067986", "city": "Cocuyos", "lon": "-73.249309"}, {"lat": "6.227805", "city": "Coleota", "lon": "-73.161747"}, {"lat": "7.016111", "city": "Col\u00f3n", "lon": "-73.0325"}, {"lat": "7.132917", "city": "Colosal", "lon": "-73.514394"}, {"lat": "5.8475", "city": "Concentraci\u00f3n Norte", "lon": "-73.752778"}, {"lat": "6.766195", "city": "Concepci\u00f3n", "lon": "-72.694004"}, {"lat": "7.281389", "city": "Conchal", "lon": "-73.262778"}, {"lat": "7.3475", "city": "Conchalito", "lon": "-73.354444"}, {"lat": "6.363601", "city": "Confines", "lon": "-73.243959"}, {"lat": "6.290053", "city": "Contrataci\u00f3n", "lon": "-73.473536"}, {"lat": "7.481667", "city": "Copebarro", "lon": "-73.616111"}, {"lat": "6.142817", "city": "Corbaraque", "lon": "-73.280885"}, {"lat": "6.333333", "city": "Corcobada", "lon": "-74.083333"}, {"lat": "6.333333", "city": "Corcovada", "lon": "-74.083333"}, {"lat": "6.795113", "city": "Corea", "lon": "-73.699823"}, {"lat": "5.864167", "city": "Corinan", "lon": "-73.730833"}, {"lat": "6.275237", "city": "Coromorito", "lon": "-73.097063"}, {"lat": "6.294611", "city": "Coromoro", "lon": "-73.040219"}, {"lat": "6.007432", "city": "Corontunjo", "lon": "-73.282261"}, {"lat": "6.233333", "city": "Corralito", "lon": "-73.483333"}, {"lat": "6.233333", "city": "Corralitos", "lon": "-73.483333"}, {"lat": "7.033553", "city": "Corregidor", "lon": "-73.168717"}, {"lat": "7.969025", "city": "Corregimiento Badillo", "lon": "-73.851103"}, {"lat": "7.738333", "city": "Corregimiento Bocas del Rosario", "lon": "-73.7977"}, {"lat": "7.350833", "city": "Corregimiento de Sabaneta", "lon": "-73.643889"}, {"lat": "7.221545", "city": "Corregimiento El Pedral", "lon": "-73.854879"}, {"lat": "7.15196", "city": "Corregimiento G\u00fcepi", "lon": "-73.856261"}, {"lat": "7.328889", "city": "Corregimiento Kil\u00f3metro 20", "lon": "-73.734442"}, {"lat": "7.391586", "city": "Corregimiento La G\u00f3mez", "lon": "-73.5522"}, {"lat": "7.348517", "city": "Corregimiento Pradilla", "lon": "-73.679641"}, {"lat": "7.325224", "city": "Corregimiento San Claver", "lon": "-73.777449"}, {"lat": "7.849913", "city": "Corregimiento Vijagual", "lon": "-73.815808"}, {"lat": "6.007432", "city": "Coruntujo", "lon": "-73.282261"}, {"lat": "6.754384", "city": "Coscal", "lon": "-73.244898"}, {"lat": "7.195515", "city": "Crio Pueblo Nuevo", "lon": "-73.249273"}, {"lat": "5.850833", "city": "Cristales", "lon": "-73.803611"}, {"lat": "7.356944", "city": "Cristalina", "lon": "-73.674167"}, {"lat": "7.083333", "city": "Cruces", "lon": "-73.383333"}, {"lat": "7.339717", "city": "Cuchillas", "lon": "-73.163326"}, {"lat": "6.5", "city": "Cuchiquira", "lon": "-72.966667"}, {"lat": "7.405556", "city": "Cuesta Rica", "lon": "-73.276667"}, {"lat": "6.386178", "city": "Cueva Colorada", "lon": "-73.435834"}, {"lat": "6.75", "city": "Cueva", "lon": "-72.8"}, {"lat": "6.75", "city": "Cuevas", "lon": "-72.8"}, {"lat": "6.4", "city": "Culandrillo", "lon": "-74.433333"}, {"lat": "6.4", "city": "Culantrillo", "lon": "-74.433333"}, {"lat": "6.146481", "city": "Culebrillo", "lon": "-73.493993"}, {"lat": "6.60519", "city": "Curit\u00ed", "lon": "-73.068094"}, {"lat": "6.60519", "city": "Curuti", "lon": "-73.068094"}, {"lat": "5.761667", "city": "Danubio", "lon": "-73.927778"}, {"lat": "7.174167", "city": "De La Aguirre", "lon": "-73.202778"}, {"lat": "6.67814", "city": "Delicias", "lon": "-73.512311"}, {"lat": "7.161225", "city": "Diamante", "lon": "-73.132947"}, {"lat": "6.751632", "city": "Dios Si Quiere", "lon": "-73.86539"}, {"lat": "7.106926", "city": "Don Rub\u00e9n", "lon": "-73.188384"}, {"lat": "7.106926", "city": "Don Rub\u00f3n", "lon": "-73.188384"}, {"lat": "6.416667", "city": "Dorada", "lon": "-74.083333"}, {"lat": "6.783333", "city": "Dos Bocas", "lon": "-73.616667"}, {"lat": "7.238471", "city": "Dos Cocos", "lon": "-73.125434"}, {"lat": "7.238471", "city": "Dos Colos", "lon": "-73.125434"}, {"lat": "6.043611", "city": "Dos Hermanos", "lon": "-74.358333"}, {"lat": "7.22076", "city": "El Aburrido", "lon": "-73.121113"}, {"lat": "5.893517", "city": "El Achontillo", "lon": "-74.04422"}, {"lat": "6.516667", "city": "El \u00c1guila", "lon": "-74.15"}, {"lat": "5.749444", "city": "El Alisal", "lon": "-73.797222"}, {"lat": "6.635278", "city": "El Almendr\u00f3n", "lon": "-73.921944"}, {"lat": "5.7925", "city": "El Amarillo", "lon": "-73.825"}, {"lat": "7.080965", "city": "El Amparo", "lon": "-73.680781"}, {"lat": "7.463889", "city": "El Arrebol", "lon": "-73.219722"}, {"lat": "7.198106", "city": "El Astillero", "lon": "-73.811375"}, {"lat": "6.371836", "city": "El Atigal", "lon": "-73.120841"}, {"lat": "7.293889", "city": "El Aventino", "lon": "-73.098611"}, {"lat": "7.456389", "city": "El Azuceno", "lon": "-73.276667"}, {"lat": "6.491389", "city": "El Balsamo", "lon": "-74.216389"}, {"lat": "6.905437", "city": "El Bamb\u00fa", "lon": "-73.736865"}, {"lat": "6.67394", "city": "El Basto", "lon": "-72.919393"}, {"lat": "6.017278", "city": "El Billar", "lon": "-73.362956"}, {"lat": "6.323569", "city": "El Bosque", "lon": "-73.201909"}, {"lat": "7.211944", "city": "El Caballo", "lon": "-73.862318"}, {"lat": "5.987464", "city": "El Cable", "lon": "-73.598287"}, {"lat": "7.01422", "city": "El Cacho", "lon": "-73.32357"}, {"lat": "7.106707", "city": "El Cacique", "lon": "-73.095312"}, {"lat": "5.839167", "city": "El Cafetal", "lon": "-73.688333"}, {"lat": "7.411389", "city": "El Caim\u00e1n", "lon": "-73.230556"}, {"lat": "6.130974", "city": "El Cairo", "lon": "-73.254238"}, {"lat": "7.311111", "city": "El Canano", "lon": "-73.687778"}, {"lat": "5.823611", "city": "El Candado", "lon": "-73.8425"}, {"lat": "6.838973", "city": "El Canelo", "lon": "-73.730703"}, {"lat": "7.200556", "city": "El Cari\u00f1o", "lon": "-73.734167"}, {"lat": "6.697358", "city": "El Carmen", "lon": "-73.511165"}, {"lat": "6.887458", "city": "El Casta\u00f1eto", "lon": "-73.492697"}, {"lat": "7.130367", "city": "El Castillo", "lon": "-73.611091"}, {"lat": "6.978802", "city": "El Catorce", "lon": "-73.630019"}, {"lat": "7.058059", "city": "El Caucho", "lon": "-73.132313"}, {"lat": "5.874609", "city": "El Cayeno", "lon": "-73.651795"}, {"lat": "6.941944", "city": "El Cedral", "lon": "-73.574444"}, {"lat": "6.033333", "city": "El Cedro", "lon": "-73.766667"}, {"lat": "6.925799", "city": "El Centro", "lon": "-73.742044"}, {"lat": "6.801525", "city": "El Cerrito", "lon": "-73.58368"}, {"lat": "6.311953", "city": "El Cerro", "lon": "-73.450767"}, {"lat": "6.925799", "city": "El Certro", "lon": "-73.742044"}, {"lat": "5.908333", "city": "El Chamusca", "lon": "-73.831667"}, {"lat": "5.761389", "city": "El Chevre", "lon": "-73.917778"}, {"lat": "6.771312", "city": "El Chicho", "lon": "-73.594411"}, {"lat": "7.301389", "city": "El Chorro", "lon": "-73.496389"}, {"lat": "6.771312", "city": "El Chucho", "lon": "-73.594411"}, {"lat": "6.6", "city": "El Ciego", "lon": "-74.383333"}, {"lat": "6.015907", "city": "El Cinal", "lon": "-73.328141"}, {"lat": "5.765278", "city": "El Ciruelo", "lon": "-73.937222"}, {"lat": "6.766667", "city": "El Clavo", "lon": "-74.1"}, {"lat": "6.315704", "city": "El Coco", "lon": "-73.388972"}, {"lat": "6.984025", "city": "El Comej\u00e9n", "lon": "-73.553462"}, {"lat": "7.281389", "city": "El Conchal", "lon": "-73.262778"}, {"lat": "7.162778", "city": "El Conde", "lon": "-73.416111"}, {"lat": "5.909167", "city": "El Contento", "lon": "-73.85"}, {"lat": "5.955556", "city": "El Coronel", "lon": "-73.845833"}, {"lat": "7.480278", "city": "El Corono", "lon": "-73.286944"}, {"lat": "7.402222", "city": "El Cortijo", "lon": "-73.683333"}, {"lat": "6.754384", "city": "El Coscal", "lon": "-73.244898"}, {"lat": "5.905378", "city": "El Coso", "lon": "-73.640067"}, {"lat": "7.32413", "city": "El Cruce", "lon": "-73.79742"}, {"lat": "6.1", "city": "El Cucharo", "lon": "-73.616667"}, {"lat": "5.883333", "city": "El Cuchilal", "lon": "-73.383333"}, {"lat": "6.325431", "city": "El Curito", "lon": "-73.47633"}, {"lat": "6.286611", "city": "El Curo", "lon": "-73.444115"}, {"lat": "6.698606", "city": "El Danto", "lon": "-73.756469"}, {"lat": "6.153322", "city": "El Delirio", "lon": "-73.10936"}, {"lat": "5.795556", "city": "El Descanso", "lon": "-73.974722"}, {"lat": "7.236154", "city": "El Desecho", "lon": "-73.23817"}, {"lat": "6.240833", "city": "El Desenga\u00f1o", "lon": "-73.240833"}, {"lat": "7.151667", "city": "El Deseo", "lon": "-73.881944"}, {"lat": "5.896689", "city": "El Diamante", "lon": "-73.92126"}, {"lat": "7.022006", "city": "El Dieciocho", "lon": "-73.626676"}, {"lat": "7.001525", "city": "El Dieciseis", "lon": "-73.62872"}, {"lat": "7.132572", "city": "El Diviso", "lon": "-73.492167"}, {"lat": "6.75157", "city": "El Doque", "lon": "-74.106546"}, {"lat": "6.625", "city": "El Dorado", "lon": "-73.847222"}, {"lat": "5.810278", "city": "El Duraznito", "lon": "-73.661667"}, {"lat": "5.821111", "city": "El Durazno", "lon": "-73.663333"}, {"lat": "5.782778", "city": "El Eden", "lon": "-73.988056"}, {"lat": "6.484722", "city": "El Encanto", "lon": "-74.32"}, {"lat": "5.820833", "city": "El Encenillo", "lon": "-73.845278"}, {"lat": "6.164942", "city": "El Encino", "lon": "-73.246207"}, {"lat": "6.4975", "city": "El Enga\u00f1o", "lon": "-74.225556"}, {"lat": "6.533333", "city": "El Espino", "lon": "-72.833333"}, {"lat": "6.111973", "city": "El Espumal", "lon": "-73.229083"}, {"lat": "5.813333", "city": "El Eucalipto", "lon": "-73.829722"}, {"lat": "5.850833", "city": "El Facalito", "lon": "-73.759722"}, {"lat": "7.007226", "city": "El Filo", "lon": "-73.420465"}, {"lat": "6.020596", "city": "El Fuco", "lon": "-73.365849"}, {"lat": "7.275278", "city": "El Grama", "lon": "-73.151111"}, {"lat": "7.005982", "city": "El Granadillo", "lon": "-73.028437"}, {"lat": "6.245179", "city": "El Guacamayo", "lon": "-73.496553"}, {"lat": "7.13587", "city": "El Gualilo", "lon": "-73.085895"}, {"lat": "5.823611", "city": "El Gualito", "lon": "-73.970278"}, {"lat": "5.792778", "city": "El Guamito", "lon": "-73.952778"}, {"lat": "5.744167", "city": "El Guar\u00edmo", "lon": "-73.939722"}, {"lat": "6.335554", "city": "El Guayaba", "lon": "-73.238639"}, {"lat": "6.335554", "city": "El Guayabal", "lon": "-73.238639"}, {"lat": "5.86", "city": "El Guayabo", "lon": "-74.026667"}, {"lat": "6.804974", "city": "El Guayac\u00e1n", "lon": "-73.561797"}, {"lat": "5.813889", "city": "El Hatillo", "lon": "-73.768611"}, {"lat": "6.250697", "city": "El Hato", "lon": "-73.080667"}, {"lat": "6.481835", "city": "El Hayo", "lon": "-73.029767"}, {"lat": "6.216861", "city": "El Helechal", "lon": "-73.45208"}, {"lat": "5.840891", "city": "El Higuer\u00f3n", "lon": "-74.004252"}, {"lat": "6.368055", "city": "El Hobito", "lon": "-73.369197"}, {"lat": "5.827257", "city": "El Hogar", "lon": "-73.859155"}, {"lat": "6.145676", "city": "El Horizonte", "lon": "-73.33302"}, {"lat": "5.840085", "city": "El Hoyo", "lon": "-73.719044"}, {"lat": "7.364167", "city": "El Infierno", "lon": "-73.418056"}, {"lat": "6.336035", "city": "El Japal", "lon": "-73.149007"}, {"lat": "6.748056", "city": "El Jard\u00edn", "lon": "-73.908611"}, {"lat": "6.875692", "city": "El Jazm\u00edn", "lon": "-73.702798"}, {"lat": "6.732996", "city": "El Jordan", "lon": "-73.095885"}, {"lat": "6.608419", "city": "El Juncal", "lon": "-72.713794"}, {"lat": "6.638852", "city": "El Junco", "lon": "-72.801845"}, {"lat": "7.355833", "city": "El Lamal", "lon": "-73.07"}, {"lat": "6.742123", "city": "El Laurel", "lon": "-72.914595"}, {"lat": "6.84143", "city": "El Le\u00f3n", "lon": "-73.505612"}, {"lat": "5.916075", "city": "El L\u00edbano", "lon": "-73.59824"}, {"lat": "6.389002", "city": "El Liestal", "lon": "-73.26823"}, {"lat": "5.87", "city": "El Lihano", "lon": "-74.016111"}, {"lat": "7.038127", "city": "El Limoncito", "lon": "-73.645505"}, {"lat": "5.846667", "city": "El Lim\u00f3n", "lon": "-73.683611"}, {"lat": "7.048371", "city": "El Lincon", "lon": "-73.317085"}, {"lat": "7.092577", "city": "El Lindero", "lon": "-73.390137"}, {"lat": "7.155278", "city": "El Llanito", "lon": "-73.760833"}, {"lat": "6.155265", "city": "El Llano", "lon": "-73.121296"}, {"lat": "6.75672", "city": "El Madro\u00f1o", "lon": "-73.693355"}, {"lat": "6.207538", "city": "El Madruno", "lon": "-73.401689"}, {"lat": "7.096222", "city": "El Manchado", "lon": "-73.230234"}, {"lat": "5.955278", "city": "El Manchador", "lon": "-73.796389"}, {"lat": "5.7375", "city": "El Manzano", "lon": "-73.841389"}, {"lat": "6.196569", "city": "El Maracay", "lon": "-73.355069"}, {"lat": "6.793056", "city": "El Mararay", "lon": "-73.570278"}, {"lat": "6.841229", "city": "El Marcito", "lon": "-73.521975"}, {"lat": "6.97987", "city": "El Marf\u00edl", "lon": "-73.676024"}, {"lat": "6.409654", "city": "El Mason", "lon": "-73.148543"}, {"lat": "6.409654", "city": "El Mes\u00f3n", "lon": "-73.148543"}, {"lat": "5.783333", "city": "El Milagro", "lon": "-73.65"}, {"lat": "7.002744", "city": "El Molino", "lon": "-73.172112"}, {"lat": "6.455519", "city": "El Moral", "lon": "-73.155927"}, {"lat": "5.770833", "city": "El Morro", "lon": "-73.663333"}, {"lat": "7.223611", "city": "El Mosco", "lon": "-73.382222"}, {"lat": "7.254167", "city": "El Muerto", "lon": "-73.283611"}, {"lat": "7.1175", "city": "El Naranjal", "lon": "-73.788889"}, {"lat": "7.100297", "city": "El Naranjito", "lon": "-73.489834"}, {"lat": "5.861667", "city": "El Naranjo", "lon": "-73.614167"}, {"lat": "5.870833", "city": "El Nogal", "lon": "-73.99"}, {"lat": "6.948143", "city": "El Oasis", "lon": "-73.71861"}, {"lat": "6.923878", "city": "El Obispo", "lon": "-73.6644"}, {"lat": "7.078333", "city": "El Ocho", "lon": "-73.812222"}, {"lat": "5.9075", "city": "El Olival", "lon": "-73.906111"}, {"lat": "5.7575", "city": "El Olvida", "lon": "-73.669722"}, {"lat": "5.776111", "city": "El Olvido", "lon": "-73.626111"}, {"lat": "6.965835", "city": "El Once", "lon": "-73.609701"}, {"lat": "5.889896", "city": "El Oriente", "lon": "-73.849745"}, {"lat": "5.750278", "city": "El Ortigal", "lon": "-73.818333"}, {"lat": "5.868056", "city": "El Oscuro", "lon": "-73.809722"}, {"lat": "6.819533", "city": "El Pabell\u00f3n", "lon": "-73.590736"}, {"lat": "6.80295", "city": "El Pajuil", "lon": "-73.600787"}, {"lat": "6.2375", "city": "El Palacio", "lon": "-74.448333"}, {"lat": "7.231732", "city": "El Palcho", "lon": "-73.032957"}, {"lat": "7.08385", "city": "El Palenque", "lon": "-73.162955"}, {"lat": "5.810556", "city": "El Palinar", "lon": "-73.648889"}, {"lat": "5.955", "city": "El Palmar", "lon": "-73.841667"}, {"lat": "6.155036", "city": "El Palmito", "lon": "-73.380054"}, {"lat": "7.005449", "city": "El Pantano", "lon": "-73.224068"}, {"lat": "6.73575", "city": "El Papayo", "lon": "-73.703019"}, {"lat": "6.929392", "city": "El Paraguay", "lon": "-73.56844"}, {"lat": "5.849912", "city": "El Para\u00edso", "lon": "-73.906804"}, {"lat": "6.065435", "city": "El Patio", "lon": "-73.050728"}, {"lat": "7.304722", "city": "El Paujil", "lon": "-73.095"}, {"lat": "7.221545", "city": "El Pedral", "lon": "-73.854879"}, {"lat": "6.387853", "city": "El Pedregal", "lon": "-73.188696"}, {"lat": "6.295529", "city": "El Peje", "lon": "-73.437745"}, {"lat": "6.903581", "city": "El Peligro", "lon": "-73.504016"}, {"lat": "6.55", "city": "El Pe\u00f1\u00f3n", "lon": "-72.833333"}, {"lat": "7.296667", "city": "El Per\u00fa", "lon": "-73.072778"}, {"lat": "6.461271", "city": "El Picacho", "lon": "-73.106313"}, {"lat": "6.271177", "city": "El Pienta", "lon": "-73.164493"}, {"lat": "5.783889", "city": "El Pinito", "lon": "-73.715556"}, {"lat": "5.838282", "city": "El Pino", "lon": "-73.314753"}, {"lat": "6.826763", "city": "El Pire", "lon": "-72.858923"}, {"lat": "6.316901", "city": "El Pital", "lon": "-73.352252"}, {"lat": "5.791667", "city": "El Placer", "lon": "-73.74"}, {"lat": "6.890338", "city": "El Plan", "lon": "-73.419597"}, {"lat": "7.471313", "city": "El Play\u00f3n", "lon": "-73.203104"}, {"lat": "6.065375", "city": "El Poleo", "lon": "-73.271501"}, {"lat": "7.164444", "city": "El Porf\u00edn", "lon": "-73.513889"}, {"lat": "6.146347", "city": "El Portugal", "lon": "-73.377367"}, {"lat": "5.977484", "city": "El Porvenir", "lon": "-73.659807"}, {"lat": "5.85", "city": "El Prado", "lon": "-73.416667"}, {"lat": "6.708017", "city": "El Progreso", "lon": "-73.711904"}, {"lat": "6.387717", "city": "El Pueblo", "lon": "-73.139359"}, {"lat": "5.816667", "city": "El Puente", "lon": "-73.416667"}, {"lat": "7.213333", "city": "El Quemado", "lon": "-73.015"}, {"lat": "6.99279", "city": "El Quince", "lon": "-73.621704"}, {"lat": "6.560391", "city": "El Ramo", "lon": "-73.659382"}, {"lat": "6.325399", "city": "El Recorte", "lon": "-73.278525"}, {"lat": "5.794444", "city": "El Recreo", "lon": "-73.938056"}, {"lat": "5.832778", "city": "El Recuerdo", "lon": "-73.652778"}, {"lat": "6.550687", "city": "El Refugio", "lon": "-73.839282"}, {"lat": "6.093966", "city": "El Remanso", "lon": "-73.36332"}, {"lat": "5.9125", "city": "El Reposo", "lon": "-73.914167"}, {"lat": "7.077297", "city": "El Repozo", "lon": "-73.496065"}, {"lat": "5.899711", "city": "El Resguardo", "lon": "-73.963773"}, {"lat": "5.881016", "city": "El Ret\u00e9n", "lon": "-73.742471"}, {"lat": "7.418056", "city": "El Retiro", "lon": "-73.614444"}, {"lat": "6.112231", "city": "El Rinc\u00f3n", "lon": "-73.368482"}, {"lat": "6.5", "city": "El R\u00edo", "lon": "-72.616667"}, {"lat": "5.759167", "city": "El Roble", "lon": "-73.999722"}, {"lat": "6.381044", "city": "El Rodeo", "lon": "-73.334507"}, {"lat": "5.866667", "city": "El Rosal", "lon": "-73.25"}, {"lat": "5.7825", "city": "El Rosario", "lon": "-73.692222"}, {"lat": "6.388144", "city": "El Rozo", "lon": "-73.15476"}, {"lat": "5.763889", "city": "El Rub\u00ed", "lon": "-73.821667"}, {"lat": "7.491944", "city": "El Rumal", "lon": "-73.179722"}, {"lat": "6.578056", "city": "El Salado", "lon": "-73.905278"}, {"lat": "6.012919", "city": "El Saldo", "lon": "-74.127717"}, {"lat": "6.037156", "city": "El Salitre", "lon": "-73.403678"}, {"lat": "5.916084", "city": "El Salto", "lon": "-73.34962"}, {"lat": "5.743611", "city": "El Salvio", "lon": "-73.851389"}, {"lat": "7.251361", "city": "El Saman", "lon": "-73.135486"}, {"lat": "7.251361", "city": "El Sam\u00f3n", "lon": "-73.135486"}, {"lat": "6.739431", "city": "El Santuario", "lon": "-73.693626"}, {"lat": "5.766667", "city": "El Secreto", "lon": "-73.813333"}, {"lat": "7.016667", "city": "El Seis", "lon": "-73.533333"}, {"lat": "7.245645", "city": "El Sendero", "lon": "-73.44736"}, {"lat": "7.327552", "city": "El Siete", "lon": "-73.853478"}, {"lat": "7.106734", "city": "El Silencio", "lon": "-73.657515"}, {"lat": "5.922778", "city": "El Sinai", "lon": "-73.862778"}, {"lat": "6.809282", "city": "El Sinu", "lon": "-73.859413"}, {"lat": "7.033333", "city": "El Tablazo", "lon": "-73.35"}, {"lat": "5.763785", "city": "El Tachuelo", "lon": "-73.980671"}, {"lat": "5.983333", "city": "El Taladro", "lon": "-73.216667"}, {"lat": "7.296667", "city": "El Tambo", "lon": "-73.244444"}, {"lat": "6.091826", "city": "El Tambor", "lon": "-73.386553"}, {"lat": "6.27665", "city": "El Tejar", "lon": "-73.415066"}, {"lat": "6.913895", "city": "El T\u00e9rmino", "lon": "-72.871956"}, {"lat": "5.872587", "city": "El Tesoro", "lon": "-74.03584"}, {"lat": "6.266667", "city": "El Tigre", "lon": "-73.483333"}, {"lat": "6.233333", "city": "El Tirano", "lon": "-73.416667"}, {"lat": "6.716667", "city": "El Tobal", "lon": "-72.55"}, {"lat": "6.76559", "city": "El Toboso", "lon": "-73.529451"}, {"lat": "5.774167", "city": "El Toldo", "lon": "-73.696389"}, {"lat": "6.971435", "city": "El Tope", "lon": "-72.914407"}, {"lat": "6.184223", "city": "El Top\u00f3n", "lon": "-73.358225"}, {"lat": "6.733333", "city": "El Torno", "lon": "-74.1"}, {"lat": "6.083333", "city": "El Total", "lon": "-73.4"}, {"lat": "5.991944", "city": "El Trapa", "lon": "-73.840278"}, {"lat": "6.715443", "city": "El Tri\u00e1ngulo", "lon": "-73.727264"}, {"lat": "5.830556", "city": "El Triunfo", "lon": "-73.971667"}, {"lat": "6.14347", "city": "El Tunal", "lon": "-73.363103"}, {"lat": "6.24762", "city": "El Urumal", "lon": "-73.228771"}, {"lat": "5.853611", "city": "El Uvalito", "lon": "-73.921389"}, {"lat": "6.4475", "city": "El Valle", "lon": "-73.143611"}, {"lat": "6.781707", "city": "El Veintisiete", "lon": "-73.60632"}, {"lat": "5.782778", "city": "El Venado", "lon": "-73.735"}, {"lat": "7.05624", "city": "El Verde", "lon": "-73.116731"}, {"lat": "6.606111", "city": "El Vergel", "lon": "-73.863889"}, {"lat": "5.771667", "city": "El Volador", "lon": "-73.646111"}, {"lat": "5.81877", "city": "Encenillo", "lon": "-73.846935"}, {"lat": "6.137349", "city": "Encino", "lon": "-73.098474"}, {"lat": "6.668082", "city": "Enciso", "lon": "-72.699861"}, {"lat": "6.366667", "city": "Ensillada", "lon": "-73.266667"}, {"lat": "6.55", "city": "Escobillal", "lon": "-74.1"}, {"lat": "6.316667", "city": "Escuela Chaguaca", "lon": "-72.816667"}, {"lat": "6.333333", "city": "Escuela Siachia", "lon": "-72.7"}, {"lat": "6.32946", "city": "Escuela Tinavita", "lon": "-72.824575"}, {"lat": "6.4", "city": "Esmeralda", "lon": "-74.033333"}, {"lat": "6.383333", "city": "Esperanza", "lon": "-73.216667"}, {"lat": "6.652284", "city": "Espinal", "lon": "-72.724233"}, {"lat": "7.160888", "city": "Esso", "lon": "-73.141435"}, {"lat": "7.291667", "city": "Estaci\u00f3n Aguas Claras", "lon": "-73.511389"}, {"lat": "6.305299", "city": "Estaci\u00f3n Guapat\u00e1", "lon": "-73.285821"}, {"lat": "7.377222", "city": "Estaci\u00f3n Intercol N\u00famero Dos", "lon": "-73.456389"}, {"lat": "6.717546", "city": "Estaci\u00f3n La Florida", "lon": "-73.701756"}, {"lat": "6.383333", "city": "Estera", "lon": "-74.05"}, {"lat": "6.9", "city": "Esterlina", "lon": "-73.6"}, {"lat": "7.123027", "city": "Estrella Roja", "lon": "-73.632305"}, {"lat": "7.018647", "city": "Faldiquera", "lon": "-73.027394"}, {"lat": "6.800556", "city": "Florencia", "lon": "-73.870833"}, {"lat": "6.133333", "city": "Flores", "lon": "-73.766667"}, {"lat": "6.133333", "city": "Fl\u00f3rez", "lon": "-73.766667"}, {"lat": "5.804874", "city": "Flori\u00e1n", "lon": "-73.970287"}, {"lat": "7.062222", "city": "Floridablanca", "lon": "-73.08644"}, {"lat": "7.062222", "city": "Florida", "lon": "-73.08644"}, {"lat": "7.282222", "city": "Fronteras", "lon": "-73.090556"}, {"lat": "6.583333", "city": "Fundaci\u00f3n", "lon": "-74.1"}, {"lat": "6.328575", "city": "Fundamento", "lon": "-73.365739"}, {"lat": "7.133458", "city": "Gait\u00e1n", "lon": "-73.13317"}, {"lat": "6.637808", "city": "Gal\u00e1n", "lon": "-73.288778"}, {"lat": "7.37", "city": "Gal\u00e1pagos", "lon": "-73.229167"}, {"lat": "7.1", "city": "Galera", "lon": "-73.9"}, {"lat": "7.136773", "city": "Galilea", "lon": "-73.651667"}, {"lat": "6.183333", "city": "Gallegos", "lon": "-73.766667"}, {"lat": "6.431667", "city": "Gallineto", "lon": "-74.249722"}, {"lat": "5.945969", "city": "G\u00e1mbita", "lon": "-73.344348"}, {"lat": "6.247469", "city": "Gaona", "lon": "-73.068045"}, {"lat": "6.65", "city": "Garceros", "lon": "-74.1"}, {"lat": "7.302233", "city": "Garc\u00eda Cadena", "lon": "-73.790928"}, {"lat": "5.957222", "city": "Gavilanes", "lon": "-73.764722"}, {"lat": "6.383633", "city": "Germania", "lon": "-73.326462"}, {"lat": "6.374634", "city": "Girardot", "lon": "-73.382119"}, {"lat": "7.068205", "city": "Gir\u00f3n", "lon": "-73.169809"}, {"lat": "7.173333", "city": "Golondrinas", "lon": "-73.008333"}, {"lat": "7.268889", "city": "Gomero", "lon": "-73.359167"}, {"lat": "6.25", "city": "G\u00f3mez", "lon": "-73.383333"}, {"lat": "7.061753", "city": "G\u00f3mez Rodr\u00edguez", "lon": "-73.103943"}, {"lat": "7.456944", "city": "Gramalotico", "lon": "-73.013333"}, {"lat": "5.830833", "city": "Granada", "lon": "-74.019167"}, {"lat": "6.55", "city": "Granja", "lon": "-73.2"}, {"lat": "5.894213", "city": "Granja Sepas", "lon": "-73.841643"}, {"lat": "6.876209", "city": "Guaca", "lon": "-72.85594"}, {"lat": "6.214604", "city": "Guacamayas", "lon": "-73.145107"}, {"lat": "6.245179", "city": "Guacamayo", "lon": "-73.496553"}, {"lat": "5.751389", "city": "Guacos", "lon": "-73.850278"}, {"lat": "5.905278", "city": "Guadalito", "lon": "-73.975833"}, {"lat": "6.246397", "city": "Guadalupe", "lon": "-73.418333"}, {"lat": "6.25", "city": "Guadalupito", "lon": "-73.45"}, {"lat": "6.441111", "city": "Guadualito", "lon": "-74.184444"}, {"lat": "6.184785", "city": "Gualillo", "lon": "-73.717213"}, {"lat": "6.184785", "city": "Gualilo", "lon": "-73.717213"}, {"lat": "7.304722", "city": "Gualmal", "lon": "-73.028611"}, {"lat": "6.372808", "city": "Guamal", "lon": "-73.370808"}, {"lat": "6.200442", "city": "Guamanta", "lon": "-73.214503"}, {"lat": "6.245179", "city": "Guamayo", "lon": "-73.496553"}, {"lat": "6.272339", "city": "Guamera", "lon": "-73.414201"}, {"lat": "5.886111", "city": "Guamito", "lon": "-73.645"}, {"lat": "6.678945", "city": "Guane", "lon": "-73.239512"}, {"lat": "6.307976", "city": "Guapot\u00e1", "lon": "-73.320197"}, {"lat": "6.366667", "city": "Guapota Viejo", "lon": "-73.333333"}, {"lat": "6.317521", "city": "Guarata", "lon": "-73.338056"}, {"lat": "6.437377", "city": "Guare", "lon": "-73.012258"},