{"EE": {"02": [{"lat": "58.7983333", "city": "Aadma", "lon": "22.6638889"}, {"lat": "58.7983333", "city": "Aadma Asundus", "lon": "22.6638889"}, {"lat": "58.9522222", "city": "Ala", "lon": "22.8288889"}, {"lat": "58.8469444", "city": "Allika", "lon": "22.7852778"}, {"lat": "58.8602778", "city": "Arrokyulla", "lon": "23.0116667"}, {"lat": "58.8602778", "city": "Aruk\u00fcla", "lon": "23.0116667"}, {"lat": "58.9147222", "city": "Dvor Keppo", "lon": "22.2108333"}, {"lat": "58.7036111", "city": "Emmaste", "lon": "22.6169444"}, {"lat": "58.8505556", "city": "Engo", "lon": "22.4663889"}, {"lat": "58.8055556", "city": "Esik\u00fcla", "lon": "22.8375"}, {"lat": "58.8055556", "city": "Ezikyula", "lon": "22.8375"}, {"lat": "58.9602778", "city": "Fol'vark Lauk", "lon": "22.5338889"}, {"lat": "58.8480556", "city": "Fol'vark Sonlepa", "lon": "23.01"}, {"lat": "58.9058333", "city": "Fol'vark Villivalla", "lon": "22.8447222"}, {"lat": "58.7866667", "city": "Galdrik", "lon": "22.4808333"}, {"lat": "58.9352778", "city": "Gellama", "lon": "22.9475"}, {"lat": "58.8675", "city": "Hagaste", "lon": "22.9861111"}, {"lat": "58.8055556", "city": "Haldi", "lon": "22.4936111"}, {"lat": "58.7866667", "city": "Haldre", "lon": "22.4808333"}, {"lat": "58.7866667", "city": "Haldreka", "lon": "22.4808333"}, {"lat": "58.8055556", "city": "Halte", "lon": "22.4936111"}, {"lat": "58.7408333", "city": "Harju", "lon": "22.6427778"}, {"lat": "58.7333333", "city": "Harju-M\u00e4nniku", "lon": "22.6333333"}, {"lat": "58.8005556", "city": "H\u00e4rma", "lon": "22.4758333"}, {"lat": "58.9913889", "city": "Hausma", "lon": "22.7805556"}, {"lat": "58.9669444", "city": "Heigi", "lon": "22.5577778"}, {"lat": "59.0", "city": "Heilu", "lon": "22.8"}, {"lat": "58.92", "city": "Heiste", "lon": "22.5358333"}, {"lat": "58.9322222", "city": "Heistesoo", "lon": "22.2872222"}, {"lat": "58.9352778", "city": "Hellamaa", "lon": "22.9475"}, {"lat": "58.8669444", "city": "Heltermaa", "lon": "23.0438889"}, {"lat": "58.9352778", "city": "Hetlamaa", "lon": "22.9475"}, {"lat": "58.9919444", "city": "Hiiesaare", "lon": "22.8530556"}, {"lat": "58.9919444", "city": "Hiiessaare", "lon": "22.8530556"}, {"lat": "58.8675", "city": "Hilleste", "lon": "22.9861111"}, {"lat": "58.6997222", "city": "Hindu", "lon": "22.5136111"}, {"lat": "58.9313889", "city": "Hirmuste", "lon": "22.1136111"}, {"lat": "58.9825", "city": "Hohenholm", "lon": "22.4741667"}, {"lat": "58.8055556", "city": "Holdi", "lon": "22.4936111"}, {"lat": "58.9066667", "city": "H\u00fcti", "lon": "22.5066667"}, {"lat": "58.9466667", "city": "Isabella", "lon": "22.54"}, {"lat": "58.8972222", "city": "Iye", "lon": "22.3519444"}, {"lat": "58.7777778", "city": "Jausa", "lon": "22.7033333"}, {"lat": "58.8425", "city": "J\u00f5e", "lon": "22.8658333"}, {"lat": "58.8425", "city": "J\u00f5ek\u00fcla", "lon": "22.8658333"}, {"lat": "58.9527778", "city": "J\u00f5eranna", "lon": "22.4825"}, {"lat": "58.8972222", "city": "J\u00f5esuu", "lon": "22.3519444"}, {"lat": "58.8536111", "city": "Kaasiku", "lon": "22.8391667"}, {"lat": "58.7316667", "city": "Kabuna", "lon": "22.5236111"}, {"lat": "58.7927778", "city": "Kaderna", "lon": "22.4852778"}, {"lat": "58.8366667", "city": "Kaigutsi", "lon": "22.6841667"}, {"lat": "58.8255556", "city": "K\u00e4ina", "lon": "22.7897222"}, {"lat": "58.9183333", "city": "Kalana", "lon": "22.0816667"}, {"lat": "58.9116667", "city": "Kalaste", "lon": "22.1477778"}, {"lat": "58.9116667", "city": "Kaleste", "lon": "22.1477778"}, {"lat": "58.8586111", "city": "Kalgi", "lon": "22.9305556"}, {"lat": "58.9183333", "city": "Kallana", "lon": "22.0816667"}, {"lat": "58.9116667", "city": "Kalleste", "lon": "22.1477778"}, {"lat": "58.9977778", "city": "K\u00e4rdla", "lon": "22.7491667"}, {"lat": "58.9977778", "city": "K\u00e4rtla", "lon": "22.7491667"}, {"lat": "58.8038889", "city": "Kar'yakyula", "lon": "22.7127778"}, {"lat": "58.7877778", "city": "Kassaare", "lon": "22.8433333"}, {"lat": "58.7877778", "city": "Kassare", "lon": "22.8433333"}, {"lat": "58.7877778", "city": "Kassari", "lon": "22.8433333"}, {"lat": "59.0416667", "city": "Kauste", "lon": "22.5986111"}, {"lat": "58.8366667", "city": "Kaykaotsa", "lon": "22.6841667"}, {"lat": "58.8536111", "city": "Kaziku", "lon": "22.8391667"}, {"lat": "58.8255556", "city": "Keina", "lon": "22.7897222"}, {"lat": "58.8255556", "city": "Keinis", "lon": "22.7897222"}, {"lat": "58.7166667", "city": "Kemmusel'ya", "lon": "22.6166667"}, {"lat": "58.9977778", "city": "Kerdla", "lon": "22.7491667"}, {"lat": "58.9977778", "city": "Kerdlya", "lon": "22.7491667"}, {"lat": "58.8930556", "city": "Kerema", "lon": "22.9552778"}, {"lat": "58.9977778", "city": "Kerhl", "lon": "22.7491667"}, {"lat": "58.8930556", "city": "Kermea", "lon": "22.9552778"}, {"lat": "58.8255556", "city": "Kerna", "lon": "22.7897222"}, {"lat": "58.9977778", "city": "Kertel", "lon": "22.7491667"}, {"lat": "58.8255556", "city": "Keyna", "lon": "22.7897222"}, {"lat": "58.8255556", "city": "Keynis", "lon": "22.7897222"}, {"lat": "58.8675", "city": "Khagaste", "lon": "22.9861111"}, {"lat": "58.7408333", "city": "Khar'yu", "lon": "22.6427778"}, {"lat": "58.8669444", "city": "Khel'terma", "lon": "23.0438889"}, {"lat": "58.9669444", "city": "Kheygi", "lon": "22.5577778"}, {"lat": "59.0", "city": "Kheylo", "lon": "22.8"}, {"lat": "58.92", "city": "Kheyste", "lon": "22.5358333"}, {"lat": "58.9322222", "city": "Kheysteso", "lon": "22.2872222"}, {"lat": "58.9919444", "city": "Khiesare", "lon": "22.8530556"}, {"lat": "58.6997222", "city": "Khinda", "lon": "22.5136111"}, {"lat": "58.9313889", "city": "Khirmuste", "lon": "22.1136111"}, {"lat": "58.9825", "city": "Khogenkhol'm", "lon": "22.4741667"}, {"lat": "58.9066667", "city": "Khyuti", "lon": "22.5066667"}, {"lat": "58.9936111", "city": "Kidaste", "lon": "22.6025"}, {"lat": "58.8875", "city": "Kidusp\u00e4\u00e4", "lon": "22.2447222"}, {"lat": "58.8875", "city": "Kiduspe", "lon": "22.2447222"}, {"lat": "58.8875", "city": "Kiduspya", "lon": "22.2447222"}, {"lat": "58.8058333", "city": "Kiisi", "lon": "22.8661111"}, {"lat": "58.9", "city": "Kiivra", "lon": "22.4666667"}, {"lat": "58.9", "city": "Kiivri", "lon": "22.4666667"}, {"lat": "58.7658333", "city": "Kikak\u00fcla", "lon": "22.4952778"}, {"lat": "58.7833333", "city": "Kitsa", "lon": "22.4833333"}, {"lat": "58.9", "city": "Kiyvri", "lon": "22.4666667"}, {"lat": "59.0333333", "city": "Kodaste", "lon": "22.6236111"}, {"lat": "59.0333333", "city": "Kodeste", "lon": "22.6236111"}, {"lat": "58.85", "city": "Kogri", "lon": "22.8166667"}, {"lat": "58.9783333", "city": "Koidmaa", "lon": "22.6183333"}, {"lat": "58.9783333", "city": "Koidma", "lon": "22.6183333"}, {"lat": "58.8541667", "city": "Kolga", "lon": "22.7469444"}, {"lat": "58.9677778", "city": "K\u00f5lu", "lon": "22.8808333"}, {"lat": "58.9677778", "city": "K\u00f5lun\u00f5mme", "lon": "22.8808333"}, {"lat": "58.7166667", "city": "K\u00f5mmuselja", "lon": "22.6166667"}, {"lat": "58.9166667", "city": "Kopa", "lon": "22.4"}, {"lat": "58.9166667", "city": "Koppa", "lon": "22.4"}, {"lat": "58.9147222", "city": "K\u00f5ppu", "lon": "22.2108333"}, {"lat": "58.9147222", "city": "Kopuas", "lon": "22.2108333"}, {"lat": "58.9147222", "city": "K\u00f5pu", "lon": "22.2108333"}, {"lat": "58.9825", "city": "K\u00f5rgesaare", "lon": "22.4741667"}, {"lat": "58.9825", "city": "K\u00f5rgessaare", "lon": "22.4741667"}, {"lat": "58.9783333", "city": "Koydma", "lon": "22.6183333"}, {"lat": "58.8713889", "city": "Kreiandi", "lon": "22.7794444"}, {"lat": "58.8713889", "city": "Kreyandi", "lon": "22.7794444"}, {"lat": "58.9816667", "city": "Kuka", "lon": "22.8763889"}, {"lat": "58.9816667", "city": "Kukka", "lon": "22.8763889"}, {"lat": "58.77", "city": "K\u00fclak\u00fcla", "lon": "22.4958333"}, {"lat": "58.735", "city": "K\u00fclama", "lon": "22.5561111"}, {"lat": "58.9538889", "city": "Kuri", "lon": "22.9366667"}, {"lat": "58.9541667", "city": "Kuriso", "lon": "22.5616667"}, {"lat": "58.9541667", "city": "Kurisoo", "lon": "22.5616667"}, {"lat": "58.7938889", "city": "Kuriste", "lon": "22.6375"}, {"lat": "58.7622222", "city": "Kurisu", "lon": "22.5638889"}, {"lat": "58.7880556", "city": "Kuusiku", "lon": "22.5136111"}, {"lat": "58.7880556", "city": "Kuziku", "lon": "22.5136111"}, {"lat": "58.9977778", "city": "Kyardla", "lon": "22.7491667"}, {"lat": "58.8255556", "city": "Kyayna", "lon": "22.7897222"}, {"lat": "58.9147222", "city": "Kypu", "lon": "22.2108333"}, {"lat": "58.9825", "city": "Kyrgessare", "lon": "22.4741667"}, {"lat": "58.735", "city": "Kyulama", "lon": "22.5561111"}, {"lat": "58.7730556", "city": "Lassi", "lon": "22.5461111"}, {"lat": "58.9602778", "city": "Lauka", "lon": "22.5338889"}, {"lat": "58.8", "city": "Leetselja", "lon": "22.5333333"}, {"lat": "58.8788889", "city": "Leigri", "lon": "22.5930556"}, {"lat": "58.7777778", "city": "Leisu", "lon": "22.5175"}, {"lat": "58.8083333", "city": "Lelu", "lon": "22.6216667"}, {"lat": "58.6938889", "city": "Lepiku", "lon": "22.5541667"}, {"lat": "58.6938889", "city": "Leplku", "lon": "22.5541667"}, {"lat": "58.8", "city": "Letse", "lon": "22.5333333"}, {"lat": "58.8788889", "city": "Leygri", "lon": "22.5930556"}, {"lat": "58.7777778", "city": "Leyzo", "lon": "22.5175"}, {"lat": "58.7838889", "city": "Ligemaa", "lon": "22.6211111"}, {"lat": "58.7838889", "city": "Ligema", "lon": "22.6211111"}, {"lat": "58.9288889", "city": "Lilbi", "lon": "22.5552778"}, {"lat": "58.9316667", "city": "Loja", "lon": "22.8394444"}, {"lat": "58.9669444", "city": "L\u00f5pe", "lon": "22.8225"}, {"lat": "58.8116667", "city": "Luguse", "lon": "22.7255556"}, {"lat": "58.9294444", "city": "Luidja", "lon": "22.4011111"}, {"lat": "58.9294444", "city": "Luyd'ya", "lon": "22.4011111"}, {"lat": "58.9669444", "city": "Lype", "lon": "22.8225"}, {"lat": "58.8527778", "city": "M\u00e4\u00e4ltse", "lon": "22.76"}, {"lat": "58.9355556", "city": "M\u00e4\u00e4vli", "lon": "22.7172222"}, {"lat": "58.8333333", "city": "M\u00e4e", "lon": "22.7666667"}, {"lat": "58.8527778", "city": "M\u00e4ettse", "lon": "22.76"}, {"lat": "58.9241667", "city": "M\u00e4gip\u00e4\u00e4", "lon": "22.1969444"}, {"lat": "58.9241667", "city": "M\u00e4gipe", "lon": "22.1969444"}, {"lat": "59.0263889", "city": "Malvaste", "lon": "22.6011111"}, {"lat": "58.8336111", "city": "M\u00e4nnamaa", "lon": "22.6391667"}, {"lat": "58.8144444", "city": "M\u00e4nsp\u00e4\u00e4", "lon": "22.4716667"}, {"lat": "58.8144444", "city": "M\u00e4nspea", "lon": "22.4716667"}, {"lat": "58.8144444", "city": "M\u00e4nspe", "lon": "22.4716667"}, {"lat": "58.8833333", "city": "M\u00e1rdiansu", "lon": "22.4333333"}, {"lat": "58.8833333", "city": "Mardiganso", "lon": "22.4333333"}, {"lat": "58.8833333", "city": "Mardihansu", "lon": "22.4333333"}, {"lat": "58.9505556", "city": "Metsak\u00fcla", "lon": "22.5877778"}, {"lat": "58.7172222", "city": "Metsalauka", "lon": "22.5836111"}, {"lat": "58.8005556", "city": "Metsapere", "lon": "22.5025"}, {"lat": "58.9547222", "city": "M\u00f5isa Partsi", "lon": "22.8980556"}, {"lat": "58.8358333", "city": "Moka", "lon": "22.7636111"}, {"lat": "58.8358333", "city": "Mokka", "lon": "22.7636111"}, {"lat": "58.7736111", "city": "Muda", "lon": "22.6380556"}, {"lat": "59.0241667", "city": "Mudaste", "lon": "22.5611111"}, {"lat": "58.8333333", "city": "Myae", "lon": "22.7666667"}, {"lat": "58.9241667", "city": "Myagipya", "lon": "22.1969444"}, {"lat": "58.8336111", "city": "Myannama", "lon": "22.6391667"}, {"lat": "58.8144444", "city": "Myanspya", "lon": "22.4716667"}, {"lat": "58.8833333", "city": "Myardikhanzu", "lon": "22.4333333"}, {"lat": "58.9977778", "city": "Myasto Kyardla", "lon": "22.7491667"}, {"lat": "58.9355556", "city": "Myavli", "lon": "22.7172222"}, {"lat": "58.7983333", "city": "Myza Adma", "lon": "22.6638889"}, {"lat": "58.7877778", "city": "Myza Kassare", "lon": "22.8433333"}, {"lat": "58.9825", "city": "Myza Kygesare", "lon": "22.4741667"}, {"lat": "58.9316667", "city": "Myza Loya", "lon": "22.8394444"}, {"lat": "58.7922222", "city": "Myza Or'yaku", "lon": "22.7819444"}, {"lat": "58.9547222", "city": "Myza Partsi", "lon": "22.8980556"}, {"lat": "58.8316667", "city": "Myza Putkaze", "lon": "22.7955556"}, {"lat": "58.8372222", "city": "Myza Vaemla", "lon": "22.8072222"}, {"lat": "58.95", "city": "Napi", "lon": "22.5333333"}, {"lat": "58.8116667", "city": "Nasva", "lon": "22.7555556"}, {"lat": "58.8333333", "city": "Nemme", "lon": "22.75"}, {"lat": "58.8333333", "city": "Niidi", "lon": "22.8333333"}, {"lat": "58.9166667", "city": "N\u00f5mba", "lon": "22.8038889"}, {"lat": "58.8333333", "city": "N\u00f5mme", "lon": "22.75"}, {"lat": "58.7811111", "city": "Nurste", "lon": "22.5008333"}, {"lat": "58.9166667", "city": "Nymba", "lon": "22.8038889"}, {"lat": "59.0166667", "city": "Oandi", "lon": "22.55"}, {"lat": "59.0166667", "city": "Ogandi", "lon": "22.55"}, {"lat": "58.8505556", "city": "\u00d5inigu K\u00fcla", "lon": "22.4663889"}, {"lat": "58.8505556", "city": "\u00d5iniku", "lon": "22.4663889"}, {"lat": "58.7672222", "city": "Ole", "lon": "22.5211111"}, {"lat": "58.8505556", "city": "\u00d5ngu", "lon": "22.4663889"}, {"lat": "58.7922222", "city": "Orjaku M\u00f5is", "lon": "22.7819444"}, {"lat": "58.7922222", "city": "Orjaku", "lon": "22.7819444"}, {"lat": "58.7922222", "city": "Or'yaku", "lon": "22.7819444"}, {"lat": "58.9697222", "city": "Otste", "lon": "22.535"}, {"lat": "58.8372222", "city": "\u00d5unaku", "lon": "22.9030556"}, {"lat": "58.8505556", "city": "Oyniku", "lon": "22.4663889"}, {"lat": "58.9619444", "city": "Palade", "lon": "22.8583333"}, {"lat": "58.9427778", "city": "Palli", "lon": "22.3286111"}, {"lat": "58.9811111", "city": "Palukiul", "lon": "22.8155556"}, {"lat": "58.9811111", "city": "Paluk\u00fcla", "lon": "22.8155556"}, {"lat": "58.9811111", "city": "Palukyula", "lon": "22.8155556"}, {"lat": "58.9811111", "city": "Palukyulya", "lon": "22.8155556"}, {"lat": "58.9438889", "city": "Paop\u00e4\u00e4", "lon": "22.4347222"}, {"lat": "58.9438889", "city": "Paopa", "lon": "22.4347222"}, {"lat": "58.9438889", "city": "Paope", "lon": "22.4347222"}, {"lat": "58.9438889", "city": "Paopya", "lon": "22.4347222"}, {"lat": "58.9547222", "city": "Pardas", "lon": "22.8980556"}, {"lat": "58.7", "city": "P\u00e4rna", "lon": "22.55"}, {"lat": "58.8161111", "city": "P\u00e4rnselja", "lon": "22.6022222"}, {"lat": "58.9547222", "city": "Partsi", "lon": "22.8980556"}, {"lat": "58.9347222", "city": "Peoma", "lon": "22.3488889"}, {"lat": "58.8161111", "city": "Peresel'ya", "lon": "22.6022222"}, {"lat": "58.7", "city": "Perna", "lon": "22.55"}, {"lat": "58.9797222", "city": "Pihla", "lon": "22.5383333"}, {"lat": "58.9797222", "city": "Pikla", "lon": "22.5383333"}, {"lat": "58.9347222", "city": "Poamaa", "lon": "22.3488889"}, {"lat": "58.9347222", "city": "Poama", "lon": "22.3488889"}, {"lat": "58.7658333", "city": "Pr\u00e4hnu", "lon": "22.4952778"}, {"lat": "58.7202778", "city": "Prassi", "lon": "22.6302778"}, {"lat": "58.7658333", "city": "Prekhna", "lon": "22.4952778"}, {"lat": "58.8744444", "city": "P\u00fchalepa", "lon": "22.9844444"}, {"lat": "58.9216667", "city": "Puliste", "lon": "22.9572222"}, {"lat": "58.9161111", "city": "Puski", "lon": "22.4402778"}, {"lat": "58.8316667", "city": "Putkaste Asundus", "lon": "22.7955556"}, {"lat": "58.8316667", "city": "Putkaste", "lon": "22.7955556"}, {"lat": "58.6888889", "city": "Rannak\u00fcla", "lon": "22.5713889"}, {"lat": "58.85", "city": "Rehe", "lon": "22.8166667"}, {"lat": "58.7125", "city": "Reheselja", "lon": "22.5305556"}, {"lat": "59.0005556", "city": "Reigi", "lon": "22.5272222"}, {"lat": "58.9358333", "city": "Reikamaa", "lon": "22.905"}, {"lat": "58.9358333", "city": "Reikama", "lon": "22.905"}, {"lat": "58.7125", "city": "Rekhesel'ya", "lon": "22.5305556"}, {"lat": "59.0005556", "city": "Reygi", "lon": "22.5272222"}, {"lat": "58.9358333", "city": "Reykama", "lon": "22.905"}, {"lat": "59.0005556", "city": "Reyzhi", "lon": "22.5272222"}, {"lat": "58.7194444", "city": "Rida", "lon": "22.58"}, {"lat": "58.7194444", "city": "Riidak\u00fcla", "lon": "22.58"}, {"lat": "58.8505556", "city": "Ristiv\u00e4lja", "lon": "22.7713889"}, {"lat": "58.8505556", "city": "Ristivyal'ya", "lon": "22.7713889"}, {"lat": "58.9313889", "city": "Ristna", "lon": "22.0683333"}, {"lat": "59.0005556", "city": "Roigi", "lon": "22.5272222"}, {"lat": "58.9652778", "city": "S\u00e4\u00e4re", "lon": "22.9291667"}, {"lat": "58.9516667", "city": "Sakla", "lon": "22.8530556"}, {"lat": "58.8308333", "city": "Salineme", "lon": "22.9497222"}, {"lat": "58.8308333", "city": "Salin\u00f5mme Asundus", "lon": "22.9497222"}, {"lat": "58.8308333", "city": "Salin\u00f5mme", "lon": "22.9497222"}, {"lat": "58.8419444", "city": "Sarve", "lon": "23.0338889"}, {"lat": "58.7647222", "city": "Selja", "lon": "22.5225"}, {"lat": "58.8227778", "city": "Sel'ya", "lon": "22.7366667"}, {"lat": "58.7166667", "city": "Sepaste", "lon": "22.5166667"}, {"lat": "59.0166667", "city": "Sigala", "lon": "22.5333333"}, {"lat": "58.7333333", "city": "Sillaotsa", "lon": "22.6333333"}, {"lat": "58.9", "city": "Siluste", "lon": "22.5166667"}, {"lat": "58.7569444", "city": "Sinima", "lon": "22.5161111"}, {"lat": "58.8480556", "city": "Soonlepa Asundus", "lon": "23.01"}, {"lat": "58.8480556", "city": "Soonlepa", "lon": "23.01"}, {"lat": "58.7055556", "city": "S\u00f5ru", "lon": "22.5311111"}, {"lat": "58.9", "city": "S\u00fclluste", "lon": "22.5166667"}, {"lat": "58.9166667", "city": "Surepi", "lon": "22.1833333"}, {"lat": "58.865", "city": "Suur Asundus", "lon": "22.9522222"}, {"lat": "58.865", "city": "Suurem\u00f5isa", "lon": "22.9522222"}, {"lat": "58.9166667", "city": "Suurepsi", "lon": "22.1833333"}, {"lat": "58.8955556", "city": "Suureranna", "lon": "22.2972222"}, {"lat": "58.9652778", "city": "Syare", "lon": "22.9291667"}, {"lat": "58.7947222", "city": "Tagak\u00fcla", "lon": "22.8611111"}, {"lat": "58.7947222", "city": "Tagakyula", "lon": "22.8611111"}, {"lat": "58.7947222", "city": "Taguk\u00fcla", "lon": "22.8611111"}, {"lat": "59.0783333", "city": "Tahkuna", "lon": "22.5972222"}, {"lat": "59.0783333", "city": "Takhkuna", "lon": "22.5972222"}, {"lat": "58.8994444", "city": "Tamela", "lon": "22.8186111"}, {"lat": "58.8994444", "city": "Tammela", "lon": "22.8186111"}, {"lat": "58.9", "city": "Tammiste K\u00fcla", "lon": "22.3666667"}, {"lat": "58.9", "city": "Tammiste", "lon": "22.3666667"}, {"lat": "58.9", "city": "Tammistu", "lon": "22.3666667"}, {"lat": "58.6933333", "city": "T\u00e4rkma", "lon": "22.6088889"}, {"lat": "58.7966667", "city": "Tatermaa", "lon": "22.6311111"}, {"lat": "58.7966667", "city": "Taterma", "lon": "22.6311111"}, {"lat": "58.9266667", "city": "Tempa", "lon": "22.9191667"}, {"lat": "58.6933333", "city": "Terkma", "lon": "22.6088889"}, {"lat": "58.8833333", "city": "Tiharu", "lon": "22.2166667"}, {"lat": "58.8833333", "city": "Tikharu", "lon": "22.2166667"}, {"lat": "58.9522222", "city": "Tubala", "lon": "22.7738889"}, {"lat": "58.9", "city": "Tumista", "lon": "22.3666667"}, {"lat": "58.6933333", "city": "Tyarkma", "lon": "22.6088889"}, {"lat": "58.8125", "city": "\u00dchtri", "lon": "22.6625"}, {"lat": "58.8125", "city": "Ukhtri", "lon": "22.6625"}, {"lat": "58.9", "city": "\u00dclendi", "lon": "22.2133333"}, {"lat": "58.7619444", "city": "Ulja", "lon": "22.6413889"}, {"lat": "58.7619444", "city": "Ul'ya", "lon": "22.6413889"}, {"lat": "58.9005556", "city": "Undama", "lon": "22.8425"}, {"lat": "58.8038889", "city": "Utu", "lon": "22.7127778"}, {"lat": "58.9", "city": "Uylendi", "lon": "22.2133333"}, {"lat": "58.8372222", "city": "Vaemla", "lon": "22.8072222"}, {"lat": "58.8916667", "city": "Vahterp\u00e4\u00e4", "lon": "23.0191667"}, {"lat": "58.8916667", "city": "Vahtrap\u00e4\u00e4", "lon": "23.0191667"}, {"lat": "58.8916667", "city": "Vahtrepa", "lon": "23.0191667"}, {"lat": "58.8372222", "city": "Vaimla", "lon": "22.8072222"}, {"lat": "58.8916667", "city": "Vakhterpee", "lon": "23.0191667"}, {"lat": "58.8916667", "city": "Vakhterpya", "lon": "23.0191667"}, {"lat": "58.8491667", "city": "Vaku", "lon": "22.7919444"}, {"lat": "58.7519444", "city": "Valgu", "lon": "22.6502778"}, {"lat": "58.8583333", "city": "Valipe", "lon": "22.9680556"}, {"lat": "58.8583333", "city": "Valipya", "lon": "22.9680556"}, {"lat": "58.8808333", "city": "Valli", "lon": "22.7955556"}, {"lat": "58.7483333", "city": "Vanam\u00f5isa", "lon": "22.5113889"}, {"lat": "58.9283333", "city": "V\u00e4rso", "lon": "22.9591667"}, {"lat": "58.9283333", "city": "V\u00e4rssu", "lon": "22.9591667"}, {"lat": "58.9283333", "city": "V\u00e4rsu", "lon": "22.9591667"}, {"lat": "58.7777778", "city": "Vekhe-Nuste", "lon": "22.7033333"}, {"lat": "58.8613889", "city": "Viilupi", "lon": "22.9094444"}, {"lat": "58.6961111", "city": "Viiri", "lon": "22.5483333"}, {"lat": "58.9038889", "city": "Viita", "lon": "22.3527778"}, {"lat": "58.7", "city": "Viiterna", "lon": "22.6166667"}, {"lat": "58.8833333", "city": "Vilimaa", "lon": "22.2333333"}, {"lat": "58.9058333", "city": "Vilivalla", "lon": "22.8447222"}, {"lat": "58.9136111", "city": "Villamaa", "lon": "22.4016667"}, {"lat": "58.9136111", "city": "Villama", "lon": "22.4016667"}, {"lat": "58.9058333", "city": "Villivalla Asundus", "lon": "22.8447222"}, {"lat": "58.9038889", "city": "Viyta", "lon": "22.3527778"}, {"lat": "58.8166667", "city": "V\u00f5nk\u00fcla", "lon": "22.7166667"}, {"lat": "58.8166667", "city": "V\u00f5ntk\u00fcla", "lon": "22.7166667"}, {"lat": "58.9283333", "city": "Vyarzu", "lon": "22.9591667"}, {"lat": "58.8166667", "city": "Vyntkyula", "lon": "22.7166667"}, {"lat": "58.7483333", "city": "Yanamyyza", "lon": "22.5113889"}, {"lat": "58.7777778", "city": "Yauza", "lon": "22.7033333"}, {"lat": "58.8005556", "city": "Yerma", "lon": "22.4758333"}, {"lat": "58.8505556", "city": "Yinigu", "lon": "22.4663889"}, {"lat": "58.8505556", "city": "Yinnigu", "lon": "22.4663889"}], "11": [{"lat": "58.6872222", "city": "Aasa", "lon": "24.5083333"}, {"lat": "58.5188889", "city": "Aeso", "lon": "25.0816667"}, {"lat": "58.5188889", "city": "Aesoo", "lon": "25.0816667"}, {"lat": "58.4716667", "city": "Agasilla", "lon": "24.3488889"}, {"lat": "58.4780556", "city": "Ahaste", "lon": "24.2013889"}, {"lat": "58.465", "city": "Allika", "lon": "23.7425"}, {"lat": "58.6563889", "city": "Allik\u00f5nnu", "lon": "25.0"}, {"lat": "58.6480556", "city": "Alt-Fennern", "lon": "25.0361111"}, {"lat": "58.3833333", "city": "Altk\u00fcla", "lon": "24.6"}, {"lat": "58.3833333", "city": "Al'tkyula", "lon": "24.6"}, {"lat": "58.7011111", "city": "Altkyula", "lon": "24.5055556"}, {"lat": "58.5511111", "city": "Alt-Leetva", "lon": "25.1561111"}, {"lat": "58.5511111", "city": "Al't-Letva", "lon": "25.1561111"}, {"lat": "58.5666667", "city": "Alt-Massu", "lon": "24.95"}, {"lat": "58.4333333", "city": "Alt Verpel", "lon": "23.7333333"}, {"lat": "58.4208333", "city": "Alu", "lon": "24.0455556"}, {"lat": "58.6191667", "city": "Aluste", "lon": "24.9202778"}, {"lat": "58.6230556", "city": "Anelema", "lon": "24.5847222"}, {"lat": "58.335", "city": "Ange", "lon": "24.7002778"}, {"lat": "58.6516667", "city": "Anna", "lon": "24.7205556"}, {"lat": "58.6230556", "city": "Annelema", "lon": "24.5847222"}, {"lat": "58.4827778", "city": "\u00c4nnikse", "lon": "23.8175"}, {"lat": "58.3444444", "city": "Araka", "lon": "23.9708333"}, {"lat": "58.3444444", "city": "Arake", "lon": "23.9708333"}, {"lat": "58.6808333", "city": "Arase", "lon": "24.4983333"}, {"lat": "58.5216667", "city": "Are", "lon": "24.5675"}, {"lat": "58.5216667", "city": "Are Asundus", "lon": "24.5675"}, {"lat": "58.4052778", "city": "Aru", "lon": "23.7763889"}, {"lat": "58.0411111", "city": "Aruk\u00fcla", "lon": "24.6494444"}, {"lat": "58.0688889", "city": "Arumetsa", "lon": "24.52"}, {"lat": "58.4555556", "city": "Aruv\u00e4lja", "lon": "24.1866667"}, {"lat": "58.0961111", "city": "Asuja", "lon": "24.6944444"}, {"lat": "58.4086111", "city": "Audru", "lon": "24.3738889"}, {"lat": "58.6516667", "city": "Avasalu", "lon": "24.7205556"}, {"lat": "58.3833333", "city": "Bremerseite", "lon": "24.4666667"}, {"lat": "58.5977778", "city": "Didrema", "lon": "23.9358333"}, {"lat": "57.9211111", "city": "Dreimani", "lon": "24.3886111"}, {"lat": "57.9211111", "city": "Dreimanni", "lon": "24.3886111"}, {"lat": "57.9211111", "city": "Dreimansdorf", "lon": "24.3886111"}, {"lat": "58.4283333", "city": "Eametsa", "lon": "24.4597222"}, {"lat": "58.5547222", "city": "Eapere", "lon": "24.5794444"}, {"lat": "58.3944444", "city": "Eassalu", "lon": "24.1866667"}, {"lat": "58.5547222", "city": "Eavere", "lon": "24.5794444"}, {"lat": "58.6119444", "city": "Eense", "lon": "24.3844444"}, {"lat": "58.6119444", "city": "Eentsa", "lon": "24.3844444"}, {"lat": "58.6119444", "city": "Eentse", "lon": "24.3844444"}, {"lat": "58.6308333", "city": "Eerma", "lon": "24.5238889"}, {"lat": "58.4333333", "city": "Ees-Helmk\u00fcla", "lon": "23.75"}, {"lat": "58.4025", "city": "Ees-Kilgi", "lon": "23.8683333"}, {"lat": "58.3666667", "city": "Ees-Soomra", "lon": "24.1666667"}, {"lat": "58.35", "city": "Ees-Vaiste", "lon": "23.8666667"}, {"lat": "58.5333333", "city": "Ehala", "lon": "23.8166667"}, {"lat": "58.3897222", "city": "Ekhu", "lon": "23.8002778"}, {"lat": "58.5541667", "city": "Elbi", "lon": "24.8075"}, {"lat": "58.5133333", "city": "Elbu", "lon": "24.5272222"}, {"lat": "58.4666667", "city": "Ellamaa", "lon": "24.2"}, {"lat": "58.4666667", "city": "Ellama", "lon": "24.2"}, {"lat": "58.6333333", "city": "Emmu-Aruk\u00fcla", "lon": "24.1"}, {"lat": "58.6333333", "city": "Emmu-Arukyulya", "lon": "24.1"}, {"lat": "58.6277778", "city": "Emmu", "lon": "24.0819444"}, {"lat": "58.6397222", "city": "Enge", "lon": "24.5522222"}, {"lat": "58.4827778", "city": "Ennikse", "lon": "23.8175"}, {"lat": "58.6119444", "city": "Entsa", "lon": "24.3844444"}, {"lat": "58.5666667", "city": "Epa", "lon": "24.2333333"}, {"lat": "58.6308333", "city": "Erma", "lon": "24.5238889"}, {"lat": "58.3652778", "city": "Ermistu", "lon": "24.0133333"}, {"lat": "58.6147222", "city": "Ertsma", "lon": "24.4625"}, {"lat": "58.3666667", "city": "Es-Somra", "lon": "24.1666667"}, {"lat": "58.6480556", "city": "Fennern", "lon": "25.0361111"}, {"lat": "58.4855556", "city": "Fol'vark Tamba", "lon": "23.7130556"}, {"lat": "58.6077778", "city": "Ganso-Mikhel'", "lon": "24.1161111"}, {"lat": "58.0813889", "city": "Gutmannsbach", "lon": "24.5102778"}, {"lat": "58.0813889", "city": "Gutmansbakh'", "lon": "24.5102778"}, {"lat": "58.0813889", "city": "H\u00e4\u00e4demeeste", "lon": "24.5102778"}, {"lat": "58.3883333", "city": "Haapsi", "lon": "23.7238889"}, {"lat": "58.0813889", "city": "Haedemeeste", "lon": "24.5102778"}, {"lat": "58.4333333", "city": "H\u00e4idaste", "lon": "24.0333333"}, {"lat": "58.5863889", "city": "Halinga", "lon": "24.5280556"}, {"lat": "58.5113889", "city": "Hallivanni", "lon": "23.8352778"}, {"lat": "58.0813889", "city": "Hedemeste", "lon": "24.5102778"}, {"lat": "58.6363889", "city": "Helenurme", "lon": "24.3547222"}, {"lat": "58.4508333", "city": "Helmk\u00fcla", "lon": "23.7502778"}, {"lat": "58.6008333", "city": "H\u00f5beda", "lon": "24.2261111"}, {"lat": "58.5391667", "city": "H\u00f5besalu", "lon": "23.6711111"}, {"lat": "58.5391667", "city": "Hobessalu", "lon": "23.6711111"}, {"lat": "57.8791667", "city": "Ikla", "lon": "24.3627778"}, {"lat": "58.5136111", "city": "Illu", "lon": "24.5030556"}, {"lat": "58.5330556", "city": "Illuste", "lon": "23.7036111"}, {"lat": "58.2386111", "city": "Ilvese", "lon": "24.6863889"}, {"lat": "58.5666667", "city": "Ionuse", "lon": "24.2166667"}, {"lat": "58.5566667", "city": "Irta", "lon": "24.1275"}, {"lat": "58.4327778", "city": "Iykhve", "lon": "24.8519444"}, {"lat": "58.0402778", "city": "Jaagupi", "lon": "24.4680556"}, {"lat": "58.2555556", "city": "Jaama", "lon": "24.7766667"}, {"lat": "58.2555556", "city": "Jaamak\u00fcla", "lon": "24.7766667"}, {"lat": "58.05", "city": "J\u00e4\u00e4rja", "lon": "25.0158333"}, {"lat": "58.4002778", "city": "J\u00e4\u00e4rumetsa", "lon": "23.9363889"}, {"lat": "58.6058333", "city": "Jakobi", "lon": "24.5152778"}, {"lat": "58.5494444", "city": "J\u00e4nistvere", "lon": "24.1352778"}, {"lat": "58.4002778", "city": "J\u00e4rumetsa", "lon": "23.9363889"}, {"lat": "58.6166667", "city": "J\u00e4rve", "lon": "24.1597222"}, {"lat": "58.6833333", "city": "J\u00f5e\u00e4\u00e4rtse", "lon": "25.1166667"}, {"lat": "58.5333333", "city": "J\u00f5ek\u00fcla", "lon": "24.6166667"}, {"lat": "58.4927778", "city": "J\u00f5esuu", "lon": "24.9113889"}, {"lat": "58.4327778", "city": "J\u00f5hve", "lon": "24.8519444"}, {"lat": "58.5666667", "city": "Joonuse", "lon": "24.2166667"}, {"lat": "58.4733333", "city": "J\u00f5\u00f5pre", "lon": "24.3241667"}, {"lat": "58.5216667", "city": "J\u00f5ulu", "lon": "24.915"}, {"lat": "58.3691667", "city": "Juhaselja", "lon": "24.6425"}, {"lat": "58.3691667", "city": "Juhasselja", "lon": "24.6425"}, {"lat": "58.6166667", "city": "J\u00fcriksma", "lon": "24.6666667"}, {"lat": "58.5744444", "city": "Kaansoo", "lon": "25.1686111"}, {"lat": "58.5786111", "city": "Kaansoo-Oja", "lon": "25.2075"}, {"lat": "58.5786111", "city": "Kaansoo-Ojak\u00fcla", "lon": "25.2075"}, {"lat": "58.2516667", "city": "Kaapre", "lon": "24.095"}, {"lat": "58.3358333", "city": "Kabli", "lon": "24.7361111"}, {"lat": "58.6261111", "city": "Kablima", "lon": "24.3694444"}, {"lat": "58.6261111", "city": "Kablime", "lon": "24.3694444"}, {"lat": "58.0041667", "city": "Kabliuku", "lon": "24.4413889"}, {"lat": "58.0041667", "city": "Kably", "lon": "24.4413889"}, {"lat": "58.3436111", "city": "Kabriste", "lon": "24.2911111"}, {"lat": "58.4463889", "city": "Kadaka", "lon": "23.7072222"}, {"lat": "58.69", "city": "Kaelase", "lon": "24.5255556"}, {"lat": "58.5333333", "city": "Kaesso", "lon": "24.8833333"}, {"lat": "58.5333333", "city": "Kaessoo", "lon": "24.8833333"}, {"lat": "58.6897222", "city": "Kaisma", "lon": "24.7883333"}, {"lat": "58.6727778", "city": "Kaisma-Sohlu", "lon": "24.8066667"}, {"lat": "58.1855556", "city": "Kalda", "lon": "24.8027778"}, {"lat": "58.0961111", "city": "Kalita", "lon": "24.9291667"}, {"lat": "58.5386111", "city": "Kalli", "lon": "24.0427778"}, {"lat": "58.6669444", "city": "Kalmaru", "lon": "25.0836111"}, {"lat": "58.4488889", "city": "Kalmu", "lon": "24.8608333"}, {"lat": "58.2105556", "city": "Kamali", "lon": "25.1755556"}, {"lat": "58.2105556", "city": "Kamalik\u00fcla", "lon": "25.1755556"}, {"lat": "58.2433333", "city": "Kanak\u00fcla", "lon": "25.1069444"}, {"lat": "58.2433333", "city": "Kanakyula", "lon": "25.1069444"}, {"lat": "58.4666667", "city": "Kanamardi", "lon": "23.9333333"}, {"lat": "58.1333333", "city": "Kandla", "lon": "24.95"}, {"lat": "58.5791667", "city": "Kangru", "lon": "24.5133333"}, {"lat": "58.5152778", "city": "K\u00e4nnu", "lon": "24.6313889"}, {"lat": "58.5744444", "city": "Kanso", "lon": "25.1686111"}, {"lat": "58.5786111", "city": "Kanso-Oya", "lon": "25.2075"}, {"lat": "58.2516667", "city": "Kapre", "lon": "24.095"}, {"lat": "58.4308333", "city": "K\u00e4rbu", "lon": "24.235"}, {"lat": "58.6755556", "city": "K\u00e4rgu", "lon": "24.7713889"}, {"lat": "58.6213889", "city": "Karin\u00f5mme", "lon": "23.9722222"}, {"lat": "58.1875", "city": "K\u00e4rsu", "lon": "25.0611111"}, {"lat": "58.3472222", "city": "Karuga", "lon": "24.1441667"}, {"lat": "58.1158333", "city": "Karu", "lon": "26.0383333"}, {"lat": "58.1158333", "city": "Karuk\u00fcla", "lon": "26.0383333"}, {"lat": "58.34", "city": "Kastna", "lon": "23.9041667"}, {"lat": "58.1166667", "city": "Kauoja", "lon": "24.8666667"}, {"lat": "58.1166667", "city": "Kauoya", "lon": "24.8666667"}, {"lat": "58.2711111", "city": "Kavaru", "lon": "24.1716667"}, {"lat": "58.5336111", "city": "Kavaso", "lon": "24.9663889"}, {"lat": "58.5336111", "city": "Kavasoo", "lon": "24.9663889"}, {"lat": "58.6897222", "city": "Kaysma", "lon": "24.7883333"}, {"lat": "58.6727778", "city": "Kaysma-Sokhlu", "lon": "24.8066667"}, {"lat": "58.6755556", "city": "Kergu", "lon": "24.7713889"}, {"lat": "58.6863889", "city": "Kergu-M\u00e4ek\u00fcla", "lon": "24.7552778"}, {"lat": "58.6863889", "city": "Kergu-Myaekyula", "lon": "24.7552778"}, {"lat": "58.6755556", "city": "Kerkau", "lon": "24.7713889"}, {"lat": "58.3166667", "city": "Keskk\u00fcla", "lon": "24.6"}, {"lat": "58.3166667", "city": "Keskkyula", "lon": "24.6"}, {"lat": "58.5863889", "city": "Khalinga", "lon": "24.5280556"}, {"lat": "58.5113889", "city": "Khallivanni", "lon": "23.8352778"}, {"lat": "58.3883333", "city": "Khapsi", "lon": "23.7238889"}, {"lat": "58.4508333", "city": "Khel'mkyula", "lon": "23.7502778"}, {"lat": "58.0813889", "city": "Khyademeste", "lon": "24.5102778"}, {"lat": "58.4333333", "city": "Khyaydaste", "lon": "24.0333333"}, {"lat": "58.6008333", "city": "Khybeda", "lon": "24.2261111"}, {"lat": "58.5391667", "city": "Khybesalu", "lon": "23.6711111"}, {"lat": "58.6255556", "city": "Kibura", "lon": "24.1572222"}, {"lat": "58.4916667", "city": "Kidise", "lon": "23.9261111"}, {"lat": "58.4916667", "city": "Kidize", "lon": "23.9261111"}, {"lat": "58.4916667", "city": "Kidlse", "lon": "23.9261111"}, {"lat": "58.3975", "city": "Kihlepa", "lon": "24.2391667"}, {"lat": "58.44", "city": "Kiidemaa", "lon": "24.7927778"}, {"lat": "58.4011111", "city": "Kiisa", "lon": "24.6263889"}, {"lat": "58.5347222", "city": "Kiisamaa", "lon": "24.1880556"}, {"lat": "58.2547222", "city": "Kikepera", "lon": "24.8688889"}, {"lat": "58.2547222", "city": "Kikepere", "lon": "24.8688889"}, {"lat": "58.3975", "city": "Kikhlepa", "lon": "24.2391667"}, {"lat": "58.44", "city": "Kildemaa", "lon": "24.7927778"}, {"lat": "58.44", "city": "Kil'dema", "lon": "24.7927778"}, {"lat": "58.4025", "city": "Kilgi", "lon": "23.8683333"}, {"lat": "58.1333333", "city": "Kilingi", "lon": "24.9833333"}, {"lat": "58.1502778", "city": "Kilingi-Nemme", "lon": "24.9641667"}, {"lat": "58.1502778", "city": "Kilingi-N\u00f5mme", "lon": "24.9641667"}, {"lat": "58.1502778", "city": "Kilingi-Nymme", "lon": "24.9641667"}, {"lat": "58.4502778", "city": "Kilksama", "lon": "24.6036111"}, {"lat": "58.1502778", "city": "Killingi-Nymme", "lon": "24.9641667"}, {"lat": "58.465", "city": "Kiraste", "lon": "23.9775"}, {"lat": "58.6463889", "city": "Kirikum\u00f5isa", "lon": "25.0463889"}, {"lat": "58.4319444", "city": "Kirka Varbla", "lon": "23.7611111"}, {"lat": "58.21", "city": "Kivilaane", "lon": "24.9586111"}, {"lat": "58.21", "city": "Kivilane", "lon": "24.9586111"}, {"lat": "58.5330556", "city": "Kiviste", "lon": "23.7188889"}, {"lat": "58.4011111", "city": "Kiysa", "lon": "24.6263889"}, {"lat": "58.5347222", "city": "Kiysama", "lon": "24.1880556"}, {"lat": "58.5333333", "city": "Kiyza", "lon": "24.7"}, {"lat": "58.6955556", "city": "Klaasivabriku", "lon": "25.1169444"}, {"lat": "58.6955556", "city": "Klasivabriku", "lon": "25.1169444"}, {"lat": "58.6886111", "city": "Kobra", "lon": "24.9883333"}, {"lat": "58.5", "city": "Kodasmaa", "lon": "24.2"}, {"lat": "58.5", "city": "Kodasma", "lon": "24.2"}, {"lat": "58.6377778", "city": "Kodesmaa", "lon": "24.4930556"}, {"lat": "58.4380556", "city": "K\u00f5du", "lon": "24.6305556"}, {"lat": "58.4641667", "city": "Koeri", "lon": "23.9022222"}, {"lat": "58.3644444", "city": "K\u00f5ima", "lon": "24.2580556"}, {"lat": "58.5825", "city": "Konga", "lon": "24.1541667"}, {"lat": "58.7202778", "city": "K\u00f5nnu", "lon": "24.8372222"}, {"lat": "58.5825", "city": "Koonga", "lon": "24.1541667"}, {"lat": "58.56", "city": "Koora", "lon": "23.5938889"}, {"lat": "58.2619444", "city": "Kopli", "lon": "24.1319444"}, {"lat": "58.3005556", "city": "K\u00f5pu", "lon": "24.1852778"}, {"lat": "58.56", "city": "Kora", "lon": "23.5938889"}, {"lat": "58.55", "city": "K\u00f5ressoo", "lon": "24.6666667"}, {"lat": "58.6666667", "city": "K\u00f5revere", "lon": "25.0463889"}, {"lat": "58.55", "city": "K\u00f5rissoo", "lon": "24.6666667"}, {"lat": "58.5058333", "city": "Korju", "lon": "23.8058333"}, {"lat": "58.4127778", "city": "K\u00f5rsa", "lon": "24.7075"}, {"lat": "58.4", "city": "K\u00f5rtsi", "lon": "24.0833333"}, {"lat": "58.6666667", "city": "Kortsik\u00fcla", "lon": "24.7666667"}, {"lat": "58.6333333", "city": "Kose", "lon": "25.1"}, {"lat": "58.2927778", "city": "Koti", "lon": "24.2597222"}, {"lat": "58.1566667", "city": "K\u00f5veri", "lon": "24.7366667"}, {"lat": "58.6333333", "city": "Koze", "lon": "25.1"}, {"lat": "57.9361111", "city": "Krundi", "lon": "24.3911111"}, {"lat": "57.9361111", "city": "Krundik\u00fcla", "lon": "24.3911111"}, {"lat": "58.5558333", "city": "Kuhu", "lon": "24.2255556"}, {"lat": "58.5558333", "city": "Kukhu", "lon": "24.2255556"}, {"lat": "58.085", "city": "K\u00fclge", "lon": "24.8794444"}, {"lat": "58.3783333", "city": "Kulli", "lon": "23.8052778"}, {"lat": "58.5736111", "city": "Kullimaa", "lon": "24.955"}, {"lat": "58.6166667", "city": "Kuninga", "lon": "24.4169444"}, {"lat": "58.5522222", "city": "K\u00fcnnametsa", "lon": "24.6377778"}, {"lat": "58.0366667", "city": "Kurak\u00fcla", "lon": "24.4677778"}, {"lat": "58.0366667", "city": "Kura", "lon": "24.4677778"}, {"lat": "58.4994444", "city": "Kurena", "lon": "24.5661111"}, {"lat": "58.6272222", "city": "Kurese", "lon": "24.1505556"}, {"lat": "58.6680556", "city": "Kurgja", "lon": "25.2486111"}, {"lat": "58.1344444", "city": "Kurgoja", "lon": "24.9372222"}, {"lat": "58.1344444", "city": "Kurgoja-Raba", "lon": "24.9372222"}, {"lat": "58.1502778", "city": "Kurkund", "lon": "24.9641667"}, {"lat": "58.2", "city": "Kutja", "lon": "24.9666667"}, {"lat": "58.2", "city": "Kut'ya", "lon": "24.9666667"}, {"lat": "58.2", "city": "Kuutja", "lon": "24.9666667"}, {"lat": "58.5152778", "city": "Kyannu", "lon": "24.6313889"}, {"lat": "58.4308333", "city": "Kyarbu", "lon": "24.235"}, {"lat": "58.5438889", "city": "Kyaru", "lon": "23.9108333"}, {"lat": "58.4380556", "city": "Kydu", "lon": "24.6305556"}, {"lat": "58.7202778", "city": "Kynnu", "lon": "24.8372222"}, {"lat": "58.3005556", "city": "Kypu", "lon": "24.1852778"}, {"lat": "58.6666667", "city": "Kyrevare", "lon": "25.0463889"}, {"lat": "58.55", "city": "Kyrisso", "lon": "24.6666667"}, {"lat": "58.4127778", "city": "Kyrsa", "lon": "24.7075"}, {"lat": "58.4", "city": "Kyrtsi", "lon": "24.0833333"}, {"lat": "58.6666667", "city": "Kyrtsikyula", "lon": "24.7666667"}, {"lat": "58.085", "city": "Kyul'ge", "lon": "24.8794444"}, {"lat": "58.1566667", "city": "Kyveri", "lon": "24.7366667"}, {"lat": "58.3644444", "city": "Kyyma", "lon": "24.2580556"}, {"lat": "58.2675", "city": "Laadi", "lon": "24.6108333"}, {"lat": "58.4", "city": "Laagitse-Kuldi", "lon": "24.0166667"}, {"lat": "58.3766667", "city": "Laagitse", "lon": "24.0091667"}, {"lat": "58.4", "city": "Lagitse-Kuldi", "lon": "24.0166667"}, {"lat": "58.3766667", "city": "Lagitse", "lon": "24.0091667"}, {"lat": "58.3230556", "city": "Lahe", "lon": "23.8925"}, {"lat": "58.2622222", "city": "L\u00e4hkma", "lon": "24.8161111"}, {"lat": "58.45", "city": "L\u00e4ilaste", "lon": "23.9833333"}, {"lat": "58.3166667", "city": "Lambak\u00fcla", "lon": "24.8666667"}, {"lat": "58.3166667", "city": "Lambakyula", "lon": "24.8666667"}, {"lat": "58.6555556", "city": "Langermaa", "lon": "24.4291667"}, {"lat": "58.6555556", "city": "Langerma", "lon": "24.4291667"}, {"lat": "58.0133333", "city": "Lanksaare", "lon": "24.8013889"}, {"lat": "58.0133333", "city": "Lanksare", "lon": "24.8013889"}, {"lat": "58.2461111", "city": "Lao", "lon": "24.1244444"}, {"lat": "57.9975", "city": "Laulaste", "lon": "24.5866667"}, {"lat": "58.5113889", "city": "Lavasaare", "lon": "24.3888889"}, {"lat": "58.5113889", "city": "Lavasare", "lon": "24.3888889"}, {"lat": "58.5113889", "city": "Lavassaare", "lon": "24.3888889"}, {"lat": "58.5113889", "city": "Lavassare", "lon": "24.3888889"}, {"lat": "58.5511111", "city": "Leetva", "lon": "25.1561111"}, {"lat": "58.4988889", "city": "Leevik\u00fcla", "lon": "24.8544444"}, {"lat": "58.6886111", "city": "Lehtmetsa", "lon": "24.5486111"}, {"lat": "58.6355556", "city": "Lehu", "lon": "24.655"}, {"lat": "58.2213889", "city": "Leina", "lon": "24.5266667"}, {"lat": "58.13", "city": "Leipste", "lon": "24.9908333"}, {"lat": "58.6886111", "city": "Lekhtmetsa", "lon": "24.5486111"}, {"lat": "58.6355556", "city": "Lekhu", "lon": "24.655"}, {"lat": "58.2788889", "city": "Lembra", "lon": "24.2213889"}, {"lat": "58.4405556", "city": "Lemmetsa", "lon": "24.4061111"}, {"lat": "58.1283333", "city": "Lemsik\u00fcla", "lon": "24.0125"}, {"lat": "58.1283333", "city": "Lemsikyulya", "lon": "24.0125"}, {"lat": "58.1283333", "city": "Lemsi", "lon": "24.0125"}, {"lat": "58.2586111", "city": "Lepak\u00fcla", "lon": "24.5838889"}, {"lat": "58.4861111", "city": "Lepplaane", "lon": "24.6505556"}, {"lat": "58.1", "city": "Lepste", "lon": "24.9833333"}, {"lat": "58.4988889", "city": "Levi", "lon": "24.8544444"}, {"lat": "58.6588889", "city": "Libatse", "lon": "24.4830556"}, {"lat": "58.4308333", "city": "Liiva Asundus", "lon": "24.2880556"}, {"lat": "58.4308333", "city": "Liiva", "lon": "24.2880556"}, {"lat": "58.1372222", "city": "Linak\u00fcla", "lon": "23.9744444"}, {"lat": "58.1372222", "city": "Linakyula", "lon": "23.9744444"}, {"lat": "58.1372222", "city": "Lina", "lon": "23.9744444"}, {"lat": "58.3263889", "city": "Lindi", "lon": "24.2691667"}, {"lat": "58.6047222", "city": "Linnamaa", "lon": "24.4130556"}, {"lat": "58.6047222", "city": "Linnam\u00e4e", "lon": "24.4130556"}, {"lat": "58.6047222", "city": "Linnama", "lon": "24.4130556"}, {"lat": "58.5002778", "city": "Linnu", "lon": "24.6008333"}, {"lat": "58.4", "city": "Litto", "lon": "23.75"}, {"lat": "58.4", "city": "Litu", "lon": "23.75"}, {"lat": "58.2852778", "city": "Liuk\u00fcla", "lon": "24.2677778"}, {"lat": "58.2852778", "city": "Liukyula", "lon": "24.2677778"}, {"lat": "58.2852778", "city": "Liu", "lon": "24.2677778"}, {"lat": "58.4308333", "city": "Liyva", "lon": "24.2880556"}, {"lat": "58.1561111", "city": "Lodja", "lon": "24.8788889"}, {"lat": "58.1561111", "city": "Lod'ya", "lon": "24.8788889"}, {"lat": "58.3141667", "city": "L\u00f5\u00f5ba", "lon": "24.0297222"}, {"lat": "58.6966667", "city": "L\u00f5o", "lon": "24.7941667"}, {"lat": "58.5688889", "city": "L\u00f5pe", "lon": "23.9936111"}, {"lat": "58.5688889", "city": "L\u00f5ppe", "lon": "23.9936111"}, {"lat": "58.3419444", "city": "L\u00f5uka", "lon": "24.0361111"}, {"lat": "58.3", "city": "Lutsu", "lon": "24.2833333"}, {"lat": "58.6566667", "city": "Luuri", "lon": "24.9416667"}, {"lat": "58.6333333", "city": "L\u00fc\u00fcste", "lon": "25.15"}, {"lat": "58.45", "city": "Lyailaste", "lon": "23.9833333"}, {"lat": "58.2622222", "city": "Lyakhkma", "lon": "24.8161111"}, {"lat": "58.3141667", "city": "Lyba", "lon": "24.0297222"}, {"lat": "58.6966667", "city": "Lyo", "lon": "24.7941667"}, {"lat": "58.5688889", "city": "Lyppe", "lon": "23.9936111"}, {"lat": "58.4861111", "city": "Lypplane", "lon": "24.6505556"}, {"lat": "58.6333333", "city": "Lyuyste", "lon": "25.15"}, {"lat": "58.385", "city": "Maade", "lon": "23.8397222"}, {"lat": "58.4841667", "city": "M\u00e4\u00e4ran\u00f5mme", "lon": "24.9308333"}, {"lat": "58.6725", "city": "M\u00e4dara", "lon": "25.1936111"}, {"lat": "58.385", "city": "Made", "lon": "23.8397222"}, {"lat": "58.0411111", "city": "M\u00e4earu", "lon": "24.6494444"}, {"lat": "58.0411111", "city": "M\u00e4ek\u00fcla", "lon": "24.6494444"}, {"lat": "58.2833333", "city": "M\u00e4e", "lon": "24.0833333"}, {"lat": "58.5672222", "city": "Maikse", "lon": "24.1566667"}, {"lat": "58.5941667", "city": "Maima", "lon": "24.4161111"}, {"lat": "57.9755556", "city": "Majaka", "lon": "24.4116667"}, {"lat": "58.4391667", "city": "Malda", "lon": "24.3094444"}, {"lat": "58.4361111", "city": "M\u00e4lik\u00fcla", "lon": "23.7155556"}, {"lat": "58.4361111", "city": "M\u00e4lli", "lon": "23.7155556"}, {"lat": "58.2113889", "city": "Manija", "lon": "24.1236111"}, {"lat": "58.5563889", "city": "Mannare", "lon": "24.8713889"}, {"lat": "58.4311111", "city": "M\u00e4nnikuste", "lon": "24.0136111"}, {"lat": "58.1602778", "city": "Marana", "lon": "24.9333333"}, {"lat": "58.0963889", "city": "Marina", "lon": "24.7766667"}, {"lat": "58.3019444", "city": "Marksa", "lon": "24.2802778"}, {"lat": "58.4", "city": "Massau-Kil'gi", "lon": "23.9"}, {"lat": "57.9975", "city": "Massiaru", "lon": "24.5866667"}, {"lat": "58.4", "city": "Massu-Kilgi", "lon": "23.9"}, {"lat": "58.5666667", "city": "Massu", "lon": "24.95"}, {"lat": "58.3616667", "city": "Matsi", "lon": "23.7561111"}, {"lat": "58.5672222", "city": "Maykse", "lon": "24.1566667"}, {"lat": "58.5941667", "city": "Mayma", "lon": "24.4161111"}, {"lat": "58.4361111", "city": "Melikyula", "lon": "23.7155556"}, {"lat": "58.25", "city": "Mel'ke", "lon": "24.9166667"}, {"lat": "58.4569444", "city": "Mere\u00e4\u00e4rse", "lon": "23.7019444"}, {"lat": "58.3038889", "city": "Merek\u00fcla", "lon": "24.5938889"}, {"lat": "58.3038889", "city": "Merekyula", "lon": "24.5938889"}, {"lat": "58.35", "city": "Mere", "lon": "23.75"}, {"lat": "58.2727778", "city": "Metsa\u00e4\u00e4re", "lon": "24.6930556"}, {"lat": "58.2480556", "city": "Metsak\u00fcla", "lon": "24.5272222"}, {"lat": "58.2480556", "city": "Metsakyula", "lon": "24.5272222"}, {"lat": "58.3052778", "city": "Metsa", "lon": "24.0927778"}, {"lat": "58.6658333", "city": "Metsapered", "lon": "24.675"}, {"lat": "57.9055556", "city": "Metsapoole", "lon": "24.4122222"}, {"lat": "58.6658333", "city": "Metsavere", "lon": "24.675"}, {"lat": "58.2480556", "city": "Metsk\u00fcla", "lon": "24.5272222"}, {"lat": "58.3333333", "city": "Metskyula", "lon": "24.05"}, {"lat": "58.6658333", "city": "Metsperede", "lon": "24.675"}, {"lat": "58.6077778", "city": "Mihkli", "lon": "24.1161111"}, {"lat": "58.6077778", "city": "Mikhayelis", "lon": "24.1161111"}, {"lat": "58.6077778", "city": "Mikhkli", "lon": "24.1161111"}, {"lat": "57.945", "city": "M\u00f5isak\u00fcla", "lon": "24.4161111"}, {"lat": "57.945", "city": "Moisa", "lon": "24.4161111"}, {"lat": "58.25", "city": "M\u00f6lke", "lon": "24.9166667"}, {"lat": "58.5116667", "city": "M\u00f5tsu", "lon": "23.8491667"}, {"lat": "58.5122222", "city": "Muraka", "lon": "24.8491667"}, {"lat": "58.5338889", "city": "Muriste", "lon": "23.6330556"}, {"lat": "58.3833333", "city": "Murru-Metsa", "lon": "24.0166667"}, {"lat": "58.2913889", "city": "Murru", "lon": "24.0894444"}, {"lat": "58.2913889", "city": "Murruste", "lon": "24.0894444"}, {"lat": "58.6058333", "city": "Mustaru", "lon": "25.07"}, {"lat": "58.1341667", "city": "Mustlak\u00fcla", "lon": "25.1002778"}, {"lat": "58.1341667", "city": "Mustlakyula", "lon": "25.1002778"}, {"lat": "58.1341667", "city": "Mustla", "lon": "25.1002778"}, {"lat": "58.5366667", "city": "Muti", "lon": "24.8288889"}, {"lat": "58.6725", "city": "Myadara", "lon": "25.1936111"}, {"lat": "58.0411111", "city": "Myaekyula", "lon": "24.6494444"}, {"lat": "58.2833333", "city": "Myae", "lon": "24.0833333"}, {"lat": "58.4311111", "city": "Myannikuste", "lon": "24.0136111"}, {"lat": "58.0961111", "city": "Myyzakyula", "lon": "24.6944444"}, {"lat": "58.2666667", "city": "Myyza", "lon": "24.1166667"}, {"lat": "58.5216667", "city": "Myza Are", "lon": "24.5675"}, {"lat": "58.5330556", "city": "Myza Illuste", "lon": "23.7036111"}, {"lat": "58.6213889", "city": "Myza Karinymme", "lon": "23.9722222"}, {"lat": "58.1333333", "city": "Myza Kilingi", "lon": "24.9833333"}, {"lat": "58.5825", "city": "Myza Konga", "lon": "24.1541667"}, {"lat": "58.1875", "city": "Myza Kyarsu", "lon": "25.0611111"}, {"lat": "58.6588889", "city": "Myza Libatse", "lon": "24.4830556"}, {"lat": "58.5116667", "city": "Myza Mytsu", "lon": "23.8491667"}, {"lat": "57.9536111", "city": "Myza Orayeas", "lon": "24.4044444"}, {"lat": "58.5977778", "city": "Myza Oydrema", "lon": "23.9358333"}, {"lat": "58.53", "city": "Myza Padremaa", "lon": "23.8355556"}, {"lat": "58.5311111", "city": "Myza Patsalu", "lon": "23.7105556"}, {"lat": "58.6777778", "city": "Myza P\u00ebravere", "lon": "24.6161111"}, {"lat": "58.2708333", "city": "Myza Potsi", "lon": "24.1241667"}, {"lat": "58.4833333", "city": "Myza Rindali", "lon": "24.2"}, {"lat": "58.62", "city": "Myza Rodi", "lon": "24.4361111"}, {"lat": "58.4238889", "city": "Myza Sauga", "lon": "24.5022222"}, {"lat": "58.3722222", "city": "Myza Saulepa", "lon": "23.8036111"}, {"lat": "58.6447222", "city": "Myza Syyrike", "lon": "24.3427778"}, {"lat": "58.4472222", "city": "Myza Tali", "lon": "24.7808333"}, {"lat": "58.0591667", "city": "Myza Talli", "lon": "24.7888889"}, {"lat": "58.4855556", "city": "Myza Tamba", "lon": "23.7130556"}, {"lat": "58.4166667", "city": "Myza Us Varbla", "lon": "23.7666667"}, {"lat": "58.4333333", "city": "Myza Vana Varbla", "lon": "23.7333333"}, {"lat": "58.6005556", "city": "Myza Vel'tsa", "lon": "24.0677778"}, {"lat": "58.5875", "city": "Myza Vikhtra", "lon": "25.0152778"}, {"lat": "58.5436111", "city": "Myza Vyan'ya", "lon": "23.9241667"}, {"lat": "58.4655556", "city": "Myza Vylla", "lon": "24.1763889"}, {"lat": "58.05", "city": "Myza Yar'ya", "lon": "25.0158333"}, {"lat": "58.6241667", "city": "Naartse", "lon": "24.2594444"}, {"lat": "58.6241667", "city": "Naartsi", "lon": "24.2594444"}, {"lat": "58.6", "city": "Naissoo", "lon": "24.1833333"}, {"lat": "58.1555556", "city": "Napsu", "lon": "24.8294444"}, {"lat": "58.6241667", "city": "Nartsi", "lon": "24.2594444"}, {"lat": "58.5211111", "city": "N\u00e4tsi", "lon": "24.0886111"}, {"lat": "58.3222222", "city": "Nautsi", "lon": "24.0513889"}, {"lat": "58.6", "city": "Naysso", "lon": "24.1833333"}, {"lat": "58.5455556", "city": "Nedremaa", "lon": "24.1147222"}, {"lat": "58.5455556", "city": "Nedrema", "lon": "24.1147222"}, {"lat": "58.1661111", "city": "Neitsik\u00fcla", "lon": "25.1044444"}, {"lat": "58.1661111", "city": "Neitsi", "lon": "25.1044444"}, {"lat": "58.1502778", "city": "Nemme", "lon": "24.9641667"}, {"lat": "58.0677778", "city": "Nepste", "lon": "24.6425"}, {"lat": "58.6158333", "city": "Neu-Fennern", "lon": "25.0969444"}, {"lat": "58.1661111", "city": "Neytsikyula", "lon": "25.1044444"}, {"lat": "58.5380556", "city": "Niidu", "lon": "24.585"}, {"lat": "58.4833333", "city": "Niimiste", "lon": "24.7333333"}, {"lat": "58.4833333", "city": "Niymiste", "lon": "24.7333333"}, {"lat": "58.7013889", "city": "N\u00f5mmek\u00fcla", "lon": "24.7630556"}, {"lat": "58.1502778", "city": "N\u00f5mme", "lon": "24.9641667"}, {"lat": "58.6158333", "city": "Novo-Fenern", "lon": "25.0969444"}, {"lat": "58.4436111", "city": "Nurme", "lon": "24.5227778"}, {"lat": "58.5211111", "city": "Nyatsi", "lon": "24.0886111"}, {"lat": "58.475", "city": "Nymme", "lon": "23.7202778"}, {"lat": "58.4622222", "city": "Oara", "lon": "24.3205556"}, {"lat": "58.5666667", "city": "\u00d5epa", "lon": "24.2333333"}, {"lat": "58.6455556", "city": "Oese", "lon": "24.5080556"}, {"lat": "58.3897222", "city": "\u00d5hu", "lon": "23.8002778"}, {"lat": "58.5977778", "city": "Oidrema", "lon": "23.9358333"}, {"lat": "58.0858333", "city": "Ojasoo", "lon": "24.535"}, {"lat": "58.4166667", "city": "\u00d5lla", "lon": "23.7666667"}, {"lat": "58.4644444", "city": "Oorek\u00fcla", "lon": "24.7675"}, {"lat": "58.4644444", "city": "Oore", "lon": "24.7675"}, {"lat": "57.9536111", "city": "Oraiyye", "lon": "24.4044444"}, {"lat": "57.9536111", "city": "Oraj\u00f5e M\u00f5is", "lon": "24.4044444"}, {"lat": "57.9536111", "city": "Oraj\u00f5e", "lon": "24.4044444"}, {"lat": "58.4033333", "city": "Oraste", "lon": "24.6302778"}, {"lat": "57.9536111", "city": "Orayeas", "lon": "24.4044444"}, {"lat": "57.9536111", "city": "Orayye", "lon": "24.4044444"}, {"lat": "58.4644444", "city": "Ore", "lon": "24.7675"}, {"lat": "58.6480556", "city": "Orik\u00fcla", "lon": "25.1880556"}, {"lat": "57.9536111", "city": "Orrenhof", "lon": "24.4044444"}, {"lat": "58.0858333", "city": "Oyaso", "lon": "24.535"}, {"lat": "58.53", "city": "Paaderma", "lon": "23.8355556"}, {"lat": "58.53", "city": "Paadremaa", "lon": "23.8355556"}, {"lat": "58.53", "city": "Paadrema", "lon": "23.8355556"}, {"lat": "58.55", "city": "P\u00e4\u00e4lt-Leetva", "lon": "25.1666667"}, {"lat": "58.5011111", "city": "P\u00e4\u00e4stala", "lon": "24.8888889"}, {"lat": "58.5011111", "city": "P\u00e4\u00e4stale", "lon": "24.8888889"}, {"lat": "58.5311111", "city": "Paatsalu", "lon": "23.7105556"}, {"lat": "58.3488889", "city": "P\u00e4daka", "lon": "24.0238889"}, {"lat": "58.0947222", "city": "Padina", "lon": "24.5222222"}, {"lat": "58.53", "city": "Padrema", "lon": "23.8355556"}, {"lat": "58.3791667", "city": "Paikuse", "lon": "24.6344444"}, {"lat": "58.5872222", "city": "Paimre", "lon": "23.9738889"}, {"lat": "58.5872222", "city": "Paimvere", "lon": "23.9738889"}, {"lat": "58.3666667", "city": "Palato", "lon": "23.8"}, {"lat": "58.3666667", "city": "Palatu", "lon": "23.8"}, {"lat": "58.1666667", "city": "P\u00e4ndi", "lon": "24.9"}, {"lat": "58.5166667", "city": "Pansi", "lon": "23.8166667"}, {"lat": "58.1", "city": "Papisilla", "lon": "24.55"}, {"lat": "58.4047222", "city": "Pappsaare", "lon": "24.4069444"}, {"lat": "58.4047222", "city": "Pappsare", "lon": "24.4069444"}, {"lat": "58.4047222", "city": "Papsaare", "lon": "24.4069444"}, {"lat": "58.3288889", "city": "P\u00e4rak\u00fcla", "lon": "24.0919444"}, {"lat": "58.5936111", "city": "P\u00e4rasaare", "lon": "25.2422222"}, {"lat": "58.6566667", "city": "Parasmaa", "lon": "24.2519444"}, {"lat": "58.6566667", "city": "Parasma", "lon": "24.2519444"}, {"lat": "58.5936111", "city": "P\u00e4rassaare", "lon": "25.2422222"}, {"lat": "58.5430556", "city": "Parisselja", "lon": "24.5408333"}, {"lat": "58.5430556", "city": "Parissel'ya", "lon": "24.5408333"}, {"lat": "58.5094444", "city": "P\u00e4rivere", "lon": "24.5644444"}, {"lat": "58.6333333", "city": "P\u00e4rniku", "lon": "24.8166667"}, {"lat": "58.6377778", "city": "P\u00e4rnj\u00f5e", "lon": "24.9375"}, {"lat": "58.6058333", "city": "P\u00e4rnu-Jaagupi", "lon": "24.5152778"}, {"lat": "58.6058333", "city": "P\u00e4rnu-Jakobi", "lon": "24.5152778"}, {"lat": "58.3747222", "city": "P\u00e4rnu", "lon": "24.5136111"}, {"lat": "58.35", "city": "Patogof", "lon": "24.5666667"}, {"lat": "58.5311111", "city": "Patzal", "lon": "23.7105556"}, {"lat": "58.5872222", "city": "Paymre", "lon": "23.9738889"}, {"lat": "58.5511111", "city": "Peantse", "lon": "23.9675"}, {"lat": "58.3488889", "city": "Pedaka", "lon": "24.0238889"}, {"lat": "58.2527778", "city": "Peerni", "lon": "24.1375"}, {"lat": "58.0252778", "city": "Penu", "lon": "24.48"}, {"lat": "58.3288889", "city": "Perak\u00fcla", "lon": "24.0919444"}, {"lat": "58.3288889", "city": "Perakyula", "lon": "24.0919444"}, {"lat": "58.6063889", "city": "Perek\u00fcla", "lon": "24.3191667"}, {"lat": "58.6063889", "city": "Perekyula", "lon": "24.3191667"}, {"lat": "58.3747222", "city": "Pernau", "lon": "24.5136111"}, {"lat": "58.3747222", "city": "Pernava", "lon": "24.5136111"}, {"lat": "58.2527778", "city": "Perni", "lon": "24.1375"}, {"lat": "58.3747222", "city": "Pernov", "lon": "24.5136111"}, {"lat": "58.5511111", "city": "Piantse", "lon": "23.9675"}, {"lat": "58.4344444", "city": "Piha", "lon": "23.7822222"}, {"lat": "58.0741667", "city": "Pihke", "lon": "24.7183333"}, {"lat": "58.1566667", "city": "Pihnurme", "lon": "24.4888889"}, {"lat": "58.4833333", "city": "Pii", "lon": "23.7333333"}, {"lat": "58.4666667", "city": "Piiri", "lon": "24.6333333"}, {"lat": "58.1566667", "city": "Piirumi", "lon": "24.4888889"}, {"lat": "58.0833333", "city": "Piiskopi", "lon": "24.4833333"}, {"lat": "58.5369444", "city": "Piistaoja", "lon": "24.8988889"}, {"lat": "58.5708333", "city": "Piista", "lon": "24.9797222"}, {"lat": "58.6025", "city": "Piisu", "lon": "24.1205556"}, {"lat": "58.5802778", "city": "Pikavere", "lon": "24.1883333"}, {"lat": "58.4344444", "city": "Pikha", "lon": "23.7822222"}, {"lat": "58.0741667", "city": "Pikhke", "lon": "24.7183333"}, {"lat": "58.1566667", "city": "Pikhnurme", "lon": "24.4888889"}, {"lat": "58.1566667", "city": "Pikknurme", "lon": "24.4888889"}, {"lat": "58.0583333", "city": "Pikksaare", "lon": "24.7341667"}, {"lat": "58.0583333", "city": "Pikksare", "lon": "24.7341667"}, {"lat": "58.1836111", "city": "Pikla", "lon": "24.4838889"}, {"lat": "58.4833333", "city": "Pio", "lon": "23.7333333"}, {"lat": "58.5641667", "city": "Pitsalu", "lon": "24.4208333"}, {"lat": "58.4666667", "city": "Piyri", "lon": "24.6333333"}, {"lat": "58.0833333", "city": "Piyskopi", "lon": "24.4833333"}, {"lat": "58.5708333", "city": "Piysta", "lon": "24.9797222"}, {"lat": "58.6025", "city": "Piysu", "lon": "24.1205556"}, {"lat": "58.4638889", "city": "P\u00f5hara", "lon": "24.2233333"}, {"lat": "58.4027778", "city": "P\u00f5ldeotsa", "lon": "24.3111111"}, {"lat": "58.4027778", "city": "P\u00f5ldotsa", "lon": "24.3111111"}, {"lat": "58.3788889", "city": "P\u00f5lendmaa Asundus", "lon": "24.8280556"}, {"lat": "58.3788889", "city": "P\u00f5lendmaa", "lon": "24.8280556"}, {"lat": "58.5152778", "city": "Polumyza Palatu", "lon": "23.9961111"}, {"lat": "58.6777778", "city": "P\u00f6\u00f6ravere", "lon": "24.6161111"}, {"lat": "58.2708333", "city": "Pootsi", "lon": "24.1241667"}, {"lat": "58.3497222", "city": "Poska", "lon": "24.68"}, {"lat": "58.1161111", "city": "Possa", "lon": "24.7263889"}, {"lat": "58.2708333", "city": "Potsi", "lon": "24.1241667"}, {"lat": "58.4852778", "city": "Puista", "lon": "24.9022222"}, {"lat": "58.7", "city": "Pulga", "lon": "25.0333333"}, {"lat": "58.0941667", "city": "Pulgoja", "lon": "24.4933333"}, {"lat": "58.0941667", "city": "Pulgoya", "lon": "24.4933333"}, {"lat": "58.4213889", "city": "Pulli", "lon": "24.6825"}, {"lat": "58.3516667", "city": "Pustuski", "lon": "24.6530556"}, {"lat": "58.2708333", "city": "Puti", "lon": "24.0758333"}, {"lat": "58.1333333", "city": "Puujala", "lon": "24.85"}, {"lat": "58.1333333", "city": "Puujalu", "lon": "24.85"}, {"lat": "58.1333333", "city": "Puyala", "lon": "24.85"}, {"lat": "58.4852778", "city": "Puysta", "lon": "24.9022222"}, {"lat": "58.3488889", "city": "Pyadaka", "lon": "24.0238889"}, {"lat": "58.55", "city": "Pyal't-Letva", "lon": "25.1666667"}, {"lat": "58.1666667", "city": "Pyandi", "lon": "24.9"}, {"lat": "58.3747222", "city": "Pyaonu", "lon": "24.5136111"}, {"lat": "58.5936111", "city": "Pyarasare", "lon": "25.2422222"}, {"lat": "58.5094444", "city": "Pyarivere", "lon": "24.5644444"}, {"lat": "58.6333333", "city": "Pyarniku", "lon": "24.8166667"}, {"lat": "58.3747222", "city": "Pyarnu", "lon": "24.5136111"}, {"lat": "58.6058333", "city": "Pyarnu-Yaagupi", "lon": "24.5152778"}, {"lat": "58.6058333", "city": "Pyarnu-Yagupi", "lon": "24.5152778"}, {"lat": "58.5011111", "city": "Pyastala", "lon": "24.8888889"}, {"lat": "58.4638889", "city": "Pykhara", "lon": "24.2233333"}, {"lat": "58.4027778", "city": "Pyldeotsa", "lon": "24.3111111"}, {"lat": "58.3788889", "city": "Pylendma", "lon": "24.8280556"}, {"lat": "58.4663889", "city": "R\u00e4\u00e4gu-Metsakula", "lon": "24.5988889"}, {"lat": "58.4863889", "city": "R\u00e4\u00e4gu-M\u00f5isak\u00fcla", "lon": "24.5425"}, {"lat": "58.0072222", "city": "R\u00e4\u00e4gu", "lon": "24.4822222"}, {"lat": "58.2605556", "city": "Rabak\u00fcla", "lon": "24.6583333"}, {"lat": "58.2605556", "city": "Rabakyula", "lon": "24.6583333"}, {"lat": "58.5783333", "city": "Rabavere", "lon": "23.9922222"}, {"lat": "58.3797222", "city": "R\u00e4di", "lon": "23.7847222"}, {"lat": "58.35", "city": "Raek\u00fcla", "lon": "24.5666667"}, {"lat": "58.35", "city": "Raekyula", "lon": "24.5666667"}, {"lat": "58.1213889", "city": "Rae", "lon": "24.7844444"}, {"lat": "58.3516667", "city": "Raespa", "lon": "23.8111111"}, {"lat": "58.4158333", "city": "Raheste", "lon": "23.7838889"}, {"lat": "58.7336111", "city": "Rahkama", "lon": "24.7230556"}, {"lat": "58.5666667", "city": "Rahkema", "lon": "24.7833333"}, {"lat": "58.5475", "city": "Rahnoja", "lon": "24.9688889"}, {"lat": "58.5161111", "city": "Raidla", "lon": "24.7275"}, {"lat": "58.0219444", "city": "R\u00e4isa", "lon": "24.8591667"}, {"lat": "58.4158333", "city": "Rakheste", "lon": "23.7838889"}, {"lat": "58.3838889", "city": "Rammuka-Metsak\u00fcla", "lon": "23.9363889"}, {"lat": "58.3716667", "city": "Rammuka", "lon": "23.8966667"}, {"lat": "58.4675", "city": "Randiv\u00e4lja", "lon": "24.7994444"}, {"lat": "58.4675", "city": "Randivyal'ya", "lon": "24.7994444"}, {"lat": "58.2719444", "city": "Rannak\u00fcla", "lon": "24.5519444"}, {"lat": "58.2719444", "city": "Rannakyula", "lon": "24.5519444"}, {"lat": "57.9211111", "city": "Rannametsa", "lon": "24.3886111"}, {"lat": "57.9211111", "city": "Ranna", "lon": "24.3886111"}, {"lat": "58.3475", "city": "Ranniku", "lon": "23.9316667"}, {"lat": "58.4802778", "city": "R\u00e4tsepa", "lon": "24.9127778"}, {"lat": "58.4941667", "city": "Rauksi", "lon": "23.8736111"}, {"lat": "58.2327778", "city": "Rautsika", "lon": "24.4908333"}, {"lat": "58.5161111", "city": "Raydla", "lon": "24.7275"}, {"lat": "58.1166667", "city": "Rehemaa", "lon": "25.05"}, {"lat": "58.6119444", "city": "Reinumurru", "lon": "24.9752778"}, {"lat": "58.0483333", "city": "Reinu", "lon": "24.7594444"}, {"lat": "58.2930556", "city": "Reiu", "lon": "24.5891667"}, {"lat": "58.1166667", "city": "Rekhema", "lon": "25.05"}, {"lat": "58.4605556", "city": "Ridalepa", "lon": "24.3594444"}, {"lat": "58.4833333", "city": "Riintali", "lon": "24.2"}, {"lat": "58.4783333", "city": "Riisak\u00fcla", "lon": "24.9897222"}, {"lat": "58.4783333", "city": "Riisa", "lon": "24.9897222"}, {"lat": "58.2136111", "city": "Riisselja", "lon": "24.8016667"}, {"lat": "58.4833333", "city": "Rindali", "lon": "24.2"}, {"lat": "58.1888889", "city": "Ristik\u00fcla", "lon": "24.7638889"}, {"lat": "58.1888889", "city": "Ristikyula", "lon": "24.7638889"}, {"lat": "58.7105556", "city": "Rogenese", "lon": "24.5508333"}, {"lat": "58.5338889", "city": "Roigu", "lon": "24.7411111"}, {"lat": "58.6175", "city": "Roja", "lon": "24.9819444"}, {"lat": "58.62", "city": "Roodi", "lon": "24.4361111"}, {"lat": "58.1172222", "city": "Rootsik\u00fcla", "lon": "23.98"}, {"lat": "58.1172222", "city": "Rootsi", "lon": "23.98"}, {"lat": "58.1172222", "city": "Rotsikyula", "lon": "23.98"}, {"lat": "58.6683333", "city": "R\u00f5usa", "lon": "25.1094444"}, {"lat": "58.6175", "city": "Roya", "lon": "24.9819444"}, {"lat": "58.5338889", "city": "Roygu", "lon": "24.7411111"}, {"lat": "58.4330556", "city": "R\u00fctavere", "lon": "24.7169444"}, {"lat": "58.3797222", "city": "Ryadi", "lon": "23.7847222"}, {"lat": "58.4863889", "city": "Ryagu-Myyzakyula", "lon": "24.5425"}, {"lat": "58.0072222", "city": "Ryagu", "lon": "24.4822222"}, {"lat": "58.4802778", "city": "Ryatsepa", "lon": "24.9127778"}, {"lat": "58.0219444", "city": "Ryaysa", "lon": "24.8591667"}, {"lat": "58.4330556", "city": "Ryutavere", "lon": "24.7169444"}, {"lat": "58.6683333", "city": "Ryuza", "lon": "25.1094444"}, {"lat": "58.1502778", "city": "Saara", "lon": "24.9641667"}, {"lat": "58.1502778", "city": "Saarde", "lon": "24.9641667"}, {"lat": "58.1483333", "city": "S\u00e4\u00e4rek\u00fcla", "lon": "24.0175"}, {"lat": "58.1483333", "city": "S\u00e4\u00e4re", "lon": "24.0175"}, {"lat": "58.4838889", "city": "Saari", "lon": "24.4022222"}, {"lat": "58.6394444", "city": "S\u00e4\u00e4stla", "lon": "25.1044444"}, {"lat": "58.2991667", "city": "Saesaare", "lon": "24.9025"}, {"lat": "58.2991667", "city": "Saesare", "lon": "24.9025"}, {"lat": "58.2991667", "city": "Saessaare", "lon": "24.9025"}, {"lat": "58.5613889", "city": "Salevere", "lon": "24.2047222"}, {"lat": "58.6166667", "city": "Saluk\u00fcla", "lon": "24.3166667"}, {"lat": "58.6697222", "city": "Salu", "lon": "24.585"}, {"lat": "58.5", "city": "Sanga", "lon": "24.75"}, {"lat": "58.6058333", "city": "Sankt-Jakobi", "lon": "24.5152778"}, {"lat": "58.6058333", "city": "Sankt-Jakoby", "lon": "24.5152778"}, {"lat": "58.6077778", "city": "Sankt-Mihaelis", "lon": "24.1161111"}, {"lat": "58.4838889", "city": "Sarde", "lon": "24.4022222"}, {"lat": "58.3633333", "city": "Sare", "lon": "23.8355556"}, {"lat": "58.3161111", "city": "Sarvi", "lon": "24.2841667"}, {"lat": "58.4166667", "city": "Sauga", "lon": "24.4333333"}, {"lat": "58.3561111", "city": "Saulepa", "lon": "24.2897222"}, {"lat": "58.3561111", "city": "Saulepi", "lon": "24.2897222"}, {"lat": "58.4444444", "city": "Saunak\u00fcla", "lon": "24.5658333"}, {"lat": "58.4444444", "city": "Saunakyula", "lon": "24.5658333"}, {"lat": "58.2319444", "city": "Saunametsa", "lon": "24.875"}, {"lat": "58.2816667", "city": "Seliste", "lon": "24.0869444"}, {"lat": "58.4333333", "city": "Seljak\u00fcla", "lon": "24.55"}, {"lat": "58.3608333", "city": "Seljametsa", "lon": "24.6658333"}, {"lat": "58.2816667", "city": "Seljanai", "lon": "24.0869444"}, {"lat": "58.5136111", "city": "Selja", "lon": "24.8088889"}, {"lat": "58.4333333", "city": "Sel'yakyula", "lon": "24.55"}, {"lat": "58.4005556", "city": "Sel'ya", "lon": "23.7527778"}, {"lat": "58.5811111", "city": "Sepakyula", "lon": "24.4055556"}, {"lat": "58.2797222", "city": "Sepa", "lon": "24.1588889"}, {"lat": "58.1763889", "city": "Sigaste", "lon": "24.8936111"}, {"lat": "58.5736111", "city": "Sikana", "lon": "24.8769444"}, {"lat": "58.3419444", "city": "Silla", "lon": "24.6294444"}, {"lat": "58.4005556", "city": "Sindi", "lon": "24.6675"}, {"lat": "58.4844444", "city": "Soeva", "lon": "24.1519444"}, {"lat": "58.4480556", "city": "Sohlu", "lon": "24.7486111"}, {"lat": "58.4480556", "city": "Sohtuk\u00fcla", "lon": "24.7486111"}, {"lat": "58.4480556", "city": "Sokhlu", "lon": "24.7486111"}, {"lat": "58.1208333", "city": "Sokyula", "lon": "24.5736111"}, {"lat": "58.1886111", "city": "Sometsa", "lon": "24.5969444"}, {"lat": "58.5630556", "city": "Sone", "lon": "24.9"}, {"lat": "58.5394444", "city": "Sookalda", "lon": "23.8252778"}, {"lat": "58.1208333", "city": "Sook\u00fcla", "lon": "24.5736111"}, {"lat": "58.1886111", "city": "Soometsa", "lon": "24.5969444"}, {"lat": "58.3969444", "city": "Soomra", "lon": "24.1063889"}, {"lat": "58.5630556", "city": "Soone", "lon": "24.9"}, {"lat": "58.3441667", "city": "S\u00f6\u00f6ni", "lon": "23.9322222"}, {"lat": "58.6513889", "city": "S\u00f5\u00f5rike-Aruk\u00fcla", "lon": "24.3780556"}, {"lat": "58.6447222", "city": "S\u00f5\u00f5rike", "lon": "24.3427778"}, {"lat": "58.65", "city": "S\u00f5\u00f5rike-Suurk\u00fcla", "lon": "24.3333333"}, {"lat": "58.0161111", "city": "Soosaare", "lon": "24.7522222"}, {"lat": "58.6002778", "city": "Soosalu", "lon": "24.6038889"}, {"lat": "58.1208333", "city": "Soo", "lon": "24.5736111"}, {"lat": "58.7", "city": "Soova", "lon": "25.2"}, {"lat": "58.6002778", "city": "Sosalu", "lon": "24.6038889"}, {"lat": "58.0161111", "city": "Sosare", "lon": "24.7522222"}, {"lat": "58.7", "city": "Sova", "lon": "25.2"}, {"lat": "58.6480556", "city": "Staryy Fennern'", "lon": "25.0361111"}, {"lat": "58.5286111", "city": "Suigu", "lon": "24.6966667"}, {"lat": "58.1938889", "city": "Suitsuk\u00fcla", "lon": "25.0280556"}, {"lat": "58.3666667", "city": "Suretyuki", "lon": "23.9166667"}, {"lat": "58.6158333", "city": "Sureyye", "lon": "25.0969444"}, {"lat": "58.235", "city": "Surju", "lon": "24.7175"}, {"lat": "58.2083333", "city": "Surso", "lon": "24.5886111"}, {"lat": "58.1525", "city": "Surtsi", "lon": "24.9055556"}, {"lat": "58.6158333", "city": "Suryeyye", "lon": "25.0969444"}, {"lat": "58.235", "city": "Sur'yu", "lon": "24.7175"}, {"lat": "58.3166667", "city": "Suti", "lon": "23.9666667"}, {"lat": "58.6158333", "city": "Suurej\u00f5e", "lon": "25.0969444"}, {"lat": "58.3666667", "city": "Suuret\u00fcki", "lon": "23.9166667"}, {"lat": "58.65", "city": "Suur-Langerma", "lon": "24.4166667"}, {"lat": "58.2083333", "city": "Suursoo", "lon": "24.5886111"}, {"lat": "58.1938889", "city": "Suytsukyula", "lon": "25.0280556"}, {"lat": "58.6058333", "city": "Svyatogo Iakova", "lon": "24.5152778"}, {"lat": "58.1483333", "city": "Syare", "lon": "24.0175"}, {"lat": "58.6394444", "city": "Syastla", "lon": "25.1044444"}, {"lat": "58.6513889", "city": "Syyrike-Arukyula", "lon": "24.3780556"}, {"lat": "58.65", "city": "Syyrike-Surkyula", "lon": "24.3333333"}, {"lat": "58.4472222", "city": "Taali", "lon": "24.7808333"}, {"lat": "58.5813889", "city": "Tabria", "lon": "24.6722222"}, {"lat": "58.5813889", "city": "Tabriya", "lon": "24.6722222"}, {"lat": "58.45", "city": "Taga-Helmk\u00fcla", "lon": "23.75"}, {"lat": "58.4166667", "city": "Taga-Kilgi", "lon": "23.85"}, {"lat": "58.3969444", "city": "Taga-Somra", "lon": "24.1063889"}, {"lat": "58.3969444", "city": "Taga-Soomra", "lon": "24.1063889"}, {"lat": "58.6263889", "city": "Tagassaare", "lon": "25.1969444"}, {"lat": "58.3616667", "city": "Taga-Vaiste", "lon": "23.8533333"}, {"lat": "58.2213889", "city": "Tahkuranna-Leina", "lon": "24.5266667"}, {"lat": "58.2091667", "city": "Tahkuranna", "lon": "24.4830556"}, {"lat": "58.5052778", "city": "Tahkuse", "lon": "24.9186111"}, {"lat": "58.2394444", "city": "Tahku", "lon": "24.4952778"}, {"lat": "58.2213889", "city": "Takhkuranna-Leyna", "lon": "24.5266667"}, {"lat": "58.2091667", "city": "Takhkuranna", "lon": "24.4830556"}, {"lat": "58.5052778", "city": "Takhkuse", "lon": "24.9186111"}, {"lat": "58.2394444", "city": "Takhku", "lon": "24.4952778"}, {"lat": "58.0591667", "city": "Tali", "lon": "24.7888889"}, {"lat": "58.0591667", "city": "Talli", "lon": "24.7888889"}, {"lat": "58.2319444", "city": "Taltsi", "lon": "24.875"}, {"lat": "58.4855556", "city": "Tamba Farm", "lon": "23.7130556"}, {"lat": "58.4855556", "city": "Tamba", "lon": "23.7130556"}, {"lat": "58.6077778", "city": "Tammaru", "lon": "24.2175"}, {"lat": "58.5855556", "city": "Tamme", "lon": "24.2330556"}, {"lat": "58.3886111", "city": "Tammiste", "lon": "24.5819444"}, {"lat": "58.45", "city": "Tammistu", "lon": "23.8833333"}, {"lat": "58.3444444", "city": "Tammuru", "lon": "24.7238889"}, {"lat": "58.5133333", "city": "Tani", "lon": "24.8708333"}, {"lat": "58.5188889", "city": "T\u00e4psi", "lon": "23.8641667"}, {"lat": "58.5858333", "city": "Tarva", "lon": "24.5033333"}, {"lat": "58.1502778", "city": "Tegnits", "lon": "24.9641667"}, {"lat": "58.4661111", "city": "Teoste", "lon": "24.0186111"}, {"lat": "58.3325", "city": "Testamaa", "lon": "23.9997222"}, {"lat": "58.3325", "city": "Testama", "lon": "23.9997222"}, {"lat": "58.1452778", "city": "Tihemetsa", "lon": "25.0441667"}, {"lat": "58.5230556", "city": "Tiilimaa II", "lon": "23.8777778"}, {"lat": "58.5825", "city": "Tiilimaa I", "lon": "23.8"}, {"lat": "58.5230556", "city": "Tiilimaa Kaks", "lon": "23.8777778"}, {"lat": "58.5230556", "city": "Tiilimaa", "lon": "23.8777778"}, {"lat": "58.5825", "city": "Tiilimaa \u00dcks", "lon": "23.8"}, {"lat": "58.1452778", "city": "Tikhemetsa", "lon": "25.0441667"}, {"lat": "58.1", "city": "Tipu", "lon": "24.8666667"}, {"lat": "58.3325", "city": "Toastamaa", "lon": "23.9997222"}, {"lat": "58.4458333", "city": "T\u00f5hela", "lon": "24.0130556"}, {"lat": "58.5069444", "city": "Tohera", "lon": "24.9405556"}, {"lat": "58.5052778", "city": "Tohkuse", "lon": "24.9186111"}, {"lat": "58.4833333", "city": "T\u00f5ia", "lon": "24.8"}, {"lat": "58.1697222", "city": "T\u00f5itoja", "lon": "24.8130556"}, {"lat": "58.6066667", "city": "T\u00f5itse", "lon": "23.9094444"}, {"lat": "58.5069444", "city": "Tokhera", "lon": "24.9405556"}, {"lat": "58.1755556", "city": "T\u00f5lla", "lon": "25.1191667"}, {"lat": "58.3038889", "city": "T\u00f5lli", "lon": "24.0327778"}, {"lat": "58.5780556", "city": "Tootsi", "lon": "24.7925"}, {"lat": "58.6019444", "city": "T\u00f5rdu", "lon": "24.4711111"}, {"lat": "58.4788889", "city": "Torgel", "lon": "24.8241667"}, {"lat": "58.4788889", "city": "Tori", "lon": "24.8241667"}, {"lat": "58.6152778", "city": "T\u00f5rva", "lon": "24.0394444"}, {"lat": "58.3325", "city": "T\u00f5stamaa", "lon": "23.9997222"}, {"lat": "58.3325", "city": "T\u00f5stama", "lon": "23.9997222"}, {"lat": "58.5780556", "city": "Totsi", "lon": "24.7925"}, {"lat": "58.5113889", "city": "T\u00f5usi", "lon": "23.8352778"}, {"lat": "57.9211111", "city": "Treimani", "lon": "24.3886111"}, {"lat": "57.9211111", "city": "Treymani", "lon": "24.3886111"}, {"lat": "57.9211111", "city": "Treymanni", "lon": "24.3886111"}, {"lat": "58.4005556", "city": "Tsintengof", "lon": "24.6675"}, {"lat": "58.6325", "city": "T\u00fchjasmaa", "lon": "24.6063889"}, {"lat": "58.3816667", "city": "Turaste", "lon": "24.2488889"}, {"lat": "58.1188889", "city": "Turuk\u00fcla", "lon": "23.9877778"}, {"lat": "58.1188889", "city": "Turukyula", "lon": "23.9877778"}, {"lat": "58.1188889", "city": "Turu", "lon": "23.9877778"}, {"lat": "57.9747222", "city": "Tuuliku", "lon": "24.7088889"}, {"lat": "58.3816667", "city": "Tuuraste", "lon": "24.2488889"}, {"lat": "58.4458333", "city": "Tykhela", "lon": "24.0130556"}, {"lat": "58.6019444", "city": "Tyrdu", "lon": "24.4711111"}, {"lat": "58.6152778", "city": "Tyrva", "lon": "24.0394444"}, {"lat": "58.3325", "city": "Tystama", "lon": "23.9997222"}, {"lat": "58.6325", "city": "Tyukh'yasma", "lon": "24.6063889"}, {"lat": "58.1697222", "city": "Tyytoya", "lon": "24.8130556"}, {"lat": "58.6066667", "city": "Tyytse", "lon": "23.9094444"}, {"lat": "58.6183333", "city": "Udafer", "lon": "24.5383333"}, {"lat": "58.6183333", "city": "Udavere", "lon": "24.5383333"}, {"lat": "58.6183333", "city": "Uddafer", "lon": "24.5383333"}, {"lat": "58.2836111", "city": "Udiu", "lon": "24.5872222"}, {"lat": "58.6183333", "city": "Uduvere", "lon": "24.5383333"}, {"lat": "58.4336111", "city": "Uliaste", "lon": "24.4375"}, {"lat": "58.4336111", "city": "Ullaste", "lon": "24.4375"}, {"lat": "58.3", "city": "Ulukyula", "lon": "24.6166667"}, {"lat": "58.25", "city": "Ulu-Leyna", "lon": "24.5833333"}, {"lat": "58.2836111", "city": "Ulu", "lon": "24.5872222"}, {"lat": "58.5991667", "city": "\u00dcnnaste", "lon": "24.9066667"}, {"lat": "58.1833333", "city": "Ura", "lon": "24.7166667"}, {"lat": "58.4363889", "city": "Urge", "lon": "24.6522222"}, {"lat": "58.0263889", "city": "Urisaare", "lon": "24.6102778"}, {"lat": "58.0263889", "city": "Urissaare", "lon": "24.6102778"}, {"lat": "58.0263889", "city": "Urissare", "lon": "24.6102778"}, {"lat": "58.5833333", "city": "Urita", "lon": "24.05"}, {"lat": "58.4291667", "city": "Urumarja", "lon": "24.7441667"}, {"lat": "58.5505556", "city": "Uru", "lon": "24.7347222"}, {"lat": "57.9902778", "city": "Uuemaa", "lon": "24.6133333"}, {"lat": "58.6158333", "city": "Uue-V\u00e4ndra", "lon": "25.0969444"}, {"lat": "58.4166667", "city": "Uue-Varbla", "lon": "23.7666667"}, {"lat": "58.3", "city": "Uuluk\u00fcla", "lon": "24.6166667"}, {"lat": "58.25", "city": "Uulu-Leina", "lon": "24.5833333"}, {"lat": "58.2836111", "city": "Uulu", "lon": "24.5872222"}, {"lat": "58.5436111", "city": "V\u00e4\u00e4nja", "lon": "23.9241667"}, {"lat": "58.1166667", "city": "Vaarja", "lon": "24.8333333"}, {"lat": "58.4155556", "city": "Vabriku", "lon": "24.8369444"}, {"lat": "58.1466667", "city": "Vaheliku", "lon": "24.5638889"}, {"lat": "58.6175", "city": "Vahenurme", "lon": "24.3963889"}, {"lat": "58.65", "city": "V\u00e4ike-Langerma", "lon": "24.4166667"}, {"lat": "58.2841667", "city": "V\u00e4iksek\u00fcla", "lon": "24.8816667"}, {"lat": "58.41", "city": "Vainu", "lon": "24.6369444"}, {"lat": "58.35", "city": "Vaiste", "lon": "23.8666667"}, {"lat": "58.61", "city": "Vakalepa", "lon": "24.2841667"}, {"lat": "58.1466667", "city": "Vakheliku", "lon": "24.5638889"}, {"lat": "58.6388889", "city": "Vaki", "lon": "24.9866667"}, {"lat": "58.2666667", "city": "Valdimuru", "lon": "24.7830556"}, {"lat": "58.3872222", "city": "Valgerand", "lon": "24.3833333"}, {"lat": "58.3872222", "city": "Valgeranna", "lon": "24.3833333"}, {"lat": "58.6", "city": "Valistre", "lon": "24.5497222"}, {"lat": "58.15", "city": "V\u00e4ljak\u00fcla", "lon": "24.85"}, {"lat": "58.6333333", "city": "Valma", "lon": "25.1666667"}, {"lat": "58.15", "city": "Val'yakyula", "lon": "24.85"}, {"lat": "58.4166667", "city": "Vanak\u00fcla", "lon": "24.1666667"}, {"lat": "58.4166667", "city": "Vanakyula", "lon": "24.1666667"}, {"lat": "58.6833333", "city": "Vana\u00f5ue", "lon": "25.1166667"}, {"lat": "58.6480556", "city": "Vana-V\u00e4ndra", "lon": "25.0361111"}, {"lat": "58.4333333", "city": "Vana-Varbla", "lon": "23.7333333"}, {"lat": "58.6480556", "city": "Vana-Vendra", "lon": "25.0361111"}, {"lat": "58.6480556", "city": "Vana Vendre", "lon": "25.0361111"}, {"lat": "58.6480556", "city": "Vana-Vyandra", "lon": "25.0361111"}, {"lat": "58.6833333", "city": "Vanayue", "lon": "25.1166667"}, {"lat": "58.6955556", "city": "V\u00e4ndra Klaasivabriku", "lon": "25.1169444"}, {"lat": "58.6158333", "city": "V\u00e4ndra", "lon": "25.0969444"}, {"lat": "58.3152778", "city": "V\u00e4rati", "lon": "23.9963889"}, {"lat": "58.4166667", "city": "Varbla", "lon": "23.7666667"}, {"lat": "58.3838889", "city": "Varemurro", "lon": "23.7497222"}, {"lat": "58.3838889", "city": "Varemurru", "lon": "23.7497222"}, {"lat": "58.3088889", "city": "Vaskr\u00e4\u00e4ma", "lon": "24.6994444"}, {"lat": "58.3088889", "city": "Vaskryama", "lon": "24.6994444"}, {"lat": "58.35", "city": "Vayste", "lon": "23.8666667"}, {"lat": "58.6", "city": "Vedu", "lon": "24.2"}, {"lat": "58.0330556", "city": "Veelikse", "lon": "24.8619444"}, {"lat": "58.6238889", "city": "Vee", "lon": "24.3136111"}, {"lat": "58.0330556", "city": "Velikse", "lon": "24.8619444"}, {"lat": "58.6005556", "city": "Veltsa", "lon": "24.0677778"}, {"lat": "58.6480556", "city": "Vendra", "lon": "25.0361111"}, {"lat": "58.6125", "city": "Venekuusiku", "lon": "25.0041667"}, {"lat": "58.5886111", "city": "Veskisoo", "lon": "25.1313889"}, {"lat": "58.5325", "city": "Veski", "lon": "24.7169444"}, {"lat": "58.285", "city": "Vihakse", "lon": "24.0658333"}, {"lat": "58.5875", "city": "Vihtra", "lon": "25.0152778"}, {"lat": "58.4833333", "city": "Viinahaua", "lon": "24.9666667"}, {"lat": "58.0547222", "city": "Viira", "lon": "24.4766667"}, {"lat": "58.0716667", "city": "Viisireiu", "lon": "24.8305556"}, {"lat": "58.285", "city": "Vikhakse", "lon": "24.0658333"}, {"lat": "58.6497222", "city": "Viluvere", "lon": "24.8788889"}, {"lat": "58.3333333", "city": "Vingerja", "lon": "24.8016667"}, {"lat": "58.3333333", "city": "Vinger'ya", "lon": "24.8016667"}, {"lat": "58.415", "city": "Vingik\u00fcla", "lon": "24.4988889"}, {"lat": "58.415", "city": "Vingikyula", "lon": "24.4988889"}, {"lat": "58.415", "city": "Vingi", "lon": "24.4988889"}, {"lat": "58.65", "city": "Viratu", "lon": "25.1333333"}, {"lat": "58.4969444", "city": "Viruna", "lon": "23.9988889"}, {"lat": "58.4833333", "city": "Viynakhaua", "lon": "24.9666667"}, {"lat": "58.0547222", "city": "Viyra", "lon": "24.4766667"}, {"lat": "58.3266667", "city": "V\u00f5hma", "lon": "24.1275"}, {"lat": "58.7038889", "city": "V\u00f5idula", "lon": "25.0952778"}, {"lat": "58.1447222", "city": "V\u00f5idu", "lon": "24.5836111"}, {"lat": "58.6036111", "city": "V\u00f5iera", "lon": "25.0852778"}, {"lat": "58.4666667", "city": "V\u00f5iste", "lon": "24.4833333"}, {"lat": "58.5672222", "city": "V\u00f5itra", "lon": "24.1055556"}, {"lat": "58.45", "city": "V\u00f5lla-M\u00f5isak\u00fcla", "lon": "24.1833333"}, {"lat": "58.4655556", "city": "V\u00f5lla", "lon": "24.1763889"}, {"lat": "58.4616667", "city": "V\u00f5lli", "lon": "24.8641667"}, {"lat": "58.1452778", "city": "Voltveti", "lon": "25.0441667"}, {"lat": "58.5727778", "city": "V\u00f5rungi", "lon": "24.2583333"}, {"lat": "58.1744444", "city": "Vyal'yakyula", "lon": "25.0472222"}, {"lat": "58.6480556", "city": "Vyandra", "lon": "25.0361111"}, {"lat": "58.5436111", "city": "Vyan'ya", "lon": "23.9241667"}, {"lat": "58.3152778", "city": "Vyarati", "lon": "23.9963889"}, {"lat": "58.2841667", "city": "Vyayksekyula", "lon": "24.8816667"}, {"lat": "58.5672222", "city": "Vyitra", "lon": "24.1055556"}, {"lat": "58.3266667", "city": "Vykhma", "lon": "24.1275"}, {"lat": "58.45", "city": "Vylla-Myyzakyula", "lon": "24.1833333"}, {"lat": "58.5008333", "city": "Vylla", "lon": "24.6927778"}, {"lat": "58.1447222", "city": "Vyydu", "lon": "24.5836111"}, {"lat": "58.4666667", "city": "Vyyste", "lon": "24.4833333"}, {"lat": "58.6058333", "city": "Yakobi", "lon": "24.5152778"}, {"lat": "58.5494444", "city": "Yanistvere", "lon": "24.1352778"}, {"lat": "58.4002778", "city": "Yarumetsa", "lon": "23.9363889"}, {"lat": "58.6166667", "city": "Yarve", "lon": "24.1597222"}, {"lat": "58.5133333", "city": "Yelbu", "lon": "24.5272222"}, {"lat": "58.5666667", "city": "Yepa", "lon": "24.2333333"}, {"lat": "58.3691667", "city": "Yukhasel'ya", "lon": "24.6425"}, {"lat": "58.5991667", "city": "Yunnaste", "lon": "24.9066667"}, {"lat": "58.6166667", "city": "Yuriksma", "lon": "24.6666667"}, {"lat": "58.6833333", "city": "Yyeertse", "lon": "25.1166667"}, {"lat": "58.5333333", "city": "Yyekyula", "lon": "24.6166667"}, {"lat": "58.4005556", "city": "Zintenhof", "lon": "24.6675"}, {"lat": "58.4005556", "city": "Zinten", "lon": "24.6675"}], "13": [{"lat": "58.8208333", "city": "Aakla", "lon": "24.9163889"}, {"lat": "59.1544444", "city": "Aandu", "lon": "24.7238889"}, {"lat": "59.1077778", "city": "Adila", "lon": "24.6408333"}, {"lat": "59.1194444", "city": "Adila-Krimmi", "lon": "24.6133333"}, {"lat": "59.1547222", "city": "Adila-Tagak\u00fcla", "lon": "24.6147222"}, {"lat": "59.1547222", "city": "Adila-Tagakyula", "lon": "24.6147222"}, {"lat": "59.1961111", "city": "Aespa", "lon": "24.6586111"}, {"lat": "58.8066667", "city": "Ahek\u00f5nnu", "lon": "24.8519444"}, {"lat": "59.0805556", "city": "\u00c4herdi", "lon": "24.7341667"}, {"lat": "58.8066667", "city": "Akhekynnu", "lon": "24.8519444"}, {"lat": "59.0805556", "city": "Akherdi", "lon": "24.7341667"}, {"lat": "58.8208333", "city": "Akla", "lon": "24.9163889"}, {"lat": "58.8666667", "city": "Alak\u00fcla", "lon": "24.4833333"}, {"lat": "58.75", "city": "Aleti", "lon": "24.8833333"}, {"lat": "58.8038889", "city": "Allika", "lon": "24.7319444"}, {"lat": "58.8038889", "city": "Allikak\u00fcla", "lon": "24.7319444"}, {"lat": "58.7952778", "city": "Allipa", "lon": "25.1486111"}, {"lat": "58.815", "city": "Altk\u00fcla", "lon": "24.1863889"}, {"lat": "58.815", "city": "Al'tkyula", "lon": "24.1863889"}, {"lat": "59.0225", "city": "Alu", "lon": "24.7608333"}, {"lat": "59.0408333", "city": "Alu-Metsk\u00fcla", "lon": "24.7480556"}, {"lat": "59.0408333", "city": "Alu-Metskyula", "lon": "24.7480556"}, {"lat": "59.1544444", "city": "Andu", "lon": "24.7238889"}, {"lat": "59.1777778", "city": "Angerja", "lon": "24.8519444"}, {"lat": "59.1777778", "city": "Angerja Asundus", "lon": "24.8519444"}, {"lat": "59.1833333", "city": "Angerja-\u00dclej\u00f5e", "lon": "24.8333333"}, {"lat": "59.1833333", "city": "Anger'ya-Yuleyye", "lon": "24.8333333"}, {"lat": "59.1469444", "city": "Anijala", "lon": "24.6077778"}, {"lat": "59.1469444", "city": "Aniyala", "lon": "24.6077778"}, {"lat": "59.0375", "city": "Arangu", "lon": "24.8477778"}, {"lat": "59.0375", "city": "Arank\u00fcla", "lon": "24.8477778"}, {"lat": "58.7444444", "city": "Araste", "lon": "24.3672222"}, {"lat": "58.7597222", "city": "Aravere", "lon": "24.4769444"}, {"lat": "59.0322222", "city": "\u00c4rismaa", "lon": "25.0513889"}, {"lat": "59.0322222", "city": "\u00c4risma", "lon": "25.0513889"}, {"lat": "59.0375", "city": "Arnakyula", "lon": "24.8477778"}, {"lat": "58.7833333", "city": "Aru", "lon": "25.0333333"}, {"lat": "58.9333333", "city": "Asukola", "lon": "24.75"}, {"lat": "58.9333333", "city": "Asuk\u00fcla", "lon": "24.75"}, {"lat": "59.0536111", "city": "Atla Asundus", "lon": "25.0102778"}, {"lat": "59.0536111", "city": "Atla", "lon": "25.0102778"}, {"lat": "58.7025", "city": "Avaste", "lon": "24.2338889"}, {"lat": "58.9333333", "city": "Azukyula", "lon": "24.75"}, {"lat": "58.7513889", "city": "Eidapere", "lon": "24.9427778"}, {"lat": "58.7513889", "city": "Eidepere", "lon": "24.9427778"}, {"lat": "58.7133333", "city": "Ellamaa", "lon": "24.9463889"}, {"lat": "58.7133333", "city": "Ellama", "lon": "24.9463889"}, {"lat": "59.0322222", "city": "Erisma", "lon": "25.0513889"}, {"lat": "58.7513889", "city": "Eydapere", "lon": "24.9427778"}, {"lat": "58.7152778", "city": "Fickel", "lon": "24.3769444"}, {"lat": "59.1630556", "city": "Gageri", "lon": "24.6525"}, {"lat": "59.0716667", "city": "Gaggut", "lon": "24.8183333"}, {"lat": "58.8208333", "city": "Haakla", "lon": "24.9163889"}, {"lat": "59.1630556", "city": "Hageri", "lon": "24.6525"}, {"lat": "59.1630556", "city": "Haggers", "lon": "24.6525"}, {"lat": "59.0716667", "city": "Haggud", "lon": "24.8183333"}, {"lat": "59.0716667", "city": "Hagudi", "lon": "24.8183333"}, {"lat": "59.0716667", "city": "Hagudi-Metsk\u00fcla", "lon": "24.8183333"}, {"lat": "58.8702778", "city": "Haimre Asundus", "lon": "24.4661111"}, {"lat": "58.8702778", "city": "Haimre", "lon": "24.4661111"}, {"lat": "58.815", "city": "Haimre-J\u00f5e\u00e4\u00e4re", "lon": "24.4208333"}, {"lat": "59.1036111", "city": "H\u00e4rgla", "lon": "24.8922222"}, {"lat": "59.145", "city": "H\u00e4rk\u00fcla-Saunak\u00fcla", "lon": "24.8938889"}, {"lat": "59.0319444", "city": "Helda", "lon": "24.9263889"}, {"lat": "58.9733333", "city": "Hertu", "lon": "24.8766667"}, {"lat": "58.8786111", "city": "Hiie", "lon": "24.9305556"}, {"lat": "58.8636111", "city": "Hiiek\u00f5nnu", "lon": "25.0044444"}, {"lat": "58.9147222", "city": "Hiienurme", "lon": "24.7763889"}, {"lat": "59.0505556", "city": "Hiietse", "lon": "24.4163889"}, {"lat": "58.9147222", "city": "Hiinurme", "lon": "24.7763889"}, {"lat": "59.0238889", "city": "H\u00f5reda", "lon": "24.9130556"}, {"lat": "58.9366667", "city": "Huugi", "lon": "24.2355556"}, {"lat": "58.8636111", "city": "Iekant", "lon": "25.0044444"}, {"lat": "58.9872222", "city": "Iira", "lon": "24.7191667"}, {"lat": "58.8647222", "city": "Ingliste", "lon": "25.2491667"}, {"lat": "58.8994444", "city": "Ioye", "lon": "24.6202778"}, {"lat": "58.9872222", "city": "Ira", "lon": "24.7191667"}, {"lat": "58.9872222", "city": "Iru", "lon": "24.7191667"}, {"lat": "58.7941667", "city": "Isak\u00f5nnu", "lon": "24.8163889"}, {"lat": "59.0125", "city": "Iyeere", "lon": "24.3658333"}, {"lat": "59.0647222", "city": "Iyerden", "lon": "24.9502778"}, {"lat": "58.7941667", "city": "Izakynnu", "lon": "24.8163889"}, {"lat": "58.8677778", "city": "Jaaniveski", "lon": "24.5622222"}, {"lat": "58.685", "city": "J\u00e4divere", "lon": "24.4530556"}, {"lat": "58.9705556", "city": "Jalase", "lon": "24.6233333"}, {"lat": "59.1202778", "city": "Jalukse", "lon": "24.9622222"}, {"lat": "59.1202778", "city": "Jaluse", "lon": "24.9622222"}, {"lat": "59.1330556", "city": "J\u00e4rlepa", "lon": "24.9330556"}, {"lat": "58.8688889", "city": "J\u00e4rvakandi Asundus", "lon": "24.7519444"}, {"lat": "58.7788889", "city": "J\u00e4rvakandi", "lon": "24.8258333"}, {"lat": "58.7788889", "city": "J\u00e4rvakandi Klaasivabrik", "lon": "24.8258333"}, {"lat": "58.7788889", "city": "J\u00e4rvakandi Tehasid", "lon": "24.8258333"}, {"lat": "58.8688889", "city": "J\u00e4rwakandi", "lon": "24.7519444"}, {"lat": "58.7788889", "city": "J\u00e4rwakandi Klaasi Wabrik", "lon": "24.8258333"}, {"lat": "58.8636111", "city": "Jekandi", "lon": "25.0044444"}, {"lat": "58.815", "city": "J\u00f5e\u00e4\u00e4re", "lon": "24.4208333"}, {"lat": "58.7908333", "city": "J\u00f5ek\u00fcla", "lon": "25.1241667"}, {"lat": "59.0647222", "city": "J\u00f6rden", "lon": "24.9502778"}, {"lat": "58.9841667", "city": "Julla", "lon": "24.8136111"}, {"lat": "59.0847222", "city": "Jutapere", "lon": "24.4052778"}, {"lat": "58.9841667", "city": "Juula", "lon": "24.8136111"}, {"lat": "59.0647222", "city": "Juuru", "lon": "24.9502778"}, {"lat": "59.05", "city": "Juuru-Saunak\u00fcla", "lon": "24.9333333"}, {"lat": "58.9833333", "city": "K\u00e4\u00e4nda", "lon": "24.2666667"}, {"lat": "59.0027778", "city": "K\u00e4\u00e4ndalaane", "lon": "24.2966667"}, {"lat": "58.9333333", "city": "Kabala Asundus", "lon": "24.65"}, {"lat": "58.9333333", "city": "Kabala", "lon": "24.65"}, {"lat": "58.9", "city": "Kabeli", "lon": "24.8333333"}, {"lat": "59.0838889", "city": "K\u00e4bi", "lon": "24.4713889"}, {"lat": "58.9113889", "city": "K\u00e4bik\u00fcla", "lon": "24.835"}, {"lat": "58.8852778", "city": "Kadaka", "lon": "24.7169444"}, {"lat": "58.9027778", "city": "K\u00e4dva", "lon": "25.1019444"}, {"lat": "58.8741667", "city": "Kaera", "lon": "24.7569444"}, {"lat": "58.9655556", "city": "Kaerepere", "lon": "24.8436111"}, {"lat": "58.8330556", "city": "Kaguvere", "lon": "24.32"}, {"lat": "58.9297222", "city": "Kaigepere", "lon": "24.78"}, {"lat": "59.0105556", "city": "Kaiu", "lon": "25.0597222"}, {"lat": "58.9033333", "city": "Kalbu", "lon": "24.8727778"}, {"lat": "59.1133333", "city": "Kalda", "lon": "24.8761111"}, {"lat": "59.0275", "city": "Kalevi", "lon": "24.7841667"}, {"lat": "58.8141667", "city": "K\u00e4ndliku", "lon": "25.1280556"}, {"lat": "58.8186111", "city": "Kangru", "lon": "24.5705556"}, {"lat": "59.0283333", "city": "K\u00e4nnu", "lon": "24.3358333"}, {"lat": "59.0333333", "city": "Kantsi", "lon": "24.5333333"}, {"lat": "59.0772222", "city": "Kaom\u00e4e", "lon": "25.1166667"}, {"lat": "59.0772222", "city": "Kaomyae", "lon": "25.1166667"}, {"lat": "58.8063889", "city": "K\u00e4riselja", "lon": "24.5258333"}, {"lat": "58.8063889", "city": "K\u00e4risselja", "lon": "24.5258333"}, {"lat": "58.9941667", "city": "Karitsa", "lon": "25.0391667"}, {"lat": "59.1402778", "city": "K\u00e4rivere", "lon": "24.8683333"}, {"lat": "58.8866667", "city": "K\u00e4rpla", "lon": "24.8630556"}, {"lat": "58.9038889", "city": "K\u00e4rsamaa", "lon": "24.2266667"}, {"lat": "58.9038889", "city": "K\u00e4rsama", "lon": "24.2266667"}, {"lat": "58.8338889", "city": "K\u00e4ru", "lon": "25.1480556"}, {"lat": "58.9869444", "city": "Karusmaa", "lon": "24.2327778"}, {"lat": "58.9869444", "city": "Karusma", "lon": "24.2327778"}, {"lat": "58.9666667", "city": "Kasenurme", "lon": "24.1833333"}, {"lat": "58.8461111", "city": "K\u00e4sna", "lon": "25.1983333"}, {"lat": "58.8666667", "city": "Kasti-J\u00f5e\u00e4\u00e4re", "lon": "24.55"}, {"lat": "58.8722222", "city": "Kasti", "lon": "24.5366667"}, {"lat": "58.8666667", "city": "Kasti-Yyeere", "lon": "24.55"}, {"lat": "58.8433333", "city": "Kastna", "lon": "25.0283333"}, {"lat": "59.015", "city": "Kasvandu", "lon": "25.0372222"}, {"lat": "58.8833333", "city": "Kauri", "lon": "24.3833333"}, {"lat": "58.7316667", "city": "Kausi", "lon": "24.255"}, {"lat": "58.9297222", "city": "Kaygepere", "lon": "24.78"}, {"lat": "58.9463889", "city": "Keava", "lon": "24.9033333"}, {"lat": "58.9463889", "city": "Kedenp\u00fch", "lon": "24.9033333"}, {"lat": "58.9302778", "city": "Kehtna Asundus", "lon": "24.8780556"}, {"lat": "58.9302778", "city": "Kehtna", "lon": "24.8780556"}, {"lat": "58.9463889", "city": "Keiva", "lon": "24.9033333"}, {"lat": "58.9302778", "city": "Kekhna", "lon": "24.8780556"}, {"lat": "58.9302778", "city": "Kekhtna", "lon": "24.8780556"}, {"lat": "59.0825", "city": "Kelba Asundus", "lon": "24.6316667"}, {"lat": "59.0825", "city": "Kelba", "lon": "24.6316667"}, {"lat": "58.7583333", "city": "Kenni", "lon": "24.8888889"}, {"lat": "58.9005556", "city": "Keo", "lon": "24.7388889"}, {"lat": "58.9005556", "city": "Keok\u00fcla", "lon": "24.7388889"}, {"lat": "58.9005556", "city": "Keokyula", "lon": "24.7388889"}, {"lat": "58.8063889", "city": "Keriselja", "lon": "24.5258333"}, {"lat": "58.8338889", "city": "Kerro", "lon": "25.1480556"}, {"lat": "58.8338889", "city": "Keru", "lon": "25.1480556"}, {"lat": "58.7863889", "city": "Keskk\u00fcla", "lon": "24.4858333"}, {"lat": "58.7863889", "city": "Keskyula", "lon": "24.4858333"}, {"lat": "58.7166667", "city": "Kesu", "lon": "24.2833333"}, {"lat": "58.7166667", "city": "Kezu", "lon": "24.2833333"}, {"lat": "59.1630556", "city": "Khageri", "lon": "24.6525"}, {"lat": "59.1630556", "city": "Khagers'", "lon": "24.6525"}, {"lat": "59.0716667", "city": "Khagudi", "lon": "24.8183333"}, {"lat": "59.0716667", "city": "Khagudi-Metskyula", "lon": "24.8183333"}, {"lat": "59.0319444", "city": "Khelda", "lon": "24.9263889"}, {"lat": "58.9733333", "city": "Khertu", "lon": "24.8766667"}, {"lat": "58.8636111", "city": "Khiiekynnu", "lon": "25.0044444"}, {"lat": "59.0505556", "city": "Khiietse", "lon": "24.4163889"}, {"lat": "58.9147222", "city": "Khiynurme", "lon": "24.7763889"}, {"lat": "58.9366667", "city": "Khugi", "lon": "24.2355556"}, {"lat": "59.145", "city": "Khyarkyula-Saunakyula", "lon": "24.8938889"}, {"lat": "58.8116667", "city": "Kiilaspere", "lon": "24.4458333"}, {"lat": "58.8333333", "city": "Kinnita", "lon": "24.5666667"}, {"lat": "58.8047222", "city": "Kirna", "lon": "24.565"}, {"lat": "58.8047222", "city": "Kirnak\u00fcla", "lon": "24.565"}, {"lat": "58.6833333", "city": "Kivinuki", "lon": "24.4"}, {"lat": "58.7152778", "city": "Kivi-Vigala", "lon": "24.3769444"}, {"lat": "59.0425", "city": "Kodila", "lon": "24.6683333"}, {"lat": "59.0797222", "city": "Kodila-Uusk\u00fcla", "lon": "24.6805556"}, {"lat": "58.8155556", "city": "K\u00f5du", "lon": "25.2275"}, {"lat": "58.8155556", "city": "K\u00f5duk\u00fcla", "lon": "25.2275"}, {"lat": "58.9219444", "city": "Kogimyae", "lon": "24.9169444"}, {"lat": "58.7791667", "city": "Kogiste", "lon": "25.0272222"}, {"lat": "58.9719444", "city": "Kohatu Asundus", "lon": "24.2997222"}, {"lat": "58.9719444", "city": "Kohatu", "lon": "24.2997222"}, {"lat": "59.1680556", "city": "Kohila", "lon": "24.7575"}, {"lat": "58.7333333", "city": "Kohtroma", "lon": "24.6666667"}, {"lat": "58.7363889", "city": "Kohtru", "lon": "24.6108333"}, {"lat": "59.0727778", "city": "Koigi", "lon": "24.7563889"}, {"lat": "58.9588889", "city": "Koikse", "lon": "24.6788889"}, {"lat": "59.1680556", "city": "Koil", "lon": "24.7575"}, {"lat": "58.7391667", "city": "Kojastu", "lon": "24.2194444"}, {"lat": "58.9719444", "city": "Kokhatu", "lon": "24.2997222"}, {"lat": "59.1680556", "city": "Kokhila", "lon": "24.7575"}, {"lat": "59.1680556", "city": "Kokhil'", "lon": "24.7575"}, {"lat": "58.7333333", "city": "Kokhtroma", "lon": "24.6666667"}, {"lat": "58.7363889", "city": "Kokhtru", "lon": "24.6108333"}, {"lat": "58.8830556", "city": "Kokuta", "lon": "24.8783333"}, {"lat": "59.0461111", "city": "Kolota", "lon": "24.3486111"}, {"lat": "59.0461111", "city": "Koluta", "lon": "24.3486111"}, {"lat": "58.7202778", "city": "Konapere", "lon": "24.3844444"}, {"lat": "58.7202778", "city": "Konnapere", "lon": "24.3844444"}, {"lat": "58.8102778", "city": "Konovere", "lon": "24.3802778"}, {"lat": "58.8102778", "city": "Konuvere", "lon": "24.3802778"}, {"lat": "58.9219444", "city": "Koogim\u00e4e", "lon": "24.9169444"}, {"lat": "58.7791667", "city": "Koogiste", "lon": "25.0272222"}, {"lat": "58.7861111", "city": "K\u00f5rbja", "lon": "25.0522222"}, {"lat": "59.0058333", "city": "K\u00f5rgu", "lon": "24.6908333"}, {"lat": "58.905", "city": "K\u00f5rtsuotsa", "lon": "24.5125"}, {"lat": "58.965", "city": "K\u00f5rvetaguse", "lon": "24.5305556"}, {"lat": "59.0727778", "city": "Koygi", "lon": "24.7563889"}, {"lat": "58.9588889", "city": "Koykse", "lon": "24.6788889"}, {"lat": "59.1680556", "city": "Koyl'", "lon": "24.7575"}, {"lat": "59.0433333", "city": "Kuimetsa", "lon": "25.1252778"}, {"lat": "59.0722222", "city": "Kuku", "lon": "24.7858333"}, {"lat": "58.7427778", "city": "Kullimaa", "lon": "25.1113889"}, {"lat": "58.7427778", "city": "Kullima", "lon": "25.1113889"}, {"lat": "58.9547222", "city": "Kumma", "lon": "24.8363889"}, {"lat": "58.8625", "city": "Kunsu", "lon": "24.4694444"}, {"lat": "58.7405556", "city": "Kurevere", "lon": "24.3863889"}, {"lat": "58.7869444", "city": "Kurikse", "lon": "24.9077778"}, {"lat": "58.9755556", "city": "Kuusiku", "lon": "24.7186111"}, {"lat": "58.9755556", "city": "Kuusiku Metsavaht", "lon": "24.7186111"}, {"lat": "59.0433333", "city": "Kuymetsa", "lon": "25.1252778"}, {"lat": "59.0838889", "city": "Kyabi", "lon": "24.4713889"}, {"lat": "58.9027778", "city": "Kyadva", "lon": "25.1019444"}, {"lat": "59.0075", "city": "Kyanda", "lon": "24.2325"}, {"lat": "58.8141667", "city": "Kyandliku", "lon": "25.1280556"}, {"lat": "59.0283333", "city": "Kyannu", "lon": "24.3358333"}, {"lat": "58.8063889", "city": "Kyarissel'ya", "lon": "24.5258333"}, {"lat": "59.1402778", "city": "Kyarivere", "lon": "24.8683333"}, {"lat": "58.8866667", "city": "Kyarpla", "lon": "24.8630556"}, {"lat": "58.9038889", "city": "Kyarsama", "lon": "24.2266667"}, {"lat": "58.8338889", "city": "Kyaru", "lon": "25.1480556"}, {"lat": "58.8461111", "city": "Kyasna", "lon": "25.1983333"}, {"lat": "58.8155556", "city": "Kydukyula", "lon": "25.2275"}, {"lat": "58.7861111", "city": "Kyrb'ya", "lon": "25.0522222"}, {"lat": "59.0058333", "city": "Kyrgu", "lon": "24.6908333"}, {"lat": "58.905", "city": "Kyrtsuotsa", "lon": "24.5125"}, {"lat": "58.965", "city": "Kyrvetaguze", "lon": "24.5305556"}, {"lat": "58.9", "city": "Laane", "lon": "25.0833333"}, {"lat": "58.8811111", "city": "Laeste", "lon": "24.8291667"}, {"lat": "59.0355556", "city": "Lagevainu", "lon": "25.0891667"}, {"lat": "58.9422222", "city": "Laikmaa", "lon": "24.6586111"}, {"lat": "58.9422222", "city": "Laikma", "lon": "24.6586111"}, {"lat": "59.1338889", "city": "Laisari", "lon": "24.5836111"}, {"lat": "59.0355556", "city": "Lakevainu", "lon": "25.0891667"}, {"lat": "59.0355556", "city": "Lakevaynu", "lon": "25.0891667"}, {"lat": "58.8741667", "city": "Lalli", "lon": "25.0186111"}, {"lat": "58.9", "city": "Lane", "lon": "25.0833333"}, {"lat": "58.7588889", "city": "L\u00e4ti Asundus", "lon": "24.2222222"}, {"lat": "58.7588889", "city": "L\u00e4ti", "lon": "24.2222222"}, {"lat": "58.9155556", "city": "Laukna", "lon": "24.1719444"}, {"lat": "58.9902778", "city": "Lau", "lon": "24.9786111"}, {"lat": "58.8325", "city": "Lauri", "lon": "25.1875"}, {"lat": "58.9422222", "city": "Laylima", "lon": "24.6586111"}, {"lat": "59.1338889", "city": "Laysari", "lon": "24.5836111"}, {"lat": "58.85", "city": "Leeniste", "lon": "24.2333333"}, {"lat": "58.9897222", "city": "Leevre", "lon": "24.1927778"}, {"lat": "58.9897222", "city": "Leevri", "lon": "24.1927778"}, {"lat": "58.7041667", "city": "Leibre", "lon": "24.3838889"}, {"lat": "58.8938889", "city": "Lellapere", "lon": "24.8266667"}, {"lat": "58.8636111", "city": "Lelle", "lon": "25.0044444"}, {"lat": "58.85", "city": "Leniste", "lon": "24.2333333"}, {"lat": "59.0541667", "city": "Lestima", "lon": "24.4761111"}, {"lat": "58.9897222", "city": "Levre", "lon": "24.1927778"}, {"lat": "58.99", "city": "Libadu", "lon": "24.7913889"}, {"lat": "58.8008333", "city": "Ligeda", "lon": "24.4963889"}, {"lat": "58.8211111", "city": "Lihu", "lon": "24.8030556"}, {"lat": "58.8211111", "city": "Lihuveski", "lon": "24.8030556"}, {"lat": "58.9505556", "city": "Likhu", "lon": "25.0630556"}, {"lat": "58.8211111", "city": "Likhuveski", "lon": "24.8030556"}, {"lat": "58.8427778", "city": "Lille", "lon": "24.9777778"}, {"lat": "58.9408333", "city": "Linnaaluste", "lon": "24.9383333"}, {"lat": "58.9408333", "city": "Linnaluste", "lon": "24.9383333"}, {"lat": "58.7111111", "city": "Linnu", "lon": "25.1788889"}, {"lat": "58.9116667", "city": "Lipak\u00fcla", "lon": "24.7197222"}, {"lat": "58.9116667", "city": "Lipa", "lon": "24.7197222"}, {"lat": "58.9233333", "city": "Lipametsa", "lon": "24.7005556"}, {"lat": "58.9830556", "city": "Lipstu", "lon": "24.6666667"}, {"lat": "58.8994444", "city": "Loe", "lon": "24.6202778"}, {"lat": "59.135", "city": "Lohu", "lon": "24.7852778"}, {"lat": "59.15", "city": "Lohu-\u00dclej\u00f5e", "lon": "24.7833333"}, {"lat": "59.1333333", "city": "L\u00f5iuse Kaks", "lon": "24.9"}, {"lat": "59.1233333", "city": "L\u00f5iuse", "lon": "24.8855556"}, {"lat": "59.1233333", "city": "L\u00f5iuse \u00dcks", "lon": "24.8855556"}, {"lat": "59.135", "city": "Lokhu", "lon": "24.7852778"}, {"lat": "59.15", "city": "Lokhu-Yuleyye", "lon": "24.7833333"}, {"lat": "58.8638889", "city": "Lokutaja", "lon": "24.5225"}, {"lat": "58.8033333", "city": "Lokuta", "lon": "24.9222222"}, {"lat": "58.7805556", "city": "L\u00f5mmelu", "lon": "25.1988889"}, {"lat": "58.8925", "city": "Loodna Asundus", "lon": "24.2372222"}, {"lat": "58.8925", "city": "Loodna", "lon": "24.2372222"}, {"lat": "59.1536111", "city": "Loone", "lon": "24.7883333"}, {"lat": "58.9255556", "city": "L\u00f5pemetsa", "lon": "24.6052778"}, {"lat": "58.8713889", "city": "Luiste Asundus", "lon": "24.2272222"},