{"EG": {"22": [{"lat": "30.8166667", "city": "Abu Shineina", "lon": "29.1666667"}, {"lat": "30.8166667", "city": "Abu Shunaynah", "lon": "29.1666667"}, {"lat": "31.0333333", "city": "Ad Dab`ah", "lon": "28.4333333"}, {"lat": "30.8666667", "city": "Ad Daraziyah", "lon": "28.9"}, {"lat": "29.2", "city": "Aghurmi", "lon": "25.5333333"}, {"lat": "30.8166667", "city": "Al `Alamayn", "lon": "28.95"}, {"lat": "30.8166667", "city": "Alamein", "lon": "28.95"}, {"lat": "31.0333333", "city": "Al-Dab`ah", "lon": "28.4333333"}, {"lat": "30.8333333", "city": "Al Hammam", "lon": "29.3833333"}, {"lat": "31.5666667", "city": "Al Maktilah", "lon": "26.2"}, {"lat": "29.1833333", "city": "Al Manshiyah", "lon": "25.5166667"}, {"lat": "30.7833333", "city": "Al Qasabah ash Sharqiyah", "lon": "29.1"}, {"lat": "30.9666667", "city": "Al Qasimiyah", "lon": "29.6166667"}, {"lat": "31.3666667", "city": "Al Qasr", "lon": "27.1166667"}, {"lat": "31.5666667", "city": "Al-Salum", "lon": "25.15"}, {"lat": "31.5166667", "city": "Anza el-Qalala", "lon": "25.1333333"}, {"lat": "31.5666667", "city": "As Sallum", "lon": "25.15"}, {"lat": "28.3666667", "city": "Az Zabu", "lon": "28.9333333"}, {"lat": "29.15", "city": "Az Zaytun", "lon": "25.7833333"}, {"lat": "30.9333333", "city": "Bahig", "lon": "29.5833333"}, {"lat": "30.9333333", "city": "Bahij", "lon": "29.5833333"}, {"lat": "31.5", "city": "Bugbug", "lon": "25.5333333"}, {"lat": "31.5", "city": "Byut Fadit", "lon": "25.35"}, {"lat": "31.5666667", "city": "Catabathmus Magna", "lon": "25.15"}, {"lat": "30.8833333", "city": "Dauw\u00e2r Abdalla", "lon": "29.3666667"}, {"lat": "30.85", "city": "Dauw\u00e2r `Abd el `\u00c2ti `Abu `Ag\u00fbz", "lon": "29.2833333"}, {"lat": "30.85", "city": "Dauw\u00e2r `Abd el `\u00c2ti Abu el `Aguz", "lon": "29.2833333"}, {"lat": "30.9333333", "city": "Dauw\u00e2r `Abd el Q\u00e2dir Q\u00e2sim", "lon": "29.4833333"}, {"lat": "30.9333333", "city": "Dauw\u00e2r `Abd el R\u00e2ziq", "lon": "29.55"}, {"lat": "30.85", "city": "Dauw\u00e2r Abu Direi`a Abd el Kir\u00eem", "lon": "29.2666667"}, {"lat": "30.9666667", "city": "Dauw\u00e2r Abu Mihr\u00e2s", "lon": "29.55"}, {"lat": "30.9666667", "city": "Dauw\u00e2r", "lon": "29.55"}, {"lat": "30.9166667", "city": "Dauw\u00e2r el Hagg Ahmad", "lon": "29.4333333"}, {"lat": "30.7666667", "city": "Dauwar el Hagg Raslan", "lon": "29.4333333"}, {"lat": "31.5833333", "city": "Dauw\u00e2r el Shireis\u00e2t", "lon": "26.0166667"}, {"lat": "31.5833333", "city": "Dauwar esh Shterasat", "lon": "26.0166667"}, {"lat": "31.0666667", "city": "Dauwar Hagg el Saiyid Rizq", "lon": "28.4333333"}, {"lat": "30.8666667", "city": "Dauw\u00e2r Hamad", "lon": "29.5166667"}, {"lat": "30.8333333", "city": "Dauwar Hasan", "lon": "29.5166667"}, {"lat": "30.9333333", "city": "Dauw\u00e2r Ibr\u00e2h\u00eem Abu Shineweir", "lon": "29.5"}, {"lat": "30.8333333", "city": "Dauw\u00e2r Kham\u00ees", "lon": "29.5"}, {"lat": "30.8833333", "city": "Dauw\u00e2r Mas`\u00fbd `Abu Farag", "lon": "29.3666667"}, {"lat": "30.8666667", "city": "Dauw\u00e2r Mis\u00e2dif Yunis", "lon": "29.3333333"}, {"lat": "30.7166667", "city": "Dauw\u00e2r Muhammad Abu Rimeila", "lon": "29.5"}, {"lat": "30.85", "city": "Dauwar Muhammad Abu Shanab", "lon": "29.3"}, {"lat": "30.8333333", "city": "Dauwar Muhammad Abu Shineina", "lon": "29.2666667"}, {"lat": "30.8666667", "city": "Dauwar Nassar", "lon": "29.3333333"}, {"lat": "30.8833333", "city": "Dauwar `Osman Burayik", "lon": "29.3666667"}, {"lat": "30.8166667", "city": "Dauwar Salih Abu Mas `ud", "lon": "29.2833333"}, {"lat": "30.8833333", "city": "Dauw\u00e2r Saqr", "lon": "29.4333333"}, {"lat": "30.9166667", "city": "Dauw\u00e2r Shindl Fann\u00fbsh", "lon": "29.45"}, {"lat": "30.9333333", "city": "Dauwar Siwaka", "lon": "29.55"}, {"lat": "30.85", "city": "Dawwar `Abd al `Ati Abu `Ajuz", "lon": "29.2833333"}, {"lat": "30.8833333", "city": "Dawwar `Abd Allah", "lon": "29.3666667"}, {"lat": "30.9333333", "city": "Dawwar `Abd al Qadir Qasim", "lon": "29.4833333"}, {"lat": "30.9333333", "city": "Dawwar `Abd ar Raziq", "lon": "29.55"}, {"lat": "30.85", "city": "Dawwar Abu Duray`ah `Abd al Karim", "lon": "29.2666667"}, {"lat": "30.9666667", "city": "Dawwar Abu Mahrus", "lon": "29.55"}, {"lat": "30.9166667", "city": "Dawwar al Hajj Ahmad", "lon": "29.4333333"}, {"lat": "30.7666667", "city": "Dawwar al Hajj Raslan", "lon": "29.4333333"}, {"lat": "31.5833333", "city": "Dawwar ash Shuraysat", "lon": "26.0166667"}, {"lat": "31.0666667", "city": "Dawwar Hajj as Sayyid Rizq", "lon": "28.4333333"}, {"lat": "30.9666667", "city": "Dawwar Halis", "lon": "29.5666667"}, {"lat": "30.8666667", "city": "Dawwar Hamad", "lon": "29.5166667"}, {"lat": "30.8333333", "city": "Dawwar Hasan", "lon": "29.5166667"}, {"lat": "30.9333333", "city": "Dawwar Ibrahim Abu Shunaywir", "lon": "29.5"}, {"lat": "30.8333333", "city": "Dawwar Khamis", "lon": "29.5"}, {"lat": "30.8833333", "city": "Dawwar Mas`ud Abu Faraj", "lon": "29.3666667"}, {"lat": "30.85", "city": "Dawwar Muhammad Abu Shanab", "lon": "29.3"}, {"lat": "30.8333333", "city": "Dawwar Muhammad Abu Shunaynah", "lon": "29.2666667"}, {"lat": "30.8666667", "city": "Dawwar Musadif Yunus", "lon": "29.3333333"}, {"lat": "30.8666667", "city": "Dawwar Nassar", "lon": "29.3333333"}, {"lat": "30.8166667", "city": "Dawwar Salih Abu Mas`ud", "lon": "29.2833333"}, {"lat": "30.8833333", "city": "Dawwar Saqr", "lon": "29.4333333"}, {"lat": "30.9166667", "city": "Dawwar Shindi Fannush", "lon": "29.45"}, {"lat": "30.9333333", "city": "Dawwar Siwakah", "lon": "29.55"}, {"lat": "30.8833333", "city": "Dawwar `Uthman Burayyik", "lon": "29.3666667"}, {"lat": "31.0333333", "city": "Ed Dab`a", "lon": "28.4333333"}, {"lat": "30.8666667", "city": "Ed Diraziya", "lon": "28.9"}, {"lat": "30.8166667", "city": "El `Alamein", "lon": "28.95"}, {"lat": "30.8166667", "city": "El-`Alam\u00ean", "lon": "28.95"}, {"lat": "31.6", "city": "El Bomba", "lon": "25.9166667"}, {"lat": "31.0333333", "city": "El Dab`a", "lon": "28.4333333"}, {"lat": "30.8666667", "city": "El Diraziya", "lon": "28.9"}, {"lat": "29.6166667", "city": "El Gara", "lon": "26.5"}, {"lat": "30.8333333", "city": "El Hammam", "lon": "29.3833333"}, {"lat": "29.35", "city": "El Hamra", "lon": "25.3833333"}, {"lat": "31.5666667", "city": "El Maktila", "lon": "26.2"}, {"lat": "29.1833333", "city": "El-Mansh\u00eeya", "lon": "25.5166667"}, {"lat": "30.7833333", "city": "El Qasaba el Sharqiya", "lon": "29.1"}, {"lat": "30.7833333", "city": "El Qasaba esh Sharqiya", "lon": "29.1"}, {"lat": "30.9666667", "city": "El Q\u00e2sim\u00eeya", "lon": "29.6166667"}, {"lat": "31.3666667", "city": "El Qasr", "lon": "27.1166667"}, {"lat": "31.5666667", "city": "El Sell\u00fbm", "lon": "25.15"}, {"lat": "31.5666667", "city": "El Sollum", "lon": "25.15"}, {"lat": "31.5666667", "city": "Es Sallum", "lon": "25.15"}, {"lat": "31.5666667", "city": "Es Sollum", "lon": "25.15"}, {"lat": "29.2166667", "city": "`Ezbet Mall\u00fbl", "lon": "25.5333333"}, {"lat": "29.2166667", "city": "`Ezbet Mishandid el-Keb\u00eera", "lon": "25.4"}, {"lat": "29.1833333", "city": "Ezbet Tanatti", "lon": "25.5666667"}, {"lat": "29.2166667", "city": "`Ezbet Zeid\u00e2n", "lon": "25.5333333"}, {"lat": "31.0680556", "city": "F\u00fbka", "lon": "27.9186111"}, {"lat": "31.0680556", "city": "Fukah", "lon": "27.9186111"}, {"lat": "31.2333333", "city": "Gar\u00e2wla", "lon": "27.3833333"}, {"lat": "29.2166667", "city": "`Izbat Mallul", "lon": "25.5333333"}, {"lat": "29.2166667", "city": "`Izbat Mushandid al Kabirah", "lon": "25.4"}, {"lat": "29.1833333", "city": "`Izbat Tanati", "lon": "25.5666667"}, {"lat": "29.2166667", "city": "`Izbat Zaydan", "lon": "25.5333333"}, {"lat": "31.4333333", "city": "Kafr Abu Habhab", "lon": "26.85"}, {"lat": "31.4", "city": "Kafr Abu Tirhi", "lon": "26.6333333"}, {"lat": "31.4333333", "city": "Kafrat Sabir", "lon": "26.9666667"}, {"lat": "31.4", "city": "Kafr `Eilet Lauw\u00e2g", "lon": "26.8833333"}, {"lat": "31.4666667", "city": "Kafret Abu Ghaniya", "lon": "26.1333333"}, {"lat": "31.1666667", "city": "Kafret Eilet el Taflal", "lon": "27.25"}, {"lat": "31.4666667", "city": "Kafret `Eilet Imsh\u00e2zz", "lon": "26.5166667"}, {"lat": "31.4833333", "city": "Kafret el San\u00e2gra", "lon": "26.4333333"}, {"lat": "31.4666667", "city": "Kafret el Sarahna", "lon": "26.45"}, {"lat": "31.45", "city": "Kafret el Taw\u00e2rsa", "lon": "26.4"}, {"lat": "31.5166667", "city": "Kafret Habbuni", "lon": "25.2"}, {"lat": "31.5833333", "city": "Kafret Hamdan", "lon": "26.1"}, {"lat": "31.4", "city": "Kafret Rihama", "lon": "26.5"}, {"lat": "31.4333333", "city": "Kafret Saber", "lon": "26.9666667"}, {"lat": "30.7166667", "city": "Kafr Muhammad Abu Rumaylah", "lon": "29.5"}, {"lat": "31.35", "city": "Madara", "lon": "27.2333333"}, {"lat": "30.9833333", "city": "M\u00e2gid Abu Zeid", "lon": "28.6"}, {"lat": "30.9833333", "city": "Majid Abu Zayd", "lon": "28.6"}, {"lat": "31.35", "city": "Marsa Matruh", "lon": "27.2333333"}, {"lat": "31.35", "city": "Matruh", "lon": "27.2333333"}, {"lat": "31.35", "city": "Mersa Matrouh", "lon": "27.2333333"}, {"lat": "31.35", "city": "Mersa Matruh", "lon": "27.2333333"}, {"lat": "31.35", "city": "Mhadara", "lon": "27.2333333"}, {"lat": "31.5666667", "city": "Panormus", "lon": "25.15"}, {"lat": "31.35", "city": "Paraetonium", "lon": "27.2333333"}, {"lat": "29.6166667", "city": "Qarah", "lon": "26.5"}, {"lat": "29.6166667", "city": "Qara", "lon": "26.5"}, {"lat": "31.1666667", "city": "Q\u00e2ryet el Lahamiya", "lon": "27.1"}, {"lat": "31.35", "city": "Q\u00e2ryet el Qibashi", "lon": "27.1"}, {"lat": "31.5666667", "city": "Sallum", "lon": "25.15"}, {"lat": "31.5666667", "city": "Sal\u00fbm", "lon": "25.15"}, {"lat": "26.55", "city": "Sawhaj", "lon": "31.7"}, {"lat": "31.5666667", "city": "Sellum", "lon": "25.15"}, {"lat": "31.5333333", "city": "Sheikh el Bisri", "lon": "26.3"}, {"lat": "30.9833333", "city": "Sidi `Abd ar Rahman", "lon": "28.8"}, {"lat": "30.9833333", "city": "S\u00eed\u00ee `Abd el-Rahm\u00e2n", "lon": "28.8"}, {"lat": "31.6", "city": "Sidi Barrani", "lon": "25.9166667"}, {"lat": "31.6", "city": "Sidi el-Barr\u00e1ni", "lon": "25.9166667"}, {"lat": "29.2", "city": "Siuah", "lon": "25.5166667"}, {"lat": "29.2", "city": "Siwah", "lon": "25.5166667"}, {"lat": "29.2", "city": "Siwa", "lon": "25.5166667"}, {"lat": "29.2", "city": "Siwe", "lon": "25.5166667"}, {"lat": "26.55", "city": "Sohag", "lon": "31.7"}, {"lat": "31.5666667", "city": "Sollum", "lon": "25.15"}, {"lat": "31.5666667", "city": "Solum", "lon": "25.15"}, {"lat": "26.55", "city": "Souhag", "lon": "31.7"}, {"lat": "26.55", "city": "Suhag", "lon": "31.7"}, {"lat": "26.55", "city": "Suhaj", "lon": "31.7"}, {"lat": "26.55", "city": "Suwhaj", "lon": "31.7"}, {"lat": "28.3666667", "city": "Zabu", "lon": "28.9333333"}, {"lat": "31.5666667", "city": "Zauiet Sidi el-Barr\u00e0ni", "lon": "25.9"}, {"lat": "31.2030556", "city": "Zawia Ashtuh", "lon": "27.8266667"}, {"lat": "31.1711111", "city": "Zawia Etnooh", "lon": "27.6733333"}, {"lat": "31.1566667", "city": "Zawia Harun", "lon": "27.6588889"}, {"lat": "31.0863889", "city": "Zawia Sidi Musa", "lon": "27.8958333"}, {"lat": "31.0833333", "city": "Zawiyat `Abd al Mun`im", "lon": "28.4333333"}, {"lat": "31.1711111", "city": "Zawiyat `A'ilat Nuh", "lon": "27.6733333"}, {"lat": "30.9166667", "city": "Zawiyat al `Asilah", "lon": "29.6"}, {"lat": "31.0833333", "city": "Zawiyat al `Awwamah", "lon": "28.0833333"}, {"lat": "30.9166667", "city": "Zawiyat al Habbabiyah", "lon": "29.5666667"}, {"lat": "31.5", "city": "Zawiyat al Muthniyan", "lon": "26.25"}, {"lat": "31.2030556", "city": "Zawiyat Ashtur", "lon": "27.8266667"}, {"lat": "30.95", "city": "Zawiyat as Sanusiyah", "lon": "29.4166667"}, {"lat": "31.5833333", "city": "Zawiyat at Tarfayah", "lon": "26.1166667"}, {"lat": "31.1566667", "city": "Zawiyat Harun", "lon": "27.6588889"}, {"lat": "31.5166667", "city": "Zawiyat Shammas", "lon": "26.4"}, {"lat": "31.5666667", "city": "Zawiyat Sidi Barrani", "lon": "25.9"}, {"lat": "31.0863889", "city": "Zawiyat Sidi Musa", "lon": "27.8958333"}, {"lat": "31.4", "city": "Zawiyat Umm ar Rakham", "lon": "27.05"}, {"lat": "31.1711111", "city": "Zawiyet Eilet Nuh", "lon": "27.6733333"}, {"lat": "31.0833333", "city": "Zawiyet el `Auwama", "lon": "28.0833333"}, {"lat": "30.9166667", "city": "Zawiyet el Habbabiya", "lon": "29.5666667"}, {"lat": "31.5", "city": "Zawiyet el Mithniyan", "lon": "26.25"}, {"lat": "31.5833333", "city": "Zawiyet et Tarfaya", "lon": "26.1166667"}, {"lat": "31.1566667", "city": "Zawiyet Harun", "lon": "27.6588889"}, {"lat": "31.5166667", "city": "Zawiyet Shammas", "lon": "26.4"}, {"lat": "31.0863889", "city": "Zawiyet Sidi Musa", "lon": "27.8958333"}, {"lat": "31.4", "city": "Zawiyet Umm el Rakham", "lon": "27.05"}, {"lat": "31.5666667", "city": "Z\u00e2wyec Sidi Barr\u00e2ni", "lon": "25.9"}, {"lat": "31.0833333", "city": "Z\u00e2wyet `Abd el Mun`im", "lon": "28.4333333"}, {"lat": "31.2030556", "city": "Z\u00e2wyet Asht\u00fbr", "lon": "27.8266667"}, {"lat": "31.1711111", "city": "Zawyet `Eilet N\u00fbh", "lon": "27.6733333"}, {"lat": "30.9166667", "city": "Z\u00e2wyet el `As\u00eela", "lon": "29.6"}, {"lat": "31.0833333", "city": "Zawyet el `Auw\u00e2ma", "lon": "28.0833333"}, {"lat": "30.9166667", "city": "Z\u00e2wyet el Habb\u00e2b\u00eeya", "lon": "29.5666667"}, {"lat": "30.9166667", "city": "Z\u00e2wyet el `Iseila", "lon": "29.6"}, {"lat": "31.5", "city": "Z\u00e2wyet el Mithniy\u00e2n", "lon": "26.25"}, {"lat": "30.8166667", "city": "Zawyet el-Saiyid Idr\u00ees el- Sin\u00fbs\u00ee", "lon": "29.4333333"}, {"lat": "30.95", "city": "Zawyet el-Sinusiya", "lon": "29.4166667"}, {"lat": "31.5833333", "city": "Zawyet el Tarfaya", "lon": "26.1166667"}, {"lat": "29.15", "city": "Z\u00e2wyet el-Zeit\u00fbn", "lon": "25.7833333"}, {"lat": "31.1566667", "city": "Zawyet Har\u00fbn", "lon": "27.6588889"}, {"lat": "30.8666667", "city": "Zawyet Sa`d Ab\u00fb Shu`eib", "lon": "29.5166667"}, {"lat": "31.5166667", "city": "Zawyet Shammas", "lon": "26.4"}, {"lat": "31.5666667", "city": "Z\u00e2wyet Sidi Barr\u00e2ni", "lon": "25.9"}, {"lat": "31.0863889", "city": "Z\u00e2wyet S\u00eed\u00ee M\u00fbsa", "lon": "27.8958333"}, {"lat": "31.4", "city": "Z\u00e2wyet Umm el Rakham", "lon": "27.05"}, {"lat": "29.15", "city": "Zeitun", "lon": "25.7833333"}, {"lat": "31.5166667", "city": "Zowiat Shamaas", "lon": "26.4"}], "24": [{"lat": "26.6", "city": "Abu `Aziz", "lon": "31.5666667"}, {"lat": "26.3672222", "city": "Ad Danaqilah", "lon": "31.7555556"}, {"lat": "26.4166667", "city": "Ad Duwayrat", "lon": "31.7669444"}, {"lat": "26.5666667", "city": "Akhmim", "lon": "31.7333333"}, {"lat": "26.5666667", "city": "Akhm\u00fbn", "lon": "31.7333333"}, {"lat": "26.4361111", "city": "Al Aha'iwah Gharb", "lon": "31.8041667"}, {"lat": "26.4361111", "city": "Al Ahaywah Gharb", "lon": "31.8041667"}, {"lat": "26.4638889", "city": "Al Ahaywah Sharq", "lon": "31.8180556"}, {"lat": "26.4222222", "city": "Al `Ama'idah", "lon": "31.7277778"}, {"lat": "26.4222222", "city": "Al `Amaydah", "lon": "31.7277778"}, {"lat": "26.5166667", "city": "Al `Anbariyah", "lon": "31.8166667"}, {"lat": "26.6", "city": "Al `Araba al Bahriyah", "lon": "31.5666667"}, {"lat": "26.8833333", "city": "Al Arba`in", "lon": "31.4333333"}, {"lat": "26.8469444", "city": "Al `Ataminah", "lon": "31.4747222"}, {"lat": "26.3041667", "city": "Al `Awamir Bahri", "lon": "31.8527778"}, {"lat": "26.3", "city": "Al `Awamir Qibli", "lon": "31.85"}, {"lat": "26.6833333", "city": "Al `Awwamiyah", "lon": "31.65"}, {"lat": "26.6", "city": "Al Bakha'itah", "lon": "31.6"}, {"lat": "26.2122222", "city": "Al Balabish", "lon": "32.1338889"}, {"lat": "26.2166667", "city": "Al Balabish Bahri", "lon": "32.1166667"}, {"lat": "26.1833333", "city": "Al Balabish Qibli", "lon": "32.1333333"}, {"lat": "26.2386111", "city": "Al Balyana", "lon": "32.0030556"}, {"lat": "26.3416667", "city": "Al Barb\u00e1", "lon": "31.8416667"}, {"lat": "26.2611111", "city": "Al Basikiyah", "lon": "31.9458333"}, {"lat": "26.4694444", "city": "Al Bawarik", "lon": "31.7861111"}, {"lat": "26.3583333", "city": "Al Bayadi", "lon": "31.8833333"}, {"lat": "26.3583333", "city": "Al Bayadi wa Al Qaryah", "lon": "31.8833333"}, {"lat": "26.5333333", "city": "Al Bayyadiyah bi an Naz\u00cc\u00a7ir", "lon": "31.8"}, {"lat": "26.3416667", "city": "Al Birba", "lon": "31.8416667"}, {"lat": "26.6333333", "city": "Al Butakh", "lon": "31.5666667"}, {"lat": "26.6166667", "city": "Al Gharizat", "lon": "31.5333333"}, {"lat": "26.1583333", "city": "Al Ghunaymiyah", "lon": "31.9755556"}, {"lat": "26.8625", "city": "Al Hadiqah", "lon": "31.3913889"}, {"lat": "26.4666667", "city": "Al Hajarisah", "lon": "31.6833333"}, {"lat": "26.8419444", "city": "Al Hallaqi", "lon": "31.3930556"}, {"lat": "26.5833333", "city": "Al Hammadiyah", "lon": "31.65"}, {"lat": "26.7166667", "city": "Al Haradinah", "lon": "31.6666667"}, {"lat": "26.7163889", "city": "Al Harafishah", "lon": "31.475"}, {"lat": "26.1916667", "city": "Al Harajah Bahri", "lon": "31.9338889"}, {"lat": "26.2236111", "city": "Al Harajah bil Qur`an", "lon": "31.8736111"}, {"lat": "26.2", "city": "Al Harajah Qibli", "lon": "31.9333333"}, {"lat": "26.7666667", "city": "Al Haridiyah al Bahriyah", "lon": "31.45"}, {"lat": "26.7688889", "city": "Al Haridiyah", "lon": "31.4613889"}, {"lat": "26.7666667", "city": "Al Haridiyah al Qibliyah", "lon": "31.45"}, {"lat": "26.4569444", "city": "Al Harizat al Gharbiyah", "lon": "31.7672222"}, {"lat": "26.45", "city": "Al Harizat ash Sharqiyah", "lon": "31.7994444"}, {"lat": "26.5833333", "city": "Al Hawawish", "lon": "31.7666667"}, {"lat": "26.2283333", "city": "Al Hijz", "lon": "31.9736111"}, {"lat": "26.9166667", "city": "Al Hima'", "lon": "31.45"}, {"lat": "26.4416667", "city": "Al Himas", "lon": "31.7833333"}, {"lat": "26.8666667", "city": "Al Hishah", "lon": "31.45"}, {"lat": "26.1833333", "city": "Al Hubayl", "lon": "31.9333333"}, {"lat": "26.4569444", "city": "AlHurayzat al Gharbiyah", "lon": "31.7672222"}, {"lat": "26.45", "city": "AlHurayzat ash Sharqiyah", "lon": "31.7994444"}, {"lat": "26.5666667", "city": "Al `Isawiyah Sharq", "lon": "31.8"}, {"lat": "26.2194444", "city": "Al Islah", "lon": "31.9827778"}, {"lat": "26.8569444", "city": "Al `Izbah al Mustajiddah", "lon": "31.4497222"}, {"lat": "26.5666667", "city": "Al `Izbah wa al `Arab", "lon": "31.7166667"}, {"lat": "26.7491667", "city": "Al Jabirat", "lon": "31.4161111"}, {"lat": "26.75", "city": "Al Jalawiyah", "lon": "31.6166667"}, {"lat": "26.8166667", "city": "Al Jaridat", "lon": "31.4333333"}, {"lat": "26.7166667", "city": "Al Jazazirah", "lon": "31.55"}, {"lat": "26.8833333", "city": "Al Jibab", "lon": "31.4"}, {"lat": "26.7491667", "city": "Al Jubayrat", "lon": "31.4161111"}, {"lat": "26.4694444", "city": "Al Kawamil", "lon": "31.6819444"}, {"lat": "26.4694444", "city": "Al Kawamil Bahri", "lon": "31.6819444"}, {"lat": "26.4491667", "city": "Al Kawamil Qibli", "lon": "31.6944444"}, {"lat": "26.5166667", "city": "Al Kawlah", "lon": "31.8166667"}, {"lat": "26.7666667", "city": "Al Kawm al Ahmar", "lon": "31.3833333"}, {"lat": "26.7616667", "city": "Al Kawm al Asfar", "lon": "31.4205556"}, {"lat": "26.3041667", "city": "Al Khalafiyah", "lon": "31.8736111"}, {"lat": "26.425", "city": "Al Khananisah", "lon": "31.7327778"}, {"lat": "26.1991667", "city": "Al Khayyam", "lon": "32.0513889"}, {"lat": "26.7833333", "city": "Al Khazandariyah", "lon": "31.5333333"}, {"lat": "26.1991667", "city": "Al Khiyam", "lon": "32.0513889"}, {"lat": "26.7", "city": "Al Kitkatah", "lon": "31.6333333"}, {"lat": "26.2338889", "city": "Al Kushh", "lon": "32.0827778"}, {"lat": "26.8358333", "city": "Al Madmar", "lon": "31.4458333"}, {"lat": "26.5166667", "city": "Al Mahamidah", "lon": "31.7"}, {"lat": "26.275", "city": "Al Mahasinah al Gharbiyah", "lon": "31.8291667"}, {"lat": "26.275", "city": "Al Mahasinah", "lon": "31.8291667"}, {"lat": "26.2916667", "city": "Al Majabirah", "lon": "31.8847222"}, {"lat": "26.4777778", "city": "Al Manshah", "lon": "31.8013889"}, {"lat": "26.7", "city": "Al Maraghah", "lon": "31.6"}, {"lat": "26.3541667", "city": "Al Masa`id", "lon": "31.8047222"}, {"lat": "26.2666667", "city": "Al Mashawidah", "lon": "31.8958333"}, {"lat": "26.8702778", "city": "Al Mawatin", "lon": "31.3930556"}, {"lat": "26.6166667", "city": "Al Qaramitah Gharb", "lon": "31.6666667"}, {"lat": "26.8452778", "city": "Al Qaryah bi ad Duwayr", "lon": "31.3458333"}, {"lat": "26.7563889", "city": "Al Qubaysat", "lon": "31.4644444"}, {"lat": "26.2888889", "city": "Al Qur`an", "lon": "31.8555556"}, {"lat": "26.3666667", "city": "Al Qurayyah", "lon": "31.8833333"}, {"lat": "26.8608333", "city": "Al Qutnah", "lon": "31.3355556"}, {"lat": "26.6333333", "city": "Al `Umur", "lon": "31.55"}, {"lat": "26.25", "city": "Al Wahliyah al Kabirah", "lon": "31.9166667"}, {"lat": "26.2333333", "city": "Al Wahliyah as Saghirah", "lon": "31.9166667"}, {"lat": "26.6166667", "city": "Al Waqdah", "lon": "31.5666667"}, {"lat": "26.2216667", "city": "An Naghamish", "lon": "32.0569444"}, {"lat": "26.4166667", "city": "An Nuwayrah", "lon": "31.8166667"}, {"lat": "26.8433333", "city": "Aphrodites", "lon": "31.42"}, {"lat": "26.8433333", "city": "Aphroditopolis", "lon": "31.42"}, {"lat": "26.25", "city": "`Arab al `Aliqat", "lon": "32.1166667"}, {"lat": "26.3055556", "city": "`Arab al `Atiyat", "lon": "32.0577778"}, {"lat": "26.8", "city": "`Arab Bikhw\u00e2g", "lon": "31.4833333"}, {"lat": "26.8166667", "city": "`Arab Bikhwaj", "lon": "31.5"}, {"lat": "26.25", "city": "Arab el `Alig\u00e2t", "lon": "32.1166667"}, {"lat": "26.2722222", "city": "Arab el Kallahin", "lon": "32.0861111"}, {"lat": "26.3366667", "city": "Ar Raqaqinah", "lon": "31.775"}, {"lat": "26.3366667", "city": "Ar Raqaqinah bi ash Shawahin", "lon": "31.775"}, {"lat": "26.8986111", "city": "Ar Rayayinah al Mu`allaq", "lon": "31.4025"}, {"lat": "26.7333333", "city": "Ar Rayayinah bi al Hajir", "lon": "31.6333333"}, {"lat": "26.8986111", "city": "Ar Rayaynah al Mi`allaq", "lon": "31.4025"}, {"lat": "26.4830556", "city": "Ar Ruwayhib", "lon": "31.7472222"}, {"lat": "26.9022222", "city": "Ash Shawaka", "lon": "31.4475"}, {"lat": "26.4083333", "city": "Ash Shawawlah", "lon": "31.7494444"}, {"lat": "26.9022222", "city": "Ash Shawka", "lon": "31.4475"}, {"lat": "26.2161111", "city": "Ash Shaykh Barakah", "lon": "31.9444444"}, {"lat": "26.6", "city": "Ash Shaykh Makram", "lon": "31.7"}, {"lat": "26.2541667", "city": "Ash Shaykh Marzuq", "lon": "31.9041667"}, {"lat": "26.7755556", "city": "Ash Shaykh Mas`ud", "lon": "31.4533333"}, {"lat": "26.8", "city": "Ash Shaykh Rahumah", "lon": "31.4166667"}, {"lat": "26.7", "city": "Ash Shaykh Shibl", "lon": "31.5666667"}, {"lat": "26.6333333", "city": "Ash Shaykh Yusuf", "lon": "31.6333333"}, {"lat": "26.8", "city": "Ash Shaykh Zayn ad Din", "lon": "31.5"}, {"lat": "26.2666667", "city": "As Sahil Bahri", "lon": "31.9861111"}, {"lat": "26.25", "city": "As Sahil Qibli", "lon": "31.9833333"}, {"lat": "26.4930556", "city": "As Sal`a", "lon": "31.7222222"}, {"lat": "26.6166667", "city": "As Salamuni", "lon": "31.7666667"}, {"lat": "26.2055556", "city": "As Salmani", "lon": "31.8916667"}, {"lat": "26.6333333", "city": "As Samarinah", "lon": "31.5333333"}, {"lat": "26.205", "city": "As Samata", "lon": "32.0041667"}, {"lat": "26.4444444", "city": "As Saqriyah", "lon": "31.7180556"}, {"lat": "26.7666667", "city": "As Sawalih", "lon": "31.4333333"}, {"lat": "26.7333333", "city": "As Sawami`ah Gharb", "lon": "31.55"}, {"lat": "26.6333333", "city": "As Sawami`ah Sharq", "lon": "31.75"}, {"lat": "26.7919444", "city": "As Sufayhah", "lon": "31.4041667"}, {"lat": "26.7333333", "city": "At Talihat", "lon": "31.4666667"}, {"lat": "26.4069444", "city": "Aul\u00e2d `Ali", "lon": "31.7661111"}, {"lat": "26.55", "city": "Aul\u00e2d `Azz\u00e2z", "lon": "31.6333333"}, {"lat": "26.3672222", "city": "Aul\u00e2d Bah\u00eeg", "lon": "31.8291667"}, {"lat": "26.3833333", "city": "Aul\u00e2d el-Sheikh", "lon": "31.8666667"}, {"lat": "26.45", "city": "Aul\u00e2d Ghar\u00eeb", "lon": "31.6833333"}, {"lat": "26.3847222", "city": "Aulad Gubara", "lon": "31.8333333"}, {"lat": "26.3916667", "city": "Aulad Hamza", "lon": "31.8194444"}, {"lat": "26.2361111", "city": "Aulad `Ileiu", "lon": "31.9497222"}, {"lat": "26.2361111", "city": "Aul\u00e2d `Ileiwa", "lon": "31.9497222"}, {"lat": "26.2361111", "city": "Aul\u00e2d `Ileiw", "lon": "31.9497222"}, {"lat": "26.6666667", "city": "Aulad Isma`il", "lon": "31.55"}, {"lat": "26.1975", "city": "Aul\u00e2d Khalaf", "lon": "32.0308333"}, {"lat": "26.5333333", "city": "Aul\u00e2d M\u00e2di", "lon": "31.7833333"}, {"lat": "26.5666667", "city": "Aul\u00e2d N\u00fbseir", "lon": "31.6666667"}, {"lat": "26.3861111", "city": "Aulad Salama", "lon": "31.7444444"}, {"lat": "26.2333333", "city": "Aul\u00e2d S\u00e2lim", "lon": "32.0333333"}, {"lat": "26.2333333", "city": "Aulad Salim Bahari", "lon": "32.0333333"}, {"lat": "26.3875", "city": "Aul\u00e2d Sheikh", "lon": "31.8625"}, {"lat": "26.5333333", "city": "Aul\u00e2d Shul\u00fbl", "lon": "31.7833333"}, {"lat": "26.2555556", "city": "Aul\u00e2d T\u00f4q Gharb", "lon": "32.0491667"}, {"lat": "26.2833333", "city": "Aul\u00e2d T\u00f4q Sharq", "lon": "32.0666667"}, {"lat": "26.3208333", "city": "Aulad Yahya Bahari", "lon": "31.9388889"}, {"lat": "26.3208333", "city": "Aulad Yihya", "lon": "31.9388889"}, {"lat": "26.3208333", "city": "Aulad Yihya Bahari", "lon": "31.9388889"}, {"lat": "26.3083333", "city": "Aulad Yihya Qibli", "lon": "31.9847222"}, {"lat": "26.4163889", "city": "`Awamir al `Asirat", "lon": "31.7994444"}, {"lat": "26.4163889", "city": "`Aw\u00e2mir el `As\u00eer\u00e2t", "lon": "31.7994444"}, {"lat": "26.2361111", "city": "Awlad `Ali", "lon": "31.9497222"}, {"lat": "26.3875", "city": "Awlad ash Shaykh", "lon": "31.8625"}, {"lat": "26.55", "city": "Awlad `Azzaz", "lon": "31.6333333"}, {"lat": "26.3672222", "city": "Awlad Bahij", "lon": "31.8291667"}, {"lat": "26.45", "city": "Awlad Gharib", "lon": "31.6833333"}, {"lat": "26.3916667", "city": "Awlad Hamzah", "lon": "31.8194444"}, {"lat": "26.6666667", "city": "Awlad Isma`il", "lon": "31.55"}, {"lat": "26.3847222", "city": "Awlad Jabbarah", "lon": "31.8333333"}, {"lat": "26.3847222", "city": "Awlad Jibarah", "lon": "31.8333333"}, {"lat": "26.1975", "city": "Awlad Khalaf", "lon": "32.0308333"}, {"lat": "26.5333333", "city": "Awlad Madi", "lon": "31.7833333"}, {"lat": "26.0705556", "city": "Awlad Najm al Qibliyah", "lon": "32.2283333"}, {"lat": "26.5666667", "city": "Awlad Nusayr", "lon": "31.6666667"}, {"lat": "26.3861111", "city": "Awlad Salamah", "lon": "31.7444444"}, {"lat": "26.2333333", "city": "Awlad Salim", "lon": "32.0333333"}, {"lat": "26.2333333", "city": "Awlad Salim Bahri", "lon": "32.0333333"}, {"lat": "26.3875", "city": "Awlad Shaykh", "lon": "31.8625"}, {"lat": "26.5333333", "city": "Awlad Shulul", "lon": "31.7833333"}, {"lat": "26.2555556", "city": "Awlad Tawq Gharb", "lon": "32.0491667"}, {"lat": "26.2833333", "city": "Awlad Tawq Sharq", "lon": "32.0666667"}, {"lat": "26.2555556", "city": "Awlad Tuq Gharb", "lon": "32.0491667"}, {"lat": "26.2361111", "city": "Awlad `Ulayyu", "lon": "31.9497222"}, {"lat": "26.3208333", "city": "Awlad Yahya Bahri", "lon": "31.9388889"}, {"lat": "26.3083333", "city": "Awlad Yahya Qibli", "lon": "31.9847222"}, {"lat": "26.2666667", "city": "Az Zanqur", "lon": "31.85"}, {"lat": "26.4291667", "city": "Az Zarah", "lon": "31.7644444"}, {"lat": "26.4333333", "city": "Az Zawak al Gharbiyah", "lon": "31.7222222"}, {"lat": "26.4458333", "city": "Az Zawak ash Sharqiyah", "lon": "31.7497222"}, {"lat": "26.4458333", "city": "Az Zuk ash Sharqiyah", "lon": "31.7513889"}, {"lat": "26.5833333", "city": "B\u00e2ga", "lon": "31.6833333"}, {"lat": "26.6166667", "city": "Bahalil al Jazirah", "lon": "31.6"}, {"lat": "26.6166667", "city": "Bahal\u00eel el Gez\u00eera", "lon": "31.6"}, {"lat": "26.5833333", "city": "Baja", "lon": "31.6833333"}, {"lat": "26.5166667", "city": "Balasfura", "lon": "31.7333333"}, {"lat": "26.5166667", "city": "Balasfurah", "lon": "31.7333333"}, {"lat": "26.2386111", "city": "Balyana", "lon": "32.0030556"}, {"lat": "26.7", "city": "Banawit", "lon": "31.5333333"}, {"lat": "26.8013889", "city": "Banga", "lon": "31.4708333"}, {"lat": "26.7333333", "city": "Banhaw", "lon": "31.5166667"}, {"lat": "26.7333333", "city": "Bani `Ammar", "lon": "31.5166667"}, {"lat": "26.3166667", "city": "Bani `Aysh", "lon": "31.85"}, {"lat": "26.7958333", "city": "Bani Harb", "lon": "31.4438889"}, {"lat": "26.7333333", "city": "Bani Hilal", "lon": "31.5833333"}, {"lat": "26.1861111", "city": "Bani Humayl", "lon": "31.9847222"}, {"lat": "26.6333333", "city": "Bani Wishah", "lon": "31.5833333"}, {"lat": "26.6", "city": "Bani Zar", "lon": "31.6"}, {"lat": "26.8013889", "city": "Banja", "lon": "31.4708333"}, {"lat": "26.8013889", "city": "Banjah", "lon": "31.4708333"}, {"lat": "26.2827778", "city": "Bardis", "lon": "31.9416667"}, {"lat": "26.6666667", "city": "Basuna", "lon": "31.6"}, {"lat": "26.6666667", "city": "Basunah", "lon": "31.6"}, {"lat": "26.3111111", "city": "Bayt al Khuraybi", "lon": "31.7991667"}, {"lat": "26.2338889", "city": "Bayt `Allam", "lon": "31.8638889"}, {"lat": "26.2916667", "city": "Bayt Dawud Sahl", "lon": "31.8111111"}, {"lat": "26.3055556", "city": "Bayt Khallaf", "lon": "31.7888889"}, {"lat": "26.2338889", "city": "Beit `All\u00e2m", "lon": "31.8638889"}, {"lat": "26.2916667", "city": "Beit Daud Sahl", "lon": "31.8111111"}, {"lat": "26.2916667", "city": "Beit D\u00e2w\u00fbd Sahl", "lon": "31.8111111"}, {"lat": "26.3111111", "city": "Beit el Khureibi", "lon": "31.7991667"}, {"lat": "26.3055556", "city": "Beit Khallaf", "lon": "31.7888889"}, {"lat": "26.3166667", "city": "Beni `Aish", "lon": "31.85"}, {"lat": "26.7333333", "city": "Beni `Amm\u00e2r", "lon": "31.5166667"}, {"lat": "26.7958333", "city": "Beni Harb", "lon": "31.4438889"}, {"lat": "26.7333333", "city": "Beni Hil\u00e2l", "lon": "31.5833333"}, {"lat": "26.1861111", "city": "Beni Himeil", "lon": "31.9847222"}, {"lat": "26.6333333", "city": "Beni Wish\u00e2h", "lon": "31.5833333"}, {"lat": "26.6", "city": "Beni Z\u00e2r", "lon": "31.6"}, {"lat": "26.6166667", "city": "Bihta", "lon": "31.5833333"}, {"lat": "26.6166667", "city": "Bihtah", "lon": "31.5833333"}, {"lat": "26.5333333", "city": "Bindar al Kirmaniyah", "lon": "31.7666667"}, {"lat": "26.3666667", "city": "Bindar ash Sharqiyah", "lon": "31.85"}, {"lat": "26.3713889", "city": "Bindar", "lon": "31.8416667"}, {"lat": "26.5333333", "city": "Bindar el Kirmaniya", "lon": "31.7666667"}, {"lat": "26.3713889", "city": "Bind\u00e2r el Sharq\u00eeya", "lon": "31.8416667"}, {"lat": "26.2597222", "city": "Dar as Salam", "lon": "32.0541667"}, {"lat": "26.2361111", "city": "Dawwa Abu Sutayt", "lon": "31.9497222"}, {"lat": "26.55", "city": "Dimnu", "lon": "31.6666667"}, {"lat": "26.5666667", "city": "Ekhmin", "lon": "31.7333333"}, {"lat": "26.4361111", "city": "El Ahaiwa Gharb", "lon": "31.8041667"}, {"lat": "26.4361111", "city": "El Ah\u00e2ywa Gharb", "lon": "31.8041667"}, {"lat": "26.4222222", "city": "El `Am\u00e2yda", "lon": "31.7277778"}, {"lat": "26.5166667", "city": "El `Ambar\u00eeya", "lon": "31.8166667"}, {"lat": "26.5833333", "city": "El `Araba bi Soh\u00e2g", "lon": "31.5833333"}, {"lat": "26.6", "city": "El Araba el Bahariya", "lon": "31.5666667"}, {"lat": "26.8833333", "city": "El Arbi'\u00een", "lon": "31.4333333"}, {"lat": "26.1833333", "city": "El `Ass\u00e2ra", "lon": "31.9833333"}, {"lat": "26.8469444", "city": "El `At\u00e2mna", "lon": "31.4747222"}, {"lat": "26.6833333", "city": "El Auw\u00e2m\u00eeya", "lon": "31.65"}, {"lat": "26.3041667", "city": "El `Aw\u00e2mir Bahari", "lon": "31.8527778"}, {"lat": "26.3", "city": "El `Aw\u00e2mir Qibli", "lon": "31.85"}, {"lat": "26.5333333", "city": "El Baiy\u00e2d\u00eeya Bil N\u00e2zir", "lon": "31.8"}, {"lat": "26.6", "city": "El Bakh\u00e2yta", "lon": "31.6"}, {"lat": "26.2166667", "city": "El Balabish Bahari", "lon": "32.1166667"}, {"lat": "26.2122222", "city": "El Balab\u00eesh", "lon": "32.1338889"}, {"lat": "26.1833333", "city": "El Balabish Qibli", "lon": "32.1333333"}, {"lat": "26.2386111", "city": "El Balyana", "lon": "32.0030556"}, {"lat": "26.2611111", "city": "El Basik\u00eeya", "lon": "31.9458333"}, {"lat": "26.3583333", "city": "El Bay\u00e2di", "lon": "31.8833333"}, {"lat": "26.3713889", "city": "El Bindar", "lon": "31.8416667"}, {"lat": "26.3416667", "city": "El Birba", "lon": "31.8416667"}, {"lat": "26.6333333", "city": "El But\u00e2kh", "lon": "31.5666667"}, {"lat": "26.3672222", "city": "El Dan\u00e2qla", "lon": "31.7555556"}, {"lat": "26.4833333", "city": "El-De\u00eer", "lon": "31.8166667"}, {"lat": "26.4166667", "city": "El Diw\u00eerat", "lon": "31.7669444"}, {"lat": "26.5666667", "city": "El Ezba and El `Arab", "lon": "31.7166667"}, {"lat": "26.8569444", "city": "El `Ezba el Mustagidda", "lon": "31.4497222"}, {"lat": "26.7166667", "city": "El-Fir\u00e2s\u00eeya", "lon": "31.6166667"}, {"lat": "26.8833333", "city": "El Gab\u00e2b", "lon": "31.4"}, {"lat": "26.75", "city": "El Gal\u00e2w\u00eeya", "lon": "31.6166667"}, {"lat": "26.7166667", "city": "El Gaz\u00e2zra", "lon": "31.55"}, {"lat": "26.1583333", "city": "El Ghineimiya", "lon": "31.9755556"}, {"lat": "26.6166667", "city": "El Ghir\u00eez\u00e2t", "lon": "31.5333333"}, {"lat": "26.8833333", "city": "El-Gib\u00e2b", "lon": "31.4"}, {"lat": "26.7491667", "city": "El Gib\u00eer\u00e2t", "lon": "31.4161111"}, {"lat": "26.8166667", "city": "El Gir\u00eed\u00e2t", "lon": "31.4333333"}, {"lat": "26.8625", "city": "El Had\u00eeqa", "lon": "31.3913889"}, {"lat": "26.4666667", "city": "El Hag\u00e2rsa", "lon": "31.6833333"}, {"lat": "26.8419444", "city": "El Hall\u00e2qi", "lon": "31.3930556"}, {"lat": "26.5833333", "city": "El Hammadiya", "lon": "31.65"}, {"lat": "26.7166667", "city": "El Haradna", "lon": "31.6666667"}, {"lat": "26.7163889", "city": "El Har\u00e2fsha", "lon": "31.475"}, {"lat": "26.1916667", "city": "El Haraga Bahari", "lon": "31.9338889"}, {"lat": "26.2236111", "city": "El-Haraga bil Qur`an", "lon": "31.8736111"}, {"lat": "26.1916667", "city": "El Haraga", "lon": "31.9338889"}, {"lat": "26.2", "city": "El Haraga Qibli", "lon": "31.9333333"}, {"lat": "26.4569444", "city": "El Har\u00eez\u00e2t el Gharb\u00eeya", "lon": "31.7672222"}, {"lat": "26.45", "city": "El Har\u00eez\u00e2t el Sharq\u00eeya", "lon": "31.7994444"}, {"lat": "26.45", "city": "El Harizat esh Sharqiya", "lon": "31.7994444"}, {"lat": "26.5833333", "city": "El Hawawish", "lon": "31.7666667"}, {"lat": "26.1833333", "city": "El Hibeil", "lon": "31.9333333"}, {"lat": "26.2283333", "city": "El Higz", "lon": "31.9736111"}, {"lat": "26.9166667", "city": "El Hima", "lon": "31.45"}, {"lat": "26.7688889", "city": "El Hiridiya el Bahariya", "lon": "31.4613889"}, {"lat": "26.7688889", "city": "El Hiridiya", "lon": "31.4613889"}, {"lat": "26.7688889", "city": "El Hiridiya el Qibliya", "lon": "31.4613889"}, {"lat": "26.8666667", "city": "El H\u00eesha", "lon": "31.45"}, {"lat": "26.5666667", "city": "El `Isawiya Sharq", "lon": "31.8"}, {"lat": "26.2194444", "city": "El Isl\u00e2h", "lon": "31.9827778"}, {"lat": "26.4694444", "city": "El Kawamil Bahari", "lon": "31.6819444"}, {"lat": "26.4694444", "city": "El-Kaw\u00e2mil", "lon": "31.6819444"}, {"lat": "26.3041667", "city": "El Khalaf\u00eeya", "lon": "31.8736111"}, {"lat": "26.425", "city": "El Khan\u00e2nsa", "lon": "31.7327778"}, {"lat": "26.7833333", "city": "El Khazind\u00e2r\u00eeya", "lon": "31.5333333"}, {"lat": "26.1991667", "city": "El Khiy\u00e2m", "lon": "32.0513889"}, {"lat": "26.7833333", "city": "El Khizindariya", "lon": "31.5333333"}, {"lat": "26.7", "city": "El Kitkafa", "lon": "31.6333333"}, {"lat": "26.5166667", "city": "El K\u00f4la", "lon": "31.8166667"}, {"lat": "26.5", "city": "El-Kola Nag", "lon": "31.8166667"}, {"lat": "26.7666667", "city": "El Kom el-Ahmar", "lon": "31.3833333"}, {"lat": "26.7616667", "city": "El Kom el Asfar", "lon": "31.4205556"}, {"lat": "26.2338889", "city": "El Kushh", "lon": "32.0827778"}, {"lat": "26.8358333", "city": "El Madmar", "lon": "31.4458333"}, {"lat": "26.2916667", "city": "El Magabra", "lon": "31.8847222"}, {"lat": "26.2916667", "city": "El Mag\u00fbbra", "lon": "31.8847222"}, {"lat": "26.5166667", "city": "El Mahamda", "lon": "31.7"}, {"lat": "26.275", "city": "El Mahasna el-Gharbiya", "lon": "31.8291667"}, {"lat": "26.275", "city": "El Mah\u00e2sna", "lon": "31.8291667"}, {"lat": "26.4777778", "city": "El Manshah", "lon": "31.8013889"}, {"lat": "26.7", "city": "El Mar\u00e2gha", "lon": "31.6"}, {"lat": "26.3666667", "city": "El Mas\u00e2`\u00eed", "lon": "31.8"}, {"lat": "26.2666667", "city": "El Mashauda", "lon": "31.8958333"}, {"lat": "26.2666667", "city": "El Mash\u00e2wda", "lon": "31.8958333"}, {"lat": "26.8702778", "city": "El Maw\u00e2t\u00een", "lon": "31.3930556"}, {"lat": "26.2216667", "city": "El Nagh\u00e2m\u00eesh", "lon": "32.0569444"}, {"lat": "26.4166667", "city": "El Nuweirat", "lon": "31.8166667"}, {"lat": "26.6166667", "city": "El Qar\u00e2mta Gharb", "lon": "31.6666667"}, {"lat": "26.8452778", "city": "El Qarya bil Diweir", "lon": "31.3458333"}, {"lat": "26.7563889", "city": "El Qibeisat", "lon": "31.4644444"}, {"lat": "26.7", "city": "El Qira\u00eeya", "lon": "31.5166667"}, {"lat": "26.3666667", "city": "El Qura\u00eeya", "lon": "31.8833333"}, {"lat": "26.2888889", "city": "El Qur`an", "lon": "31.8555556"}, {"lat": "26.3366667", "city": "El Raq\u00e2qna bil Shaw\u00e2h\u00een", "lon": "31.775"}, {"lat": "26.7333333", "city": "El Ray\u00e2yna bil H\u00e2gir", "lon": "31.6333333"}, {"lat": "26.8986111", "city": "El Rayayna el Mi`allaq", "lon": "31.4025"}, {"lat": "26.4830556", "city": "El Ruweihib", "lon": "31.7472222"}, {"lat": "26.2666667", "city": "El S\u00e2hil Bahari", "lon": "31.9861111"}, {"lat": "26.25", "city": "El Sahil", "lon": "31.9833333"}, {"lat": "26.25", "city": "El Sahil Qibli", "lon": "31.9833333"}, {"lat": "26.4930556", "city": "El Sal`\u00e2", "lon": "31.7222222"}, {"lat": "26.6166667", "city": "El Salam\u00fbni", "lon": "31.7666667"}, {"lat": "26.2055556", "city": "El Salm\u00e2ni", "lon": "31.8916667"}, {"lat": "26.6333333", "city": "El Samarna", "lon": "31.5333333"}, {"lat": "26.205", "city": "El Samata", "lon": "32.0041667"}, {"lat": "26.4444444", "city": "El Saqr\u00eeya", "lon": "31.7180556"}, {"lat": "26.7666667", "city": "El Sawalih", "lon": "31.4333333"}, {"lat": "26.7333333", "city": "El Sawam'a", "lon": "31.55"}, {"lat": "26.7333333", "city": "El Saw\u00e2m`a Gharb", "lon": "31.55"}, {"lat": "26.9022222", "city": "El Shawaka", "lon": "31.4475"}, {"lat": "26.2161111", "city": "El Sheikh Baraka", "lon": "31.9444444"}, {"lat": "26.6", "city": "El Sheikh Makram", "lon": "31.7"}, {"lat": "26.2541667", "city": "El Sheikh Marz\u00fbq", "lon": "31.9041667"}, {"lat": "26.7755556", "city": "El Sheikh Mas`\u00fbd", "lon": "31.4533333"}, {"lat": "26.8", "city": "El Sheikh Rahuma", "lon": "31.4166667"}, {"lat": "26.7", "city": "El Sheikh Shibl", "lon": "31.5666667"}, {"lat": "26.6333333", "city": "El Sheikh Y\u00fbsef", "lon": "31.6333333"}, {"lat": "26.8", "city": "El Sheikh Ze\u00een el D\u00een", "lon": "31.5"}, {"lat": "26.7919444", "city": "El-Shiffeiha", "lon": "31.4041667"}, {"lat": "26.2666667", "city": "El Taw\u00e2dir", "lon": "31.9166667"}, {"lat": "26.7333333", "city": "El Tilihat", "lon": "31.4666667"}, {"lat": "26.6333333", "city": "El `Um\u00fbr", "lon": "31.55"}, {"lat": "26.25", "city": "El Wahliya el Kebira", "lon": "31.9166667"}, {"lat": "26.6166667", "city": "El Waqada", "lon": "31.5666667"}, {"lat": "26.2666667", "city": "El Zanq\u00fbr", "lon": "31.85"}, {"lat": "26.4291667", "city": "El Zara", "lon": "31.7644444"}, {"lat": "26.4458333", "city": "El-Zuwak", "lon": "31.7497222"}, {"lat": "26.7333333", "city": "Er Rayaina bil Hagir", "lon": "31.6333333"}, {"lat": "26.8986111", "city": "Er Rayaina el Mi`allaq", "lon": "31.4025"}, {"lat": "26.2541667", "city": "Esh Sheikh Marzuq", "lon": "31.9041667"}, {"lat": "26.7", "city": "Esh Sheikh Shibl", "lon": "31.5666667"}, {"lat": "26.2666667", "city": "Es Sahil Bahari", "lon": "31.9861111"}, {"lat": "26.25", "city": "Es Sahil Qibli", "lon": "31.9833333"}, {"lat": "26.7333333", "city": "Es Sawam`a Gharb", "lon": "31.55"}, {"lat": "26.6333333", "city": "Es Sawam`a Sharq", "lon": "31.75"}, {"lat": "29.4", "city": "`Ezbet `Atwa", "lon": "31.0166667"}, {"lat": "26.8666667", "city": "`Ezbet el-Sabb\u00e2gh", "lon": "31.4166667"}, {"lat": "26.6833333", "city": "Fawg\u00eelai", "lon": "31.6666667"}, {"lat": "26.6833333", "city": "Fawjilay", "lon": "31.6666667"}, {"lat": "26.7", "city": "Faz\u00e2ra bil Qira\u00eeya", "lon": "31.5333333"}, {"lat": "26.6833333", "city": "Faz\u00e2ra", "lon": "31.5166667"}, {"lat": "26.7", "city": "Fazarah bi al Qaryah", "lon": "31.5333333"}, {"lat": "26.6833333", "city": "Fazarah bil Qaryah", "lon": "31.5166667"}, {"lat": "26.6833333", "city": "Fazarah", "lon": "31.5166667"}, {"lat": "26.3833333", "city": "Gez\u00eeret Aul\u00e2d Hamza", "lon": "31.8541667"}, {"lat": "26.7333333", "city": "Geziret el- Dahab", "lon": "31.5833333"}, {"lat": "26.55", "city": "Geziret el Muntasir", "lon": "31.8"}, {"lat": "26.55", "city": "Geziret Mahr\u00fbs", "lon": "31.7166667"}, {"lat": "26.6166667", "city": "Geziret Shandawil", "lon": "31.65"}, {"lat": "26.6744444", "city": "Giheina", "lon": "31.4916667"}, {"lat": "26.3458333", "city": "Girga", "lon": "31.8861111"}, {"lat": "26.8", "city": "Hagir Mishta", "lon": "31.3666667"}, {"lat": "26.4569444", "city": "Harizat el Gharbiya", "lon": "31.7672222"}, {"lat": "26.45", "city": "Harizat esh Sharqiya", "lon": "31.7994444"}, {"lat": "26.5666667", "city": "Idfa", "lon": "31.6333333"}, {"lat": "26.725", "city": "`Ineibis", "lon": "31.4991667"}, {"lat": "26.6666667", "city": "Iqsas", "lon": "31.6166667"}, {"lat": "26.5666667", "city": "Isawia", "lon": "31.8"}, {"lat": "26.9375", "city": "Isfaht", "lon": "31.3263889"}, {"lat": "26.2194444", "city": "`Izbat al Islah", "lon": "31.9827778"}, {"lat": "26.55", "city": "Jazirat al Muntasir", "lon": "31.8"}, {"lat": "26.3833333", "city": "Jazirat Awlad Hamzah", "lon": "31.8541667"}, {"lat": "26.55", "city": "Jazirat Mahrus", "lon": "31.7166667"}, {"lat": "26.6166667", "city": "Jazirat Shandawil", "lon": "31.65"}, {"lat": "26.6744444", "city": "Jihaynah", "lon": "31.4916667"}, {"lat": "26.3458333", "city": "Jirja", "lon": "31.8861111"}, {"lat": "26.6744444", "city": "Juhaynah", "lon": "31.4916667"}, {"lat": "26.7833333", "city": "Kawm ad Duwayr", "lon": "31.3833333"}, {"lat": "26.8333333", "city": "Kawm al Hamid", "lon": "31.4166667"}, {"lat": "26.2930556", "city": "Kawm as Sa`aydah", "lon": "31.9138889"}, {"lat": "26.4541667", "city": "Kawm Baddar", "lon": "31.7305556"}, {"lat": "26.7666667", "city": "Kawm Badr", "lon": "31.4166667"}, {"lat": "26.8530556", "city": "Kawm Gharib", "lon": "31.3863889"}, {"lat": "26.9375", "city": "Kawm Isfaht", "lon": "31.3263889"}, {"lat": "26.2541667", "city": "Kawm Ishkilu", "lon": "31.8652778"}, {"lat": "26.8433333", "city": "Kawm Ishq\u00e2w", "lon": "31.42"}, {"lat": "26.7833333", "city": "Kawm Na'il", "lon": "31.3833333"}, {"lat": "26.45", "city": "Kharfet el Mansh\u00e2h", "lon": "31.8"}, {"lat": "26.3327778", "city": "Kharfet Girga", "lon": "31.8491667"}, {"lat": "26.45", "city": "Kharifat al Minshah", "lon": "31.8"}, {"lat": "26.3327778", "city": "Kharifat Jirja", "lon": "31.8491667"}, {"lat": "26.5666667", "city": "Khemmis", "lon": "31.7333333"}, {"lat": "26.8433333", "city": "KHm Ishqau", "lon": "31.42"}, {"lat": "26.55", "city": "Khuss al Busah", "lon": "31.6666667"}, {"lat": "26.55", "city": "Khuss el B\u00fbsa", "lon": "31.6666667"}, {"lat": "26.4541667", "city": "K\u00f4m Badd\u00e2r", "lon": "31.7305556"}, {"lat": "26.7666667", "city": "K\u00f4m Badr", "lon": "31.4166667"}, {"lat": "26.7833333", "city": "K\u00f4m el Diweir", "lon": "31.3833333"}, {"lat": "26.2930556", "city": "K\u00f4m el Sa`\u00e2yda", "lon": "31.9138889"}, {"lat": "26.8530556", "city": "K\u00f4m Ghar\u00eeb", "lon": "31.3863889"}, {"lat": "26.9375", "city": "K\u00f4m Isfaht", "lon": "31.3263889"}, {"lat": "26.2541667", "city": "K\u00f4m Ishk\u00eelu", "lon": "31.8652778"}, {"lat": "26.8433333", "city": "K\u00f4m Ishq\u00e2w", "lon": "31.42"}, {"lat": "26.7833333", "city": "K\u00f4m N\u00e2yil", "lon": "31.3833333"}, {"lat": "26.2972222", "city": "Mas\u00e2ta", "lon": "32.0041667"}, {"lat": "26.3055556", "city": "Maz\u00e2ta and el Sheikh Gabr", "lon": "31.9125"}, {"lat": "26.2972222", "city": "Mazatah Sharq", "lon": "32.0041667"}, {"lat": "26.3055556", "city": "Mazatah wa ash Shaykh Jabr", "lon": "31.9125"}, {"lat": "26.2972222", "city": "Maz\u00e2ta Sharq", "lon": "32.0041667"}, {"lat": "26.3055556", "city": "Mazatat ash Shaykh Jabr", "lon": "31.9125"}, {"lat": "26.6166667", "city": "Mi`eifin", "lon": "31.6833333"}, {"lat": "26.2833333", "city": "Minshat Bardis", "lon": "31.9333333"}, {"lat": "26.8627778", "city": "Mishta", "lon": "31.4708333"}, {"lat": "26.6166667", "city": "Mu`ayfin", "lon": "31.6833333"}, {"lat": "26.6666667", "city": "Nag Abu Hilal", "lon": "31.6166667"}, {"lat": "26.7338889", "city": "Nag' Abu Leila", "lon": "31.4280556"}, {"lat": "26.6166667", "city": "Nag` `Aul\u00e2 Abu Zeid", "lon": "31.5166667"}, {"lat": "26.3", "city": "Nag` Bani Kh\u00e2lid", "lon": "31.9666667"}, {"lat": "26.1833333", "city": "Nag` Beni Birza", "lon": "32.0666667"}, {"lat": "26.4444444", "city": "Nag' el-Ah\u00e2ywa", "lon": "31.825"}, {"lat": "26.2166667", "city": "Nag' el-'Al\u00e2wna", "lon": "31.8666667"}, {"lat": "26.6833333", "city": "Nag' el Baq\u00e2tra", "lon": "31.6166667"}, {"lat": "26.3611111", "city": "Nag' el Deir", "lon": "31.9027778"}, {"lat": "26.3861111", "city": "Nag` el Hirakigin", "lon": "31.7444444"}, {"lat": "26.6666667", "city": "Nag` el H\u00eesh", "lon": "31.45"}, {"lat": "26.6666667", "city": "Nag` el-Maraw\u00e2na & el-Misallam\u00eeya", "lon": "31.6833333"}, {"lat": "26.3333333", "city": "Nag` el Mashaikh", "lon": "31.9333333"}, {"lat": "26.3333333", "city": "Nag` el Mashaik", "lon": "31.9333333"}, {"lat": "26.3333333", "city": "Nag` el Mash\u00e2yikh", "lon": "31.9333333"}, {"lat": "26.3333333", "city": "Nag` el Mashaykh", "lon": "31.9333333"}, {"lat": "26.6166667", "city": "Nag` el Our\u00e9shi", "lon": "31.7"}, {"lat": "26.65", "city": "Nag` el-S\u00e2qya", "lon": "31.65"}, {"lat": "26.6333333", "city": "Nag` el Sawam`a Sharq", "lon": "31.75"}, {"lat": "26.5666667", "city": "Nag` el-Sharaf\u00e2t", "lon": "31.6"}, {"lat": "26.1666667", "city": "Nag' el Shul\u00fbl\u00eeya", "lon": "31.9166667"}, {"lat": "26.75", "city": "Nag` el Taw\u00e2lib", "lon": "31.3833333"}, {"lat": "26.65", "city": "Nag` Ghaz\u00e2li", "lon": "31.5166667"}, {"lat": "26.5", "city": "Nag` Hamad", "lon": "31.65"}, {"lat": "26.7666667", "city": "Nag' Hamm\u00fb'de", "lon": "31.4666667"}, {"lat": "26.5833333", "city": "Nag` Hastantrwi", "lon": "31.7"}, {"lat": "26.6666667", "city": "Nag Hilal", "lon": "31.6166667"}, {"lat": "26.7402778", "city": "Nag' Idr\u00ees", "lon": "31.4575"}, {"lat": "26.75", "city": "Nag` Khal\u00eefa", "lon": "31.4333333"}, {"lat": "26.2411111", "city": "Nag` M\u00e2zin", "lon": "31.9283333"}, {"lat": "26.6833333", "city": "Nag' Nikheidar", "lon": "31.5666667"}, {"lat": "26.8166667", "city": "Nag` Qand\u00eel", "lon": "31.4"}, {"lat": "26.6", "city": "Nag` Tamm\u00e2m", "lon": "31.6166667"}, {"lat": "26.6666667", "city": "Naj` Abu Hilal", "lon": "31.6166667"}, {"lat": "26.7338889", "city": "Naj` Abu Laylah", "lon": "31.4280556"}, {"lat": "26.2375", "city": "Naj` Abu Sitayt", "lon": "31.9375"}, {"lat": "26.3611111", "city": "Naj` ad Dayr", "lon": "31.9027778"}, {"lat": "26.4444444", "city": "Naj` al Ahaywah", "lon": "31.825"}, {"lat": "26.2391667", "city": "Naj` al `Amayrah", "lon": "32.13"}, {"lat": "26.1833333", "city": "Naj` al `Assarah", "lon": "31.9833333"}, {"lat": "26.1583333", "city": "Naj` al Ghunaymiyah", "lon": "31.9755556"}, {"lat": "26.1916667", "city": "Naj` al Harjah", "lon": "31.9338889"}, {"lat": "26.2722222", "city": "Naj`al Kallahin", "lon": "32.0861111"}, {"lat": "26.3333333", "city": "Naj` al Masha'ikh", "lon": "31.9333333"}, {"lat": "26.2722222", "city": "Naj` `Arab al Kallahin", "lon": "32.0861111"}, {"lat": "26.0138889", "city": "Naj` `Arab as Sabhah", "lon": "32.1041667"}, {"lat": "26.7", "city": "Naj` ar Rikabat", "lon": "31.6833333"}, {"lat": "26.4541667", "city": "Naj` ash Shaykh Ibrahim", "lon": "31.8083333"}, {"lat": "26.3166667", "city": "Naj` as Sarawirah", "lon": "31.7833333"}, {"lat": "26.2666667", "city": "Naj` at Tawadir", "lon": "31.9166667"}, {"lat": "26.305", "city": "Naj` Awlad Khalifah", "lon": "31.9838889"}, {"lat": "26.3861111", "city": "Naj` Awlad Salamah", "lon": "31.7444444"}, {"lat": "26.2469444", "city": "Naj` Birmanah", "lon": "32.0263889"}, {"lat": "26.8141667", "city": "Naj` Hamad", "lon": "31.4536111"}, {"lat": "26.8833333", "city": "Naj` Hammad Matrud", "lon": "31.4"}, {"lat": "26.35", "city": "Naj` Hashim", "lon": "31.9166667"}, {"lat": "26.6666667", "city": "Naj` Hilal", "lon": "31.6166667"}, {"lat": "26.7402778", "city": "Naj` Idris", "lon": "31.4575"}, {"lat": "26.0083333", "city": "Naj` Jad al Karim", "lon": "32.0222222"}, {"lat": "26.1213889", "city": "Naj` Kawm Jabir", "lon": "32.0336111"}, {"lat": "26.2411111", "city": "Naj` Mazin", "lon": "31.9283333"}, {"lat": "26.3055556", "city": "Naj` Mazin Qibli al Jisr", "lon": "32.0202778"}, {"lat": "26.2083333", "city": "Naqnaq", "lon": "32.0827778"}, {"lat": "26.7833333", "city": "Nazlat `Abbadah", "lon": "31.4"}, {"lat": "26.8833333", "city": "Nazlat `Abd Allah", "lon": "31.4166667"}, {"lat": "26.8", "city": "Nazlat Abu Mughayzil", "lon": "31.4166667"}, {"lat": "26.75", "city": "Nazlat Abu Ra's", "lon": "31.45"}, {"lat": "26.8166667", "city": "Nazlat ad Duwayk", "lon": "31.3666667"}, {"lat": "26.8666667", "city": "Nazlat al Ashraf", "lon": "31.4666667"}, {"lat": "26.9", "city": "Nazlat al Barudiyah", "lon": "31.4333333"}, {"lat": "26.8", "city": "Nazlat al Ghurfah", "lon": "31.4"}, {"lat": "26.7666667", "city": "Nazlat al Haridi", "lon": "31.55"}, {"lat": "26.85", "city": "Nazlat al Hilali", "lon": "31.35"}, {"lat": "26.7208333", "city": "Nazlat `Ali", "lon": "31.4222222"}, {"lat": "26.7536111", "city": "Nazlat al Qadi", "lon": "31.3930556"}, {"lat": "26.8333333", "city": "Nazlat `Arab al `Ama'im", "lon": "31.35"}, {"lat": "26.7833333", "city": "Nazlat ash Shaykh Hammad", "lon": "31.4"}, {"lat": "26.8", "city": "Nazlat ash Shaykh Jum`ah", "lon": "31.3833333"}, {"lat": "26.8333333", "city": "Nazlat as Suq", "lon": "31.35"}, {"lat": "26.8166667", "city": "Nazlat `Atiyah Musa", "lon": "31.35"}, {"lat": "26.8166667", "city": "Nazlat Fazza`", "lon": "31.3666667"}, {"lat": "26.8", "city": "Nazlat Hajir Mishta", "lon": "31.3666667"}, {"lat": "26.7833333", "city": "Nazlat Hamid", "lon": "31.4333333"}, {"lat": "26.7994444", "city": "Nazlat `Imarah", "lon": "31.3644444"}, {"lat": "26.7827778", "city": "Nazlat Khatir", "lon": "31.3730556"}, {"lat": "26.8166667", "city": "Nazlat Mansur", "lon": "31.4166667"}, {"lat": "26.7833333", "city": "Nazlat Matar", "lon": "31.3833333"}, {"lat": "26.7833333", "city": "Nazlat Musallam", "lon": "31.4"}, {"lat": "26.7833333", "city": "Nazlat Nasr", "lon": "31.4"}, {"lat": "26.8166667", "city": "Nazlat Sa`id", "lon": "31.3666667"}, {"lat": "26.8333333", "city": "Nazlat Tuma", "lon": "31.4"}, {"lat": "26.8333333", "city": "Nazlat `Umran Khamis", "lon": "31.3666667"}, {"lat": "26.7333333", "city": "Nazlat Yahya", "lon": "31.4166667"}, {"lat": "26.8833333", "city": "Nazlet `Abdalla", "lon": "31.4166667"}, {"lat": "26.8", "city": "Nazlet Abu M\u00eegheizil", "lon": "31.4166667"}, {"lat": "26.75", "city": "Nazlet Abu R\u00e2s", "lon": "31.45"}, {"lat": "26.7208333", "city": "Nazlet `Ali", "lon": "31.4222222"}, {"lat": "26.8333333", "city": "Nazlet `Arab el `Am\u00e2y\u00eem", "lon": "31.35"}, {"lat": "26.8166667", "city": "Nazlet `Atiya Musa", "lon": "31.35"}, {"lat": "26.7833333", "city": "Nazlet `Eb\u00e2da", "lon": "31.4"}, {"lat": "26.8666667", "city": "Nazlet el Ashr\u00e2f", "lon": "31.4666667"}, {"lat": "26.8166667", "city": "Nazlet el Diweik", "lon": "31.3666667"}, {"lat": "26.8", "city": "Nazlet el Ghurfa", "lon": "31.4"}, {"lat": "26.7666667", "city": "Nazlet el Har\u00eedi", "lon": "31.55"}, {"lat": "26.85", "city": "Nazlet el Hil\u00e2li", "lon": "31.35"}, {"lat": "26.7536111", "city": "Nazlet el Qadi", "lon": "31.3930556"}, {"lat": "26.8", "city": "Nazlet el Sheikh Gum\u00e2", "lon": "31.3833333"}, {"lat": "26.7833333", "city": "Nazlet el Sheikh Hammad", "lon": "31.4"}, {"lat": "26.8333333", "city": "Nazlet el S\u00fbq", "lon": "31.35"}, {"lat": "26.7833333", "city": "Nazlet Hamid", "lon": "31.4333333"}, {"lat": "26.7994444", "city": "Nazlet `Im\u00e2ra", "lon": "31.3644444"}, {"lat": "26.8333333", "city": "Nazlet `Imr\u00e2n Kham\u00ees", "lon": "31.3666667"}, {"lat": "26.7827778", "city": "Nazlet Khatir", "lon": "31.3730556"}, {"lat": "26.8166667", "city": "Nazlet Mansur", "lon": "31.4166667"}, {"lat": "26.7833333", "city": "Nazlet Matar", "lon": "31.3833333"}, {"lat": "26.7833333", "city": "Nazlet Misallam", "lon": "31.4"}, {"lat": "26.8166667", "city": "Nazlet Sa`\u00eed", "lon": "31.3666667"}, {"lat": "26.8333333", "city": "Nazlet T\u00fbma", "lon": "31.4"}, {"lat": "26.7333333", "city": "Nazlet Yihya", "lon": "31.4166667"}, {"lat": "26.6986111", "city": "Nazzah", "lon": "31.4791667"}, {"lat": "26.6986111", "city": "Nazza", "lon": "31.4791667"}, {"lat": "26.6861111", "city": "Nazzat al Hajir", "lon": "31.4791667"}, {"lat": "26.7083333", "city": "Nazzat al Muhazzimin", "lon": "31.4677778"}, {"lat": "26.6861111", "city": "Nazzet el H\u00e2gir", "lon": "31.4791667"}, {"lat": "26.7083333", "city": "Nazzet el Mihazzimin", "lon": "31.4677778"}, {"lat": "26.6", "city": "Nida", "lon": "31.7166667"}, {"lat": "26.2083333", "city": "Niqniq", "lon": "32.0827778"}, {"lat": "26.2833333", "city": "Nug\u00fb Bard\u00ees", "lon": "31.95"}, {"lat": "26.7161111", "city": "Nug\u00fb el B\u00fbs", "lon": "31.4491667"}, {"lat": "26.7161111", "city": "Nuju` al Bus", "lon": "31.4491667"}, {"lat": "26.2833333", "city": "Nuju` Bardis", "lon": "31.95"}, {"lat": "26.5666667", "city": "Paloupolis", "lon": "31.7333333"}, {"lat": "26.5666667", "city": "Panopolis", "lon": "31.7333333"}, {"lat": "26.5666667", "city": "Panospolis", "lon": "31.7333333"}, {"lat": "26.4777778", "city": "Ptolema\u00ees Hernnon", "lon": "31.8013889"}, {"lat": "26.7005556", "city": "Qaryat `Ali Bin Abi Talib", "lon": "31.4236111"}, {"lat": "26.9005556", "city": "Qaw Gharb", "lon": "31.4663889"}, {"lat": "26.5666667", "city": "Qilfaw", "lon": "31.7"}, {"lat": "26.5166667", "city": "Rawafi` al `Isawiyah", "lon": "31.7666667"}, {"lat": "26.5166667", "city": "Rawafi` al Qusayr", "lon": "31.7"}, {"lat": "26.5166667", "city": "Raw\u00e2fi` el `\u00ces\u00e2w\u00eeya", "lon": "31.7666667"}, {"lat": "26.5166667", "city": "Raw\u00e2fi` el Quseir", "lon": "31.7"}, {"lat": "26.6166667", "city": "Sa`d Allah", "lon": "31.7"}, {"lat": "26.6166667", "city": "Sa`dalla", "lon": "31.7"}, {"lat": "26.7666667", "city": "Sahil Tahta", "lon": "31.5"}, {"lat": "26.85", "city": "Salim al Gharbiyah", "lon": "31.4166667"}, {"lat": "26.85", "city": "Salim ash Sharqiyah", "lon": "31.4166667"}, {"lat": "26.6666667", "city": "Saqulta and el `Arab", "lon": "31.6666667"}, {"lat": "26.6666667", "city": "Saqultah wa al `Arab", "lon": "31.6666667"}, {"lat": "26.6666667", "city": "Saqulta", "lon": "31.6666667"}, {"lat": "26.7833333", "city": "Sawalim Tahta", "lon": "31.5166667"}, {"lat": "26.6", "city": "Shandawil", "lon": "31.65"}, {"lat": "26.8325", "city": "Shatturah", "lon": "31.4902778"}, {"lat": "26.8325", "city": "Shattura", "lon": "31.4902778"}, {"lat": "26.6333333", "city": "Siflaq", "lon": "31.7166667"}, {"lat": "26.85", "city": "Sil\u00eem el Gharb\u00eeya", "lon": "31.4166667"}, {"lat": "26.85", "city": "Sil\u00eem el Sharq\u00eeya", "lon": "31.4166667"}, {"lat": "26.7680556", "city": "Tahta", "lon": "31.4938889"}, {"lat": "26.8333333", "city": "Tell el-Zawaki", "lon": "31.3833333"}, {"lat": "26.9086111", "city": "Tima", "lon": "31.4327778"}, {"lat": "26.6166667", "city": "Tunis", "lon": "31.6833333"}, {"lat": "26.6166667", "city": "Tunus", "lon": "31.6833333"}, {"lat": "26.8166667", "city": "Umm Dawmah Qibli", "lon": "31.3666667"}, {"lat": "26.8294444", "city": "Umm Dawmah", "lon": "31.37"}, {"lat": "26.8294444", "city": "Umm DHma", "lon": "31.37"}, {"lat": "26.8166667", "city": "Umm D\u00f4ma Qibli", "lon": "31.3666667"}, {"lat": "26.8294444", "city": "Umm Dumah", "lon": "31.37"}, {"lat": "26.725", "city": "`Unaybis", "lon": "31.4991667"}, {"lat": "26.7", "city": "`Urban Bani Wasil", "lon": "31.6833333"}, {"lat": "26.7", "city": "Urban Beni Wasil", "lon": "31.6833333"}, {"lat": "26.2333333", "city": "Wahliyat ash Shaykh Ahmad", "lon": "31.9166667"}, {"lat": "26.25", "city": "Wahliyat as Samman", "lon": "31.9166667"}, {"lat": "26.25", "city": "Wahliyet el Samman", "lon": "31.9166667"}, {"lat": "26.2333333", "city": "Wahl\u00eeyet el Sheik Ahmad", "lon": "31.9166667"}, {"lat": "26.5166667", "city": "Wann\u00eena el Gharb\u00eeya", "lon": "31.6833333"}, {"lat": "26.5333333", "city": "Wann\u00eena el Sharq\u00eeya", "lon": "31.6833333"}, {"lat": "26.5166667", "city": "Wanninah al Gharbiyah", "lon": "31.6833333"}, {"lat": "26.5333333", "city": "Wanninah ash Sharqiyah", "lon": "31.6833333"}, {"lat": "26.2", "city": "Zimam al Harajah Qibli", "lon": "31.9333333"}], "03": [{"lat": "31.0391667", "city": "Ab`adiyat Damanhur", "lon": "30.3608333"}, {"lat": "31.0391667", "city": "Ab`\u00e2d\u00eeyet Damanh\u00fbr", "lon": "30.3608333"}, {"lat": "30.7472222", "city": "`Abbas al `Aqqad", "lon": "30.2166667"}, {"lat": "30.7472222", "city": "`Abb\u00e2s el-`Aqq\u00e2d", "lon": "30.2166667"}, {"lat": "30.7208333", "city": "`Abd al `Az\u00cc\u00a7im Abu al `Ata", "lon": "30.1083333"}, {"lat": "30.6472222", "city": "`Abd al Halim Mahmud", "lon": "29.9972222"}, {"lat": "30.8", "city": "`Abd al Hamid `Ayyash", "lon": "29.8472222"}, {"lat": "30.7208333", "city": "`Abd el-`Azim Abu el-`Ata", "lon": "30.1083333"}, {"lat": "31.15", "city": "`Abd el-Wahh\u00e2b", "lon": "30.3333333"}, {"lat": "31.1352778", "city": "Abis", "lon": "30.1016667"}, {"lat": "31.1352778", "city": "Abis al Mustajaddah", "lon": "30.1016667"}, {"lat": "31.1352778", "city": "Ab\u00ees el-Mustagadda", "lon": "30.1016667"}, {"lat": "31.1041667", "city": "Abou Hommos", "lon": "30.2994444"}, {"lat": "30.9355556", "city": "Abtuk", "lon": "30.7288889"}, {"lat": "30.5936111", "city": "Abu al Khawi", "lon": "30.8061111"}, {"lat": "30.9083333", "city": "Abu al Matamir", "lon": "30.1775"}, {"lat": "30.9194444", "city": "Abu al Matamir al Bahri", "lon": "30.1358333"}, {"lat": "30.8830556", "city": "Abu ash Shuqaf", "lon": "30.4122222"}, {"lat": "30.6902778", "city": "Abu Bakr as Siddiq", "lon": "30.1305556"}, {"lat": "31.0066667", "city": "Abu Durra", "lon": "30.6188889"}, {"lat": "31.0066667", "city": "Abu Durrah", "lon": "30.6188889"}, {"lat": "30.5936111", "city": "Abu el-Kh\u00e2ui", "lon": "30.8061111"}, {"lat": "30.5936111", "city": "Abu el-Kh\u00e2wi", "lon": "30.8061111"}, {"lat": "31.1027778", "city": "Abu el-Khazr", "lon": "30.3633333"}, {"lat": "30.9083333", "city": "Abu el Matamir", "lon": "30.1775"}, {"lat": "30.9194444", "city": "Abu el-Matamir el-Bahari", "lon": "30.1358333"}, {"lat": "30.8830556", "city": "Abu el-Shug\u00e2f", "lon": "30.4122222"}, {"lat": "30.8830556", "city": "Abu el-Shuq\u00e2f", "lon": "30.4122222"}, {"lat": "30.9083333", "city": "Abu `elwet-Matamir", "lon": "30.1775"}, {"lat": "30.8830556", "city": "Abu esh-Shuq\u00e2f", "lon": "30.4122222"}, {"lat": "30.9333333", "city": "Abu Himar al Kabir", "lon": "30.4833333"}, {"lat": "30.9333333", "city": "Abu Humar el-Kebir", "lon": "30.4833333"}, {"lat": "31.1041667", "city": "Abu Huminus", "lon": "30.2994444"}, {"lat": "31.1041667", "city": "Abu Hummus", "lon": "30.2994444"}, {"lat": "31.1041667", "city": "Abu Humus", "lon": "30.2994444"}, {"lat": "31.2708333", "city": "Abu Kaylah", "lon": "30.6791667"}, {"lat": "31.0594444", "city": "Abu Kharash", "lon": "30.5886111"}, {"lat": "30.9330556", "city": "Abu Mang\u00fbg", "lon": "30.735"}, {"lat": "30.9330556", "city": "Abu Manjuj", "lon": "30.735"}, {"lat": "30.3666667", "city": "Abu Nish-Sh\u00e2ba", "lon": "30.85"}, {"lat": "30.3666667", "city": "Abu Nushshabah", "lon": "30.85"}, {"lat": "31.2213889", "city": "Abu Rabih", "lon": "30.1297222"}, {"lat": "30.7969444", "city": "Abu Sam\u00e2da", "lon": "30.5894444"}, {"lat": "30.8591667", "city": "Abu Si`ayfah", "lon": "30.5258333"}, {"lat": "30.8591667", "city": "Abu Si`eifa", "lon": "30.5258333"}, {"lat": "30.7969444", "city": "Abu Simadah", "lon": "30.5894444"}, {"lat": "30.9758333", "city": "Abu Sinbil", "lon": "29.8361111"}, {"lat": "30.8591667", "city": "Abu Su`ayfah", "lon": "30.5258333"}, {"lat": "31.0294444", "city": "Abu Yahya", "lon": "30.59"}, {"lat": "31.0294444", "city": "Abu Yihya", "lon": "30.59"}, {"lat": "30.7891667", "city": "Abyuqa", "lon": "30.6088889"}, {"lat": "30.8522222", "city": "Ad Dahriyah", "lon": "30.7658333"}, {"lat": "30.95", "city": "Ad Daramalliyah", "lon": "30.5666667"}, {"lat": "31.0833333", "city": "Ad Darawiyah", "lon": "30.3166667"}, {"lat": "30.8280556", "city": "Ad Dilinjat", "lon": "30.5341667"}, {"lat": "30.7291667", "city": "Ahmad Rami", "lon": "30.3916667"}, {"lat": "30.675", "city": "Ahmad Shawqi", "lon": "30.1458333"}, {"lat": "30.9786111", "city": "Ahmad `Urabi", "lon": "29.8088889"}, {"lat": "30.8761111", "city": "Al Abqa`ayn", "lon": "30.3519444"}, {"lat": "30.65", "city": "Al `Adl", "lon": "30.1161111"}, {"lat": "31.1380556", "city": "Al `Akrishah", "lon": "30.1780556"}, {"lat": "31.1772222", "city": "Al `Ali", "lon": "30.1852778"}, {"lat": "30.8816667", "city": "Al `Allamiyah", "lon": "30.4858333"}, {"lat": "30.7347222", "city": "Al Amal", "lon": "30.075"}, {"lat": "31.2088889", "city": "Al `Aqari al Bahriyah", "lon": "30.3966667"}, {"lat": "31.2333333", "city": "Al Arba` `Izab", "lon": "30.08"}, {"lat": "31.0494444", "city": "Al Ashrak", "lon": "30.595"}, {"lat": "31.04", "city": "Al Aslab", "lon": "30.6805556"}, {"lat": "30.8102778", "city": "Al `Awamir", "lon": "30.6608333"}, {"lat": "30.9661111", "city": "Al `Awja'", "lon": "30.5302778"}, {"lat": "31.115", "city": "Al Bahriyah", "lon": "30.4744444"}, {"lat": "30.7508333", "city": "Al Balakus", "lon": "30.7113889"}, {"lat": "30.9325", "city": "Al Barnuji", "lon": "30.3838889"}, {"lat": "30.9838889", "city": "Al Basatin", "lon": "30.4266667"}, {"lat": "31.0941667", "city": "Al Baslaqun", "lon": "30.1425"}, {"lat": "31.1616667", "city": "Al Bayda'", "lon": "30.0861111"}, {"lat": "30.9222222", "city": "Al Bihay", "lon": "30.5586111"}, {"lat": "31.3347222", "city": "Al Busayli", "lon": "30.4030556"}, {"lat": "30.9138889", "city": "Al Butah", "lon": "30.2816667"}, {"lat": "30.9680556", "city": "Al Faransawiyah", "lon": "30.2922222"}, {"lat": "31.3177778", "city": "Al Fathiyah", "lon": "30.4541667"}, {"lat": "31.1225", "city": "Al Ghabah", "lon": "30.2575"}, {"lat": "31.2986111", "city": "Al Ghabishah", "lon": "30.4719444"}, {"lat": "30.9419444", "city": "Al Ghayatah", "lon": "30.1083333"}, {"lat": "31.1169444", "city": "Al Habilah Abu Nusayr", "lon": "30.5725"}, {"lat": "30.7352778", "city": "Al Haddayn", "lon": "30.6325"}, {"lat": "30.8847222", "city": "Al Hajar al Mahruq", "lon": "30.5027778"}, {"lat": "31.2866667", "city": "Al Halawani", "lon": "30.2397222"}, {"lat": "31.3344444", "city": "Al Hammad", "lon": "30.4377778"}, {"lat": "31.3386111", "city": "Al Hammad ash Sharqi", "lon": "30.4494444"}, {"lat": "30.9972222", "city": "Al Haris Raqm Sittah", "lon": "29.9497222"}, {"lat": "30.9852778", "city": "Al Haris Raqm Thalathah", "lon": "29.9311111"}, {"lat": "30.8697222", "city": "Al Hiwatah", "lon": "30.7022222"}, {"lat": "30.8808333", "city": "Al Hurriyah", "lon": "29.8486111"}, {"lat": "30.9477778", "city": "Al Huwayhi", "lon": "29.9208333"}, {"lat": "30.9544444", "city": "Al Ibrahimiyah", "lon": "30.5852778"}, {"lat": "31.0741667", "city": "Al Ibrinji", "lon": "30.6180556"}, {"lat": "31.0741667", "city": "Al Ibriqji", "lon": "30.6180556"}, {"lat": "31.0833333", "city": "Ali el-Gharb\u00eeya", "lon": "30.7"}, {"lat": "30.7388889", "city": "`Ali Ibn Abi Talib", "lon": "30.2513889"}, {"lat": "30.4", "city": "Al Ikhmas", "lon": "30.8333333"}, {"lat": "30.6888889", "city": "Al Imam al Ghazali", "lon": "30.375"}, {"lat": "30.7166667", "city": "Al Imam al Husayn", "lon": "30.3527778"}, {"lat": "30.6597222", "city": "Al Iman (T)", "lon": "30.7208333"}, {"lat": "30.9138889", "city": "Al `Iraq", "lon": "29.8036111"}, {"lat": "30.9441667", "city": "Al `Izbah al Bayda", "lon": "30.4261111"}, {"lat": "31.2880556", "city": "Al `Izbah al Bayda'", "lon": "30.4002778"}, {"lat": "31.2497222", "city": "Al `Izbah al Hamra'", "lon": "30.1391667"}, {"lat": "30.8844444", "city": "Al `Izbah al Jadidah", "lon": "30.5605556"}, {"lat": "30.9455556", "city": "Al `Izzah", "lon": "29.8525"}, {"lat": "30.6763889", "city": "Al Jabrawah", "lon": "30.7361111"}, {"lat": "31.2558333", "city": "Al Jamayilah", "lon": "30.7169444"}, {"lat": "31.0833333", "city": "Al Jaradat", "lon": "30.3166667"}, {"lat": "31.0122222", "city": "Al Jarayisah", "lon": "30.6538889"}, {"lat": "30.9430556", "city": "Al Jaza'ir", "lon": "29.8358333"}, {"lat": "31.3725", "city": "Al Jiddiyah", "lon": "30.4280556"}, {"lat": "31.0658333", "city": "Al Kafr al Jadid", "lon": "30.6377778"}, {"lat": "31.1897222", "city": "Al Kana'is", "lon": "30.2083333"}, {"lat": "31.1897222", "city": "Al Kanayis", "lon": "30.2083333"}, {"lat": "30.8991667", "city": "Al Kardud", "lon": "30.2433333"}, {"lat": "30.9913889", "city": "Al Karnak", "lon": "29.8302778"}, {"lat": "31.1366667", "city": "Al Karyun", "lon": "30.1905556"}, {"lat": "31.05", "city": "Al Kawm al Ahmar", "lon": "30.0833333"}, {"lat": "30.9583333", "city": "Al Kawm al Akhdar", "lon": "30.2833333"}, {"lat": "31.1944444", "city": "Al Khadrah", "lon": "30.0797222"}, {"lat": "30.8808333", "city": "Al Khaliliyah", "lon": "30.4633333"}, {"lat": "30.3833333", "city": "Al Khatatibah", "lon": "30.8333333"}, {"lat": "30.8313889", "city": "Al Khawalid", "lon": "30.7416667"}, {"lat": "30.6502778", "city": "Al Kifah", "lon": "30.5002778"}, {"lat": "30.6502778", "city": "Al-Kifah", "lon": "30.5002778"}, {"lat": "31.2669444", "city": "Al Labbani", "lon": "30.2022222"}, {"lat": "31.1697222", "city": "Al Lawiyah", "lon": "30.5958333"}, {"lat": "30.9116667", "city": "Al Mahdiyah", "lon": "30.0322222"}, {"lat": "31.1858333", "city": "Al Mahmudiyah", "lon": "30.5191667"}, {"lat": "31.215", "city": "Al Mahrusah", "lon": "30.1305556"}, {"lat": "30.9666667", "city": "Al Makha'id", "lon": "30.45"}, {"lat": "31.3166667", "city": "Al Malaqah Raqm 1", "lon": "30.4883333"}, {"lat": "31.3275", "city": "Al Malaqah Raqm 2", "lon": "30.48"}, {"lat": "31.0441667", "city": "Al Manashilah", "lon": "30.6338889"}, {"lat": "30.9575", "city": "Al Manshiyah al Ibrahimiyah", "lon": "30.4797222"}, {"lat": "30.9311111", "city": "Al Manshiyah as Sughra", "lon": "30.1736111"}, {"lat": "30.6708333", "city": "Al Marwah", "lon": "29.9166667"}, {"lat": "30.9772222", "city": "Al Misayri Raqm Ithnayn", "lon": "29.9647222"}, {"lat": "30.9822222", "city": "Al Misayri Raqm Wahid", "lon": "29.9763889"}, {"lat": "30.9091667", "city": "Al Misin", "lon": "30.5169444"}, {"lat": "31.2694444", "city": "Al Mu`addiyah", "lon": "30.1666667"}, {"lat": "31.0236111", "city": "Al Mu`aysirah", "lon": "30.7083333"}, {"lat": "30.5138889", "city": "Al Mu'minin", "lon": "30.3825"}, {"lat": "30.9463889", "city": "Al Muthallath", "lon": "29.8891667"}, {"lat": "30.905", "city": "Al Qahir", "lon": "29.8705556"}, {"lat": "30.7536111", "city": "Al Qalawat", "lon": "30.6338889"}, {"lat": "30.5511111", "city": "`Alqam", "lon": "30.8102778"}, {"lat": "31.0833333", "city": "Al Qarawi", "lon": "30.35"}, {"lat": "30.9", "city": "Al Qarinayn", "lon": "30.2666667"}, {"lat": "30.7766667", "city": "Al Qaryah", "lon": "30.1769444"}, {"lat": "31.1480556", "city": "Al Qaryah ar Rabi`ah ar Ra'isiyah", "lon": "29.9972222"}, {"lat": "31.2138889", "city": "Al Qasr al Akhdar", "lon": "30.0741667"}, {"lat": "31.0525", "city": "Al Quhuqiyah", "lon": "30.5922222"}, {"lat": "31.1055556", "city": "Al Rahmaniyah", "lon": "30.6427778"}, {"lat": "31.3175", "city": "Al `Uqlah al Bahriyah", "lon": "30.7475"}, {"lat": "30.8444444", "city": "Al `Uyun", "lon": "30.6266667"}, {"lat": "30.7652778", "city": "Al Wafa'", "lon": "29.8922222"}, {"lat": "30.7655556", "city": "Al Wafa'iyah", "lon": "30.5925"}, {"lat": "31.1166667", "city": "Al Wastaniyah", "lon": "30.1166667"}, {"lat": "30.5825", "city": "Al Wihdah", "lon": "30.0694444"}, {"lat": "30.6277778", "city": "Al Wisam", "lon": "29.9680556"}, {"lat": "30.95", "city": "Al Yasiniyah", "lon": "30.0666667"}, {"lat": "30.8127778", "city": "Al Yusufiyah", "lon": "30.5708333"}, {"lat": "30.7836111", "city": "An Naqidi", "lon": "30.7041667"}, {"lat": "31.1505556", "city": "An Nashw al Bahri", "lon": "30.1680556"}, {"lat": "30.9188889", "city": "An Nasir", "lon": "29.9491667"}, {"lat": "30.8913889", "city": "An Niqrash", "lon": "30.6116667"}, {"lat": "30.6638889", "city": "An Nubariyah", "lon": "30.075"}, {"lat": "30.9038889", "city": "An Nubayrah", "lon": "30.5905556"}, {"lat": "30.73", "city": "An Nujaylah", "lon": "30.7747222"}, {"lat": "30.9005556", "city": "An Nujayli wa Awlad ash Shaykh", "lon": "30.2283333"}, {"lat": "30.7055556", "city": "An Nur", "lon": "30.1497222"}, {"lat": "31.0897222", "city": "`Arab Kawm al Birkah", "lon": "30.0888889"}, {"lat": "31.0897222", "city": "`Arab K\u00f4m el-Birka", "lon": "30.0888889"}, {"lat": "30.9383333", "city": "Arm\u00e2n\u00eeya", "lon": "30.7022222"}, {"lat": "30.9383333", "city": "Armaniyah", "lon": "30.7022222"}, {"lat": "31.1055556", "city": "Ar Rahmaniyah", "lon": "30.6427778"}, {"lat": "31.1055556", "city": "Ar Rahmaniyyah", "lon": "30.6427778"}, {"lat": "31.0261111", "city": "Ar Rajayibah", "lon": "30.6930556"}, {"lat": "30.7761111", "city": "`Arraqat Hamid", "lon": "30.4227778"}, {"lat": "30.9530556", "city": "Ar Rawaqah", "lon": "30.5394444"}, {"lat": "30.9669444", "city": "Ar Ridan", "lon": "30.7311111"}, {"lat": "30.9375", "city": "Ar Rizimat", "lon": "30.2419444"}, {"lat": "30.9594444", "city": "Ar Rubdan", "lon": "30.7175"}, {"lat": "31.085", "city": "As`ad", "lon": "30.6905556"}, {"lat": "30.6", "city": "Ash Shahamah", "lon": "30.0194444"}, {"lat": "30.7055556", "city": "Ash Shahid `Abd al Mun`im Riyad", "lon": "30.3083333"}, {"lat": "30.6972222", "city": "Ash Shahid Ahmad Badawi", "lon": "30.0291667"}, {"lat": "30.7055556", "city": "Ash Shahid Muhammad `Azzam", "lon": "30.0083333"}, {"lat": "30.5916667", "city": "Ash Shaja`ah", "lon": "30.6169444"}, {"lat": "31.3313889", "city": "Ash Shamasimah", "lon": "30.4572222"}, {"lat": "30.7194444", "city": "Ash Sha`rawi", "lon": "30.2505556"}, {"lat": "30.9891667", "city": "Ash Shawkah", "lon": "30.4336111"}, {"lat": "30.6972222", "city": "Ash Shi`sha`i", "lon": "30.2319444"}, {"lat": "30.8472222", "city": "Ash Shu`ayrah", "lon": "30.7294444"}, {"lat": "30.8472222", "city": "Ash Shu`ayyirah", "lon": "30.7294444"}, {"lat": "30.9416667", "city": "Asm\u00e2n\u00eeya", "lon": "30.7125"}, {"lat": "30.9416667", "city": "Asmaniyah", "lon": "30.7125"}, {"lat": "31.0122222", "city": "As Safasif", "lon": "30.3891667"}, {"lat": "31.0233333", "city": "As Sakhrah", "lon": "30.3383333"}, {"lat": "31.1333333", "city": "As Sa`raniyah", "lon": "30.1333333"}, {"lat": "30.8766667", "city": "As Sawalim al Bahriyah", "lon": "30.7405556"}, {"lat": "30.8727778", "city": "As Sawalim al Qibliyah", "lon": "30.7430556"}, {"lat": "30.6905556", "city": "As Sawwaf", "lon": "30.7777778"}, {"lat": "30.6902778", "city": "As Sayyad", "lon": "30.6319444"}, {"lat": "31.0361111", "city": "As Sihma", "lon": "30.59"}, {"lat": "30.9316667", "city": "Atlamas", "lon": "30.5052778"}, {"lat": "30.9316667", "city": "Atlamis", "lon": "30.5052778"}, {"lat": "30.5972222", "city": "At Tabarani", "lon": "30.0161111"}, {"lat": "30.6361111", "city": "At Tadamun", "lon": "29.9180556"}, {"lat": "30.4333333", "city": "At Tarranah", "lon": "30.8333333"}, {"lat": "30.7911111", "city": "At Tawd", "lon": "30.6186111"}, {"lat": "30.8166667", "city": "At Tawfiqiyah", "lon": "30.7430556"}, {"lat": "30.6422222", "city": "At Tayriyah", "lon": "30.775"}, {"lat": "30.7911111", "city": "At Tud", "lon": "30.6186111"}, {"lat": "31.0552778", "city": "Aul\u00e2d `\u00cesa", "lon": "30.22"}, {"lat": "31.1291667", "city": "`Azbat as Sirah", "lon": "30.1983333"}, {"lat": "31.2025", "city": "`Azbat Nubar Pasha", "lon": "30.0269444"}, {"lat": "30.6994444", "city": "Az Za`farani", "lon": "30.6930556"}, {"lat": "30.575", "city": "Badr", "lon": "30.7111111"}, {"lat": "31.0736111", "city": "Balaqtar al Gharbiyah", "lon": "30.1958333"}, {"lat": "31.0763889", "city": "Balaqtar", "lon": "30.2122222"}, {"lat": "31.0736111", "city": "Balaqtar el-Gharbiya", "lon": "30.1958333"}, {"lat": "31.1833333", "city": "Balba`", "lon": "30.1677778"}, {"lat": "31.0333333", "city": "Bandar Damanhur", "lon": "30.4666667"}, {"lat": "30.9713889", "city": "Banul", "lon": "30.7077778"}, {"lat": "31.1166667", "city": "Bardala", "lon": "30.15"}, {"lat": "31.1166667", "city": "Bardalah", "lon": "30.15"}, {"lat": "30.7636111", "city": "Barrim", "lon": "30.7136111"}, {"lat": "31.11", "city": "Bars\u00eeq", "lon": "30.3363889"}, {"lat": "31.0833333", "city": "Bastara", "lon": "30.4166667"}, {"lat": "31.0833333", "city": "Bastarah", "lon": "30.4166667"}, {"lat": "31.1616667", "city": "Beida", "lon": "30.0861111"}, {"lat": "30.7758333", "city": "Biban", "lon": "30.6727778"}, {"lat": "30.3666667", "city": "B\u00eer Hooker", "lon": "30.35"}, {"lat": "30.3666667", "city": "Bi'r Hukir", "lon": "30.35"}, {"lat": "31.1219444", "city": "Birkat Ghitas", "lon": "30.2663889"}, {"lat": "31.1219444", "city": "Birket Ghattas", "lon": "30.2663889"}, {"lat": "31.1219444", "city": "Birket Ghitas", "lon": "30.2663889"}, {"lat": "30.9022222", "city": "Birq\u00e2ma", "lon": "30.6413889"}, {"lat": "30.9022222", "city": "Birqamah", "lon": "30.6413889"}, {"lat": "31.1216667", "city": "Bisint\u00e2w\u00e2i", "lon": "30.3758333"}, {"lat": "31.1216667", "city": "Bisintaway", "lon": "30.3758333"}, {"lat": "31.4044444", "city": "Bolbitine", "lon": "30.4163889"}, {"lat": "31.2355556", "city": "Buldu", "lon": "30.1152778"}, {"lat": "30.7352778", "city": "B\u00fblein", "lon": "30.7005556"}, {"lat": "30.7352778", "city": "Bulin", "lon": "30.7005556"}, {"lat": "30.9777778", "city": "Buturis", "lon": "30.2283333"}, {"lat": "31.0969444", "city": "Buwayt", "lon": "30.5325"}, {"lat": "31.0969444", "city": "Buweit", "lon": "30.5325"}, {"lat": "31.2766667", "city": "Dabbun al Khawajah", "lon": "30.4061111"}, {"lat": "31.2822222", "city": "Dabbun al Malik", "lon": "30.4097222"}, {"lat": "31.2252778", "city": "Dairut", "lon": "30.5055556"}, {"lat": "31.0333333", "city": "Damanhour", "lon": "30.4666667"}, {"lat": "31.0333333", "city": "Damanh\u00fbr", "lon": "30.4666667"}, {"lat": "30.7891667", "city": "Damatyuh", "lon": "30.7255556"}, {"lat": "30.8558333", "city": "Daqd\u00fbqa", "lon": "30.6175"}, {"lat": "30.8558333", "city": "Daqduqah", "lon": "30.6175"}, {"lat": "30.7244444", "city": "Dast al Ashraf", "lon": "30.6527778"}, {"lat": "31.0341667", "city": "Dayr Ams", "lon": "30.3225"}, {"lat": "31.2252778", "city": "Dayrut", "lon": "30.5055556"}, {"lat": "31.0341667", "city": "Deir Ams", "lon": "30.3225"}, {"lat": "30.8280556", "city": "Delingat", "lon": "30.5341667"}, {"lat": "30.9647222", "city": "Denshal", "lon": "30.5291667"}, {"lat": "31.1", "city": "Desunes el Halfaia", "lon": "30.25"}, {"lat": "31.3166667", "city": "Dibi", "lon": "30.5080556"}, {"lat": "31.2077778", "city": "Difshu", "lon": "30.1136111"}, {"lat": "30.5230556", "city": "Dimischl", "lon": "30.8366667"}, {"lat": "30.5230556", "city": "Dimishli", "lon": "30.8366667"}, {"lat": "31.1", "city": "Dimisina", "lon": "30.35"}, {"lat": "30.9013889", "city": "Dimisinah", "lon": "30.7358333"}, {"lat": "30.9013889", "city": "Dim\u00eesna", "lon": "30.7358333"}, {"lat": "30.9647222", "city": "Dinshal", "lon": "30.5291667"}, {"lat": "31.1375", "city": "Dirsh\u00e2ba", "lon": "30.6177778"}, {"lat": "31.1375", "city": "Dirshabah", "lon": "30.6177778"}, {"lat": "30.7916667", "city": "Dirsh\u00e2i", "lon": "30.5430556"}, {"lat": "30.7916667", "city": "Dirshay", "lon": "30.5430556"}, {"lat": "30.7244444", "city": "Dist el-Ashr\u00e2f", "lon": "30.6527778"}, {"lat": "31.1", "city": "Disuni el Halfaya", "lon": "30.25"}, {"lat": "31.1", "city": "Disunis al Halfayah", "lon": "30.25"}, {"lat": "31.1", "city": "Disunis", "lon": "30.25"}, {"lat": "31.1", "city": "Disunis el-Halfaya", "lon": "30.25"}, {"lat": "30.9986111", "city": "Disunis Umm Dinar", "lon": "30.5041667"}, {"lat": "31.1475", "city": "Disya al Kana'is", "lon": "30.5605556"}, {"lat": "31.1475", "city": "Disya el-Kan\u00e2yis", "lon": "30.5605556"}, {"lat": "30.8522222", "city": "Ed-Dahriya", "lon": "30.7658333"}, {"lat": "30.8280556", "city": "Ed Dilingat", "lon": "30.5341667"}, {"lat": "31.2936111", "city": "Edfina", "lon": "30.5125"}, {"lat": "31.3055556", "city": "Edkou", "lon": "30.2991667"}, {"lat": "30.8761111", "city": "El-Abqa`ein", "lon": "30.3519444"}, {"lat": "31.0741667", "city": "El-Abr\u00eeqgi", "lon": "30.6180556"}, {"lat": "30.65", "city": "El- `Adl", "lon": "30.1161111"}, {"lat": "31.1380556", "city": "El-`Akr\u00eesha", "lon": "30.1780556"}, {"lat": "31.1772222", "city": "El-`\u00c2li", "lon": "30.1852778"}, {"lat": "30.8816667", "city": "El-`All\u00e2m\u00eeya", "lon": "30.4858333"}, {"lat": "30.7347222", "city": "El-Amal", "lon": "30.075"}, {"lat": "31.0494444", "city": "El-Ashr\u00e2k", "lon": "30.595"}, {"lat": "31.04", "city": "El-Aslab", "lon": "30.6805556"}, {"lat": "30.9661111", "city": "El-`Awaga", "lon": "30.5302778"}, {"lat": "30.8102778", "city": "El-`Aw\u00e2mir", "lon": "30.6608333"}, {"lat": "30.915", "city": "El `Aw\u00e2na", "lon": "30.7358333"}, {"lat": "31.115", "city": "El Bahariya", "lon": "30.4744444"}, {"lat": "30.7508333", "city": "El-Bal\u00e2k\u00fbs", "lon": "30.7113889"}, {"lat": "30.9325", "city": "El-Barn\u00fbgi", "lon": "30.3838889"}, {"lat": "30.8866667", "city": "El Bar\u00fbd", "lon": "30.665"}, {"lat": "30.9838889", "city": "El-Bas\u00e2t\u00een", "lon": "30.4266667"}, {"lat": "31.0941667", "city": "El-Baslaq\u00fbn", "lon": "30.1425"}, {"lat": "31.1616667", "city": "El-Beida", "lon": "30.0861111"}, {"lat": "30.9222222", "city": "El-Bihai", "lon": "30.5586111"}, {"lat": "30.9138889", "city": "El-Buta", "lon": "30.2816667"}, {"lat": "30.8522222", "city": "El-Dahriya", "lon": "30.7658333"}, {"lat": "30.95", "city": "El-Daramall\u00eeya", "lon": "30.5666667"}, {"lat": "31.0833333", "city": "El Dar\u00e2w\u00eeya", "lon": "30.3166667"}, {"lat": "31.0686111", "city": "El Dauwer", "lon": "30.0866667"}, {"lat": "30.8280556", "city": "El-Diling\u00e2t", "lon": "30.5341667"}, {"lat": "31.2497222", "city": "El- `Ezba el- Hamra", "lon": "30.1391667"}, {"lat": "31.2675", "city": "El-F\u00e2'iza", "lon": "30.4805556"}, {"lat": "31.3177778", "city": "El- Fat-hiya", "lon": "30.4541667"}, {"lat": "31.0833333", "city": "El-Gar\u00e2d\u00e2t", "lon": "30.3166667"}, {"lat": "31.2669444", "city": "El Gaz\u00e2yir Fort", "lon": "30.2022222"}, {"lat": "31.1225", "city": "El-Gh\u00e2ba", "lon": "30.2575"}, {"lat": "30.9419444", "city": "El-Ghayata", "lon": "30.1083333"}, {"lat": "31.3725", "city": "El-Gidd\u00eeya", "lon": "30.4280556"}, {"lat": "30.7352778", "city": "El-Haddein", "lon": "30.6325"}, {"lat": "30.8847222", "city": "El Hagar el Mahbruk", "lon": "30.5027778"}, {"lat": "30.8847222", "city": "El-Hagar el-Mahruq", "lon": "30.5027778"}, {"lat": "31.3344444", "city": "El-Hammad", "lon": "30.4377778"}, {"lat": "30.8697222", "city": "El-Hawata", "lon": "30.7022222"}, {"lat": "30.9544444", "city": "El-Ibr\u00e2h\u00eem\u00eeya", "lon": "30.5852778"}, {"lat": "30.4", "city": "El-Ikhm\u00e2s", "lon": "30.8333333"}, {"lat": "30.6888889", "city": "El-Im\u00e2m el-Ghaz\u00e2li", "lon": "30.375"}, {"lat": "30.7166667", "city": "El-Imam el-Husein", "lon": "30.3527778"}, {"lat": "31.0658333", "city": "El-Kafr el-Ged\u00eed", "lon": "30.6377778"}, {"lat": "31.1897222", "city": "El-Kan\u00e2yis", "lon": "30.2083333"}, {"lat": "30.8991667", "city": "El-Kard\u00fbd", "lon": "30.2433333"}, {"lat": "31.1366667", "city": "El-Kary\u00fbn", "lon": "30.1905556"}, {"lat": "30.8808333", "city": "El-Khal\u00eel\u00eeya", "lon": "30.4633333"}, {"lat": "30.3833333", "city": "El Khatatba", "lon": "30.8333333"}, {"lat": "30.8313889", "city": "El-Khaw\u00e2lid", "lon": "30.7416667"}, {"lat": "30.6502778", "city": "El-Kifah", "lon": "30.5002778"}, {"lat": "30.9583333", "city": "El-Kom el-Akhdar", "lon": "30.2833333"}, {"lat": "31.2669444", "city": "El-Labb\u00e2n", "lon": "30.2022222"}, {"lat": "31.1697222", "city": "El-Liw\u00eeya", "lon": "30.5958333"}, {"lat": "31.2694444", "city": "El-Ma`add\u00eeya", "lon": "30.1666667"}, {"lat": "31.2694444", "city": "El Ma`ad\u00eeyeh", "lon": "30.1666667"}, {"lat": "30.9116667", "city": "El-Mahd\u00eeya", "lon": "30.0322222"}, {"lat": "31.1858333", "city": "El-Mahmudiya", "lon": "30.5191667"}, {"lat": "30.9666667", "city": "El-Makh\u00e2yid", "lon": "30.45"}, {"lat": "31.0441667", "city": "El-Man\u00e2shla", "lon": "30.6338889"}, {"lat": "30.9575", "city": "El-Mansh\u00eeya el-Ibr\u00e2h\u00eem\u00eeya", "lon": "30.4797222"}, {"lat": "30.9575", "city": "El-Mansh\u00eeya", "lon": "30.4797222"}, {"lat": "31.1575", "city": "El-Masani`", "lon": "30.1180556"}, {"lat": "31.2694444", "city": "El-Mi`add\u00eeya", "lon": "30.1666667"}, {"lat": "31.2694444", "city": "El Miadieh", "lon": "30.1666667"}, {"lat": "31.0236111", "city": "El-Mi`eisra", "lon": "30.7083333"}, {"lat": "30.9091667", "city": "El-Mis\u00een", "lon": "30.5169444"}, {"lat": "30.5138889", "city": "El-Mu'minin", "lon": "30.3825"}, {"lat": "31.1488889", "city": "El-Nakhla el-Bahariya", "lon": "30.3597222"}, {"lat": "30.7836111", "city": "El-Naq\u00eedi", "lon": "30.7041667"}, {"lat": "31.1505556", "city": "El-Nashw el-Bahari", "lon": "30.1680556"}, {"lat": "31.1505556", "city": "El-Nashw el-Bahri", "lon": "30.1680556"}, {"lat": "30.9038889", "city": "El-Nibeira", "lon": "30.5905556"}, {"lat": "30.73", "city": "El-Nigeila", "lon": "30.7747222"}, {"lat": "30.9005556", "city": "El-Nig\u00eeli and Aul\u00e2d el-Sheikh", "lon": "30.2283333"}, {"lat": "30.8913889", "city": "El-Niqr\u00e2sh", "lon": "30.6116667"}, {"lat": "30.8444444", "city": "El-`Oy\u00fbn", "lon": "30.6266667"}, {"lat": "30.7536111", "city": "El-Qal\u00e2w\u00e2t", "lon": "30.6338889"}, {"lat": "31.0705556", "city": "El-Qarawi", "lon": "30.4061111"}, {"lat": "31.0833333", "city": "El Qarawi", "lon": "30.35"}, {"lat": "30.9", "city": "El-Qar\u00eenein", "lon": "30.2666667"}, {"lat": "30.8766667", "city": "El-Qarya el-Ged\u00eeda", "lon": "30.0958333"}, {"lat": "31.2138889", "city": "El-Qasr el-Akhdar", "lon": "30.0741667"}, {"lat": "31.0525", "city": "El-Quh\u00fbq\u00eeya", "lon": "30.5922222"}, {"lat": "31.1055556", "city": "El-Rahmaniya", "lon": "30.6427778"}, {"lat": "30.9530556", "city": "El-Rawaqa", "lon": "30.5394444"}, {"lat": "30.9594444", "city": "El-Rubd\u00e2n", "lon": "30.7175"}, {"lat": "31.0122222", "city": "El-Safasif", "lon": "30.3891667"}, {"lat": "31.0233333", "city": "El-Sakhra", "lon": "30.3383333"}, {"lat": "31.1333333", "city": "El-Sa`r\u00e2n\u00eeya", "lon": "30.1333333"}, {"lat": "30.6905556", "city": "El-Sauwaf", "lon": "30.7777778"}, {"lat": "30.8766667", "city": "El-Sawalim el-Bahariya", "lon": "30.7405556"}, {"lat": "30.8727778", "city": "El-Saw\u00e2lim el-Qibl\u00eeya", "lon": "30.7430556"}, {"lat": "30.6", "city": "El-Shah\u00e2ma", "lon": "30.0194444"}, {"lat": "30.7055556", "city": "El-Shahid `Abd el-Mun`im Riyad", "lon": "30.3083333"}, {"lat": "30.6972222", "city": "El-Shahid Ahmad Badawi", "lon": "30.0291667"}, {"lat": "31.3313889", "city": "El-Sham\u00e2sma", "lon": "30.4572222"}, {"lat": "30.7194444", "city": "El-Shar\u00e2wi", "lon": "30.2505556"}, {"lat": "30.75", "city": "El-Sheikh Muhammad Rif`at", "lon": "30.3333333"}, {"lat": "30.8472222", "city": "El-Shi`\u00eera", "lon": "30.7294444"}, {"lat": "30.6972222", "city": "El-Shi`sh\u00e2`i", "lon": "30.2319444"}, {"lat": "30.9891667", "city": "El-Sh\u00f4ka", "lon": "30.4336111"}, {"lat": "30.8472222", "city": "El-Shu`aiyara", "lon": "30.7294444"}, {"lat": "30.4333333", "city": "El-Tarrana", "lon": "30.8333333"}, {"lat": "30.8166667", "city": "El-Tauf\u00eeq\u00eeya", "lon": "30.7430556"}, {"lat": "30.6422222", "city": "El-Teiriya", "lon": "30.775"}, {"lat": "30.7911111", "city": "El-Tud", "lon": "30.6186111"}, {"lat": "30.8444444", "city": "El-`Uy\u00fbn", "lon": "30.6266667"}, {"lat": "30.7655556", "city": "El Waf\u00e2'iya", "lon": "30.5925"}, {"lat": "30.7655556", "city": "El-Waf\u00e2'\u00eeya", "lon": "30.5925"}, {"lat": "31.1166667", "city": "El-Wastaniya", "lon": "30.1166667"}, {"lat": "30.9419444", "city": "`Elwet Gayata", "lon": "30.1083333"}, {"lat": "30.5825", "city": "El-Wihda", "lon": "30.0694444"}, {"lat": "30.7655556", "city": "El Yahudiya", "lon": "30.5925"}, {"lat": "30.95", "city": "El-Y\u00e2s\u00een\u00eeya", "lon": "30.0666667"}, {"lat": "30.8127778", "city": "El-Y\u00fbsef\u00eeya", "lon": "30.5708333"}, {"lat": "30.6994444", "city": "El-Za`far\u00e2ni", "lon": "30.6930556"}, {"lat": "30.7836111", "city": "En-Naq\u00eedi", "lon": "30.7041667"}, {"lat": "31.1505556", "city": "En-Nashw el-Bahari", "lon": "30.1680556"}, {"lat": "30.9038889", "city": "En-Nibeira", "lon": "30.5905556"}, {"lat": "30.73", "city": "En-Nigeila", "lon": "30.7747222"}, {"lat": "30.8913889", "city": "En-Niqr\u00e2sh", "lon": "30.6116667"}, {"lat": "31.1055556", "city": "Er-Rahmaniya", "lon": "30.6427778"}, {"lat": "31.1055556", "city": "Er-Rahm\u00e2n\u00eeyeh", "lon": "30.6427778"}, {"lat": "31.4044444", "city": "Er-Rashid", "lon": "30.4163889"}, {"lat": "30.9891667", "city": "Esh-Sh\u00f4ka", "lon": "30.4336111"}, {"lat": "30.8472222", "city": "Esh-Shu`aiyara", "lon": "30.7294444"}, {"lat": "31.1333333", "city": "Es-Sa`r\u00e2n\u00eeya", "lon": "30.1333333"}, {"lat": "30.6422222", "city": "Et Teiriya", "lon": "30.775"}, {"lat": "30.7911111", "city": "Et Tod", "lon": "30.6186111"}, {"lat": "31.1608333", "city": "`Ezab Bisint\u00e2w\u00e2i", "lon": "30.4622222"}, {"lat": "31.0897222", "city": "`Ezab K\u00f4m el Birka", "lon": "30.0888889"}, {"lat": "30.7983333", "city": "`Ezbet `Abdalla `Ezzat", "lon": "30.5194444"}, {"lat": "31.1333333", "city": "`Ezbet `Abdalla Zeid", "lon": "30.25"}, {"lat": "31.1586111", "city": "`Ezbet `Abd el-`Aziz Bey Makhy\u00fbn", "lon": "30.2544444"}, {"lat": "31.1166667", "city": "`Ezbet `Abd el-Hamid Shiha", "lon": "30.2666667"}, {"lat": "31.1533333", "city": "`Ezbet `Abd el-Q\u00e2dir", "lon": "30.2752778"}, {"lat": "31.0833333", "city": "`Ezbet `Abdu Pasha", "lon": "30.15"}, {"lat": "31.0666667", "city": "`Ezbet Abu el-D\u00fbd", "lon": "30.3666667"}, {"lat": "30.9", "city": "`Ezbet Abu Keifu", "lon": "30.0166667"}, {"lat": "30.9544444", "city": "`Ezbet Abu Khatib", "lon": "30.0230556"}, {"lat": "30.9777778", "city": "Ezbet Abu M\u00e2di", "lon": "30.2283333"}, {"lat": "31.0833333", "city": "`Ezbet Abu Ma`t\u00fbq", "lon": "30.15"}, {"lat": "31.1", "city": "`Ezbet Abu Mid\u00e2wi", "lon": "30.0833333"}, {"lat": "31.0333333", "city": "`Ezbet Abu Tahun", "lon": "30.2666667"}, {"lat": "30.7744444", "city": "`Ezbet Abu Zeid", "lon": "30.4616667"}, {"lat": "31.2808333", "city": "`Ezbet Ahmad Abu Rukah", "lon": "30.4147222"}, {"lat": "31.2333333", "city": "`Ezbet Ahmad Rashid", "lon": "30.5"}, {"lat": "31.15", "city": "`Ezbet Ahmad Tu`eima", "lon": "30.25"}, {"lat": "31.0833333", "city": "`Ezbet `Ali `Abd el-Magid Shab\u00e2t", "lon": "30.25"}, {"lat": "31.0602778", "city": "`Ezbet `Ali Basy\u00fbni", "lon": "30.0683333"}, {"lat": "31.0602778", "city": "`Ezbet `Ali Bey Basy\u00fbni", "lon": "30.0683333"}, {"lat": "30.8466667", "city": "`Ezbet `Al\u00ee Fahm\u00ee", "lon": "30.5261111"}, {"lat": "31.1666667", "city": "`Ezbet `Ali Pasha", "lon": "30.1333333"}, {"lat": "30.9330556", "city": "`Ezbet Am\u00een M\u00fbsa", "lon": "30.1391667"}, {"lat": "31.0280556", "city": "`Ezbet `Awad Ibrahim", "lon": "30.3055556"}, {"lat": "31.1", "city": "`Ezbet Azz\u00e2z", "lon": "30.3"}, {"lat": "31.1241667", "city": "`Ezbet Bahari", "lon": "30.3241667"}, {"lat": "31.0833333", "city": "`Ezbet Balba`", "lon": "30.4333333"}, {"lat": "31.1427778", "city": "`Ezbet Biltagi Shalabi", "lon": "30.3266667"}, {"lat": "30.3294444", "city": "`Ezbet Bint Sal\u00e2ma", "lon": "30.4172222"}, {"lat": "31.2355556", "city": "`Ezbet Boldo", "lon": "30.1152778"}, {"lat": "31.185", "city": "`Ezbet B\u00f4l", "lon": "30.1166667"}, {"lat": "31.0702778", "city": "`Ezbet B\u00fbl\u00e2d", "lon": "30.0758333"}, {"lat": "31.1861111", "city": "`Ezbet Dahr Sanad", "lon": "30.3677778"}, {"lat": "30.7613889", "city": "`Ezbet Deif Alla el-Lafi", "lon": "30.4705556"}, {"lat": "30.7836111", "city": "`Ezbet Deif Alla Sultan", "lon": "30.4008333"}, {"lat": "31.1963889", "city": "`Ezbet Deif", "lon": "30.0566667"}, {"lat": "30.4666667", "city": "`Ezbet Doctor Hannal Timbll", "lon": "30.8"}, {"lat": "30.9", "city": "`Ezbet Doctor Zeifal", "lon": "30.4833333"}, {"lat": "31.1838889", "city": "`Ezbet D\u00f4ma", "lon": "30.3355556"}, {"lat": "31.0686111", "city": "`Ezbet ed Dauwar", "lon": "30.0866667"}, {"lat": "31.3", "city": "`Ezbet el-Ab`adiya", "lon": "31.25"}, {"lat": "31.1725", "city": "`Ezbet el-`Ashara", "lon": "30.3669444"}, {"lat": "31.0666667", "city": "`Ezbet el-`Atash", "lon": "30.2166667"}, {"lat": "31.0241667", "city": "`Ezbet el-Atta", "lon": "30.2066667"}, {"lat": "31.1786111", "city": "`Ezbet el-B\u00fbs", "lon": "30.0275"}, {"lat": "31.3830556", "city": "`Ezbet el-Daq\u00e2yna", "lon": "30.4916667"}, {"lat": "30.8666667", "city": "`Ezbet el Dar\u00e2wsha", "lon": "30.5333333"}, {"lat": "31.1361111", "city": "`Ezbet el-Dasansa", "lon": "30.3486111"}, {"lat": "31.0686111", "city": "`Ezbet el-Dauw\u00e2r", "lon": "30.0866667"}, {"lat": "31.0686111", "city": "Ezbet el Dawar", "lon": "30.0866667"}, {"lat": "31.1166667", "city": "`Ezbet el Eswid", "lon": "30.2666667"}, {"lat": "31.1166667", "city": "`Ezbet el-Fakh\u00fbra", "lon": "30.2"}, {"lat": "31.4330556", "city": "`Ezbet el-Fazz", "lon": "30.3961111"}, {"lat": "31.3336111", "city": "`Ezbet el-Fou\u00e2d\u00eeya No. 3", "lon": "30.4108333"}, {"lat": "31.3180556", "city": "`Ezbet el-Fou\u00e2d\u00eeya No. 4", "lon": "30.3969444"}, {"lat": "30.7333333", "city": "`Ezbet el-Gab\u00e2bsa", "lon": "30.6166667"}, {"lat": "31.0477778", "city": "`Ezbet el-Gam\u00e2m\u00eeza", "lon": "30.4244444"}, {"lat": "30.8997222", "city": "`Ezbet el-Gamb\u00eehi", "lon": "30.4063889"}, {"lat": "30.9833333", "city": "`Ezbet el-Ganna", "lon": "30.1833333"}, {"lat": "31.35", "city": "`Ezbet el-Gaw\u00e2bir", "lon": "30.75"}, {"lat": "30.9833333", "city": "`Ezbet el-Ghal\u00e2ba", "lon": "30.4"}, {"lat": "31.1", "city": "`Ezbet el-Gurn", "lon": "30.3"}, {"lat": "31.025", "city": "`Ezbet el-Hamra", "lon": "30.2705556"}, {"lat": "31.0125", "city": "`Ezbet el-Hasawi", "lon": "30.3297222"}, {"lat": "31.0372222", "city": "`Ezbet el-Hirfa", "lon": "30.2675"}, {"lat": "31.0108333", "city": "`Ezbet Elie Aghion No. 1", "lon": "30.1925"}, {"lat": "31.2919444", "city": "`Ezbet el-Ism\u00e2`\u00eel\u00eeya No. 1", "lon": "30.4836111"}, {"lat": "30.8766667", "city": "`Ezbet el-Khabati", "lon": "30.3086111"}, {"lat": "31.1944444", "city": "`Ezbet el-Khadra", "lon": "30.0797222"}, {"lat": "31.1530556", "city": "`Ezbet el-Khams\u00een", "lon": "30.3830556"}, {"lat": "30.8666667", "city": "`Ezbet el-Khorsa", "lon": "30.6833333"}, {"lat": "31.0558333", "city": "`Ezbet el-Kom el-Ahmar", "lon": "30.3575"}, {"lat": "30.7613889", "city": "`Ezbet el-Laf Quddahi", "lon": "30.4705556"}, {"lat": "31.3975", "city": "`Ezbet el-Ma`add\u00eeya", "lon": "30.4333333"}, {"lat": "31.215", "city": "`Ezbet el- Mahrusa", "lon": "30.1305556"}, {"lat": "31.1044444", "city": "`Ezbet el-Malaqa", "lon": "30.21"}, {"lat": "31.2277778", "city": "`Ezbet el-Mansh\u00eeya", "lon": "30.1116667"}, {"lat": "31.255", "city": "`Ezbet el- Muft\u00e2h", "lon": "30.4125"}, {"lat": "30.8816667", "city": "`Ezbet el-Mugh\u00e2zi Pasha el-Sharq\u00eeya", "lon": "30.4858333"}, {"lat": "31.1627778", "city": "`Ezbet el-Nabar\u00e2w\u00eeya", "lon": "30.1877778"}, {"lat": "30.8666667", "city": "`Ezbet el-N\u00e2q\u00fbri", "lon": "30.65"}, {"lat": "30.9952778", "city": "`Ezbet el-Q\u00e2di Hafs", "lon": "30.3386111"}, {"lat": "31.1836111", "city": "`Ezbet el-Qasr el-Abyad", "lon": "30.0997222"}, {"lat": "30.8475", "city": "`Ezbet el-Qasr", "lon": "30.1825"}, {"lat": "31.0452778", "city": "`Ezbet el-Roda", "lon": "30.1708333"}, {"lat": "30.815", "city": "`Ezbet el-Rub`um\u00e2ya", "lon": "30.2616667"}, {"lat": "31.0833333", "city": "`Ezbet el-Sa`ayda", "lon": "30.25"}, {"lat": "31.2627778", "city": "`Ezbet el-Sa`da & `Ezbet el-Fut\u00fbh", "lon": "30.5811111"}, {"lat": "31.0591667", "city": "`Ezbet el-Saiyid Ism\u00e2`\u00eel", "lon": "30.0936111"}, {"lat": "31.3713889", "city": "`Ezbet el-Sakh\u00e2yna", "lon": "30.4980556"}, {"lat": "31.0166667", "city": "`Ezbet el-Shagara", "lon": "30.2833333"}, {"lat": "30.9497222", "city": "`Ezbet el-Sharika el-Bilj\u00eek\u00eeya No. 19", "lon": "30.185"}, {"lat": "30.8686111", "city": "`Ezbet el-Sharika el-Bilj\u00eekya No. 10", "lon": "30.2108333"}, {"lat": "30.8438889", "city": "`Ezbet el-Sharika el-Misriya", "lon": "30.2233333"}, {"lat": "30.9183333", "city": "`Ezbet el-Sharika `elwel-Bilj\u00eek\u00eeya", "lon": "30.2302778"}, {"lat": "31.1291667", "city": "`Ezbet el-Sira", "lon": "30.1983333"}, {"lat": "30.8269444", "city": "`Ezbet el-Suttuh\u00e2ya", "lon": "30.2472222"}, {"lat": "30.8269444", "city": "`Ezbet el-Suttum\u00e2ya", "lon": "30.2472222"}, {"lat": "30.9069444", "city": "`Ezbet el-T\u00e2`ib G\u00e2li", "lon": "30.4547222"}, {"lat": "31.3513889", "city": "`Ezbet el-Tawil", "lon": "30.4680556"}, {"lat": "31.0666667", "city": "`Ezbet el Tuw\u00e2la", "lon": "30.2666667"}, {"lat": "30.8788889", "city": "`Ezbet `Elw\u00e2ni", "lon": "30.4375"}, {"lat": "31.2030556", "city": "`Ezbet el- Zaghayba", "lon": "30.3222222"}, {"lat": "31.1233333", "city": "`Ezbet el-Zirba", "lon": "30.15"}, {"lat": "31.1919444", "city": "`Ezbet Farag Atiya", "lon": "30.0855556"}, {"lat": "31.08", "city": "`Ezbet F\u00e2rid B\u00e2n\u00fbb", "lon": "30.1033333"}, {"lat": "31.0138889", "city": "`Ezbet Fatma Ilyas", "lon": "30.4225"}, {"lat": "30.8397222", "city": "`Ezbet Foda", "lon": "30.4844444"}, {"lat": "31.1497222", "city": "`Ezbet Gaballa Zeid", "lon": "30.2438889"}, {"lat": "30.9263889", "city": "`Ezbet Ghar\u00eeb", "lon": "30.2083333"}, {"lat": "30.8766667", "city": "`Ezbet Gianaclis", "lon": "30.0958333"}, {"lat": "31.1794444", "city": "`Ezbet Haggag", "lon": "30.1547222"}, {"lat": "30.7630556", "city": "`Ezbet Hak\u00e2ra", "lon": "30.5369444"}, {"lat": "31.2358333", "city": "`Ezbet Hamad Abu Dumeih", "lon": "30.4130556"}, {"lat": "31.2358333", "city": "`Ezbet Hamad Abu Dumein", "lon": "30.4130556"}, {"lat": "31.1833333", "city": "`Ezbet Heiba Basyuni", "lon": "30.2166667"}, {"lat": "31.0669444", "city": "`Ezbet Hiteita", "lon": "30.2988889"}, {"lat": "31.2455556", "city": "`Ezbet Ibr\u00e2h\u00eem `Iry\u00e2n", "lon": "30.5622222"}, {"lat": "31.1333333", "city": "`Ezbet Ibrahim Muhammad Basyuni", "lon": "30.3166667"}, {"lat": "31.05", "city": "`Ezbet Imb\u00e2rka", "lon": "30.2"}, {"lat": "31.0677778", "city": "`Ezbet `Imr\u00e2n", "lon": "30.2816667"}, {"lat": "31.0213889", "city": "`Ezbet `Ishq H\u00e2nim", "lon": "30.4327778"}, {"lat": "30.9594444", "city": "`Ezbet Ism\u00e2`\u00eel Nauw\u00e2r", "lon": "30.385"}, {"lat": "31.0491667", "city": "`Ezbet Isma`il Sidqi", "lon": "30.0694444"}, {"lat": "31.0491667", "city": "`Ezbet Isma`il Sidqi Pasha", "lon": "30.0694444"}, {"lat": "30.365", "city": "`Ezbet Kafr D\u00e2w\u00fbd", "lon": "30.3641667"}, {"lat": "30.9594444", "city": "`Ezbet Kha\u00eeri Nauw\u00e2r", "lon": "30.385"}, {"lat": "30.9533333", "city": "`Ezbet Khaiyat", "lon": "30.3244444"}, {"lat": "31.285", "city": "`Ezbet Kh\u00e2lid Mar`i", "lon": "30.4633333"}, {"lat": "31.1966667", "city": "`Ezbet Khal\u00eefa", "lon": "30.0975"}, {"lat": "31.0502778", "city": "`Ezbet Kidwet el-Ban\u00e2t", "lon": "30.1911111"}, {"lat": "30.9388889", "city": "`Ezbet K\u00f4m Abu el-`Ida", "lon": "30.0830556"}, {"lat": "31.0166667", "city": "`Ezbet K\u00f4m Abu Ism\u00e2`\u00eel", "lon": "30.3166667"}, {"lat": "31.0186111", "city": "`Ezbet K\u00f4m Abu Khalifa", "lon": "30.3388889"}, {"lat": "31.1972222", "city": "`Ezbet K\u00f4m `Az\u00eeza", "lon": "30.3555556"}, {"lat": "31.1261111", "city": "`Ezbet K\u00f4m Bidd\u00e2n", "lon": "30.4611111"}, {"lat": "31.05", "city": "`Ezbet K\u00f4m el-Baqar", "lon": "30.1666667"}, {"lat": "31.0455556", "city": "`Ezbet Kom el-Basal", "lon": "30.3461111"}, {"lat": "31.0897222", "city": "`Ezbet K\u00f4m el-Birka", "lon": "30.0888889"}, {"lat": "30.9166667", "city": "`Ezbet K\u00f4m el-B\u00fbs", "lon": "30.2666667"}, {"lat": "31.1333333", "city": "`Ezbet K\u00f4m el-G\u00eeza", "lon": "30.1833333"}, {"lat": "31.2811111", "city": "`Ezbet K\u00f4m el-Kalakh", "lon": "30.2325"}, {"lat": "30.9686111", "city": "`Ezbet K\u00f4m el-Khirba", "lon": "30.2466667"}, {"lat": "31.0833333", "city": "`Ezbet K\u00f4m el-Nagra", "lon": "30.2"}, {"lat": "30.8988889", "city": "`Ezbet K\u00f4m el Nig\u00eeh", "lon": "30.2302778"}, {"lat": "30.8988889", "city": "`Ezbet K\u00f4m el-Nig\u00eeli", "lon": "30.2302778"}, {"lat": "31.18", "city": "`EzbetKom el-Noss", "lon": "30.2352778"}, {"lat": "31.18", "city": "`Ezbet K\u00f4m el-N\u00fbss", "lon": "30.2352778"}, {"lat": "30.9886111", "city": "`Ezbet Kom el-Qadah", "lon": "30.1738889"}, {"lat": "31.0433333", "city": "`Ezbet Kom el-Qanatir", "lon": "30.2841667"}, {"lat": "30.9958333", "city": "`Ezbet K\u00f4m el-Rizqa", "lon": "30.1963889"}, {"lat": "30.9886111", "city": "Ezbet K\u00f4m `elwet-Qadali", "lon": "30.1738889"}, {"lat": "31.05", "city": "`Ezbet Kom Farshut", "lon": "30.3"}, {"lat": "31.0069444", "city": "`Ezbet Kom Hasan", "lon": "30.2197222"}, {"lat": "31.1958333", "city": "`Ezbet K\u00f4m M\u00e2zin", "lon": "30.1613889"}, {"lat": "31.0033333", "city": "`Ezbet K\u00f4m Rizq", "lon": "30.3125"}, {"lat": "31.0666667", "city": "`Ezbet K\u00f4m Siheib", "lon": "30.3"}, {"lat": "30.9594444", "city": "`Ezbet K\u00f4m Tur\u00fbga", "lon": "30.1527778"}, {"lat": "30.9363889", "city": "`Ezbet Libda", "lon": "30.43"}, {"lat": "31.1", "city": "`Ezbet Lomb\u00e2rdo", "lon": "30.15"}, {"lat": "30.8347222", "city": "`Ezbet Lutaiyif", "lon": "30.4363889"}, {"lat": "31.1", "city": "`Ezbet Lutfi", "lon": "30.05"}, {"lat": "31.0833333", "city": "`Ezbet Mahattet Abu Hummus", "lon": "30.3166667"}, {"lat": "30.88", "city": "`Ezbet Mansur", "lon": "30.2713889"}, {"lat": "31.1", "city": "`Ezbet Mar'l", "lon": "30.0166667"}, {"lat": "30.8113889", "city": "`Ezbet Matr\u00fbd", "lon": "30.4666667"}, {"lat": "30.7372222", "city": "`Ezbet M\u00e2x Rino", "lon": "30.5569444"}, {"lat": "31.0588889", "city": "`Ezbet Mazl\u00fbm", "lon": "30.3236111"}, {"lat": "31.0588889", "city": "`Ezbet Mazl\u00fbm Pasha", "lon": "30.3236111"}, {"lat": "30.9561111", "city": "`Ezbet Mazyad", "lon": "30.4341667"}, {"lat": "31.1202778", "city": "`Ezbet Michel Hamawi", "lon": "30.1258333"}, {"lat": "31.2391667", "city": "`Ezbet Mihanni `Abd el-R\u00e2ziq", "lon": "30.4255556"}, {"lat": "31.065", "city": "`Ezbet Misa`id Balba`", "lon": "30.1322222"}, {"lat": "31.2769444", "city": "`Ezbet Misanna", "lon": "30.445"},