{"ET": {"48": [{"lat": "9.555556", "city": "Adiga", "lon": "41.773056"}, {"lat": "9.541944", "city": "Afretu", "lon": "41.988611"}, {"lat": "9.548611", "city": "Aroreyti", "lon": "41.915833"}, {"lat": "9.555833", "city": "Balaua", "lon": "41.983611"}, {"lat": "9.568056", "city": "Beke Halo", "lon": "41.974167"}, {"lat": "9.568889", "city": "Belewa", "lon": "42.135556"}, {"lat": "9.568889", "city": "Beloua", "lon": "42.135556"}, {"lat": "9.552778", "city": "Bira'i", "lon": "41.9625"}, {"lat": "9.593056", "city": "Daredawa", "lon": "41.866111"}, {"lat": "9.593056", "city": "Dirdab\u00f2", "lon": "41.866111"}, {"lat": "9.593056", "city": "Direaoua", "lon": "41.866111"}, {"lat": "9.593056", "city": "Dire Daba", "lon": "41.866111"}, {"lat": "9.593056", "city": "Dir\u00e9-Daoua", "lon": "41.866111"}, {"lat": "9.593056", "city": "D'ire Daua", "lon": "41.866111"}, {"lat": "9.593056", "city": "Dire Dawa", "lon": "41.866111"}, {"lat": "9.593056", "city": "Dire Dewa", "lon": "41.866111"}, {"lat": "9.593056", "city": "Dirediua", "lon": "41.866111"}, {"lat": "9.713889", "city": "Dzhel'dessa", "lon": "42.119722"}, {"lat": "9.587778", "city": "Felema", "lon": "41.781111"}, {"lat": "9.609167", "city": "Garegumgum", "lon": "41.996111"}, {"lat": "9.713889", "city": "Gildessa", "lon": "42.119722"}, {"lat": "9.545", "city": "Gololcha", "lon": "41.768056"}, {"lat": "9.563611", "city": "Halo Hula Yesuf", "lon": "41.789444"}, {"lat": "9.563611", "city": "Halo Hula Yesut", "lon": "41.789444"}, {"lat": "9.661389", "city": "Hidenu", "lon": "41.939167"}, {"lat": "9.62", "city": "Ido Dini", "lon": "42.048611"}, {"lat": "9.578889", "city": "Igo Hambro", "lon": "41.781944"}, {"lat": "9.6825", "city": "Ile Amen", "lon": "42.118056"}, {"lat": "9.713889", "city": "Jaldessa", "lon": "42.119722"}, {"lat": "9.713889", "city": "Jeldesa", "lon": "42.119722"}, {"lat": "9.539167", "city": "K'anch'era", "lon": "41.832778"}, {"lat": "9.539167", "city": "K'ench'era", "lon": "41.832778"}, {"lat": "9.630278", "city": "K'eraru", "lon": "41.981111"}, {"lat": "9.618889", "city": "Melka Jebdu", "lon": "41.784167"}, {"lat": "9.601389", "city": "Oboshe", "lon": "41.943056"}, {"lat": "9.570278", "city": "Ortu", "lon": "42.061667"}, {"lat": "9.557222", "city": "Oyite", "lon": "42.114722"}, {"lat": "9.6", "city": "Sabiyan", "lon": "41.846667"}, {"lat": "9.738611", "city": "Sala Asaleh", "lon": "42.131944"}, {"lat": "9.563333", "city": "Sedek'o", "lon": "41.766111"}, {"lat": "9.555833", "city": "Urgo", "lon": "41.983611"}, {"lat": "9.539444", "city": "Wach'u", "lon": "41.954722"}, {"lat": "9.547778", "city": "Ware Roble", "lon": "41.942778"}], "49": [{"lat": "7.516667", "city": "Abbacialti", "lon": "35.033333"}, {"lat": "7.55", "city": "Abilegn", "lon": "34.3"}, {"lat": "7.85", "city": "Abobo", "lon": "34.55"}, {"lat": "7.7", "city": "Abol", "lon": "34.1"}, {"lat": "8.183333", "city": "Acado", "lon": "34.35"}, {"lat": "7.55", "city": "Aciulla", "lon": "34.333333"}, {"lat": "7.666667", "city": "Aferwang", "lon": "33.75"}, {"lat": "7.616667", "city": "Agac", "lon": "33.85"}, {"lat": "7.633333", "city": "Agenga", "lon": "34.266667"}, {"lat": "7.9", "city": "Agiam", "lon": "34.733333"}, {"lat": "7.766667", "city": "Agiual", "lon": "33.933333"}, {"lat": "7.766667", "city": "Agiuual", "lon": "33.933333"}, {"lat": "7.766667", "city": "Agiuval", "lon": "33.933333"}, {"lat": "8.183333", "city": "Akedo", "lon": "34.35"}, {"lat": "7.816667", "city": "Akobo", "lon": "33.033333"}, {"lat": "7.333333", "city": "Alegari", "lon": "34.683333"}, {"lat": "8.25", "city": "Amoli", "lon": "34.483333"}, {"lat": "7.85", "city": "Anghela", "lon": "33.8"}, {"lat": "7.183333", "city": "Apanango", "lon": "34.183333"}, {"lat": "7.183333", "city": "Apanauane", "lon": "34.183333"}, {"lat": "7.7", "city": "Ariet", "lon": "34.05"}, {"lat": "7.966667", "city": "Atiep", "lon": "33.533333"}, {"lat": "7.916667", "city": "Auarla", "lon": "34.033333"}, {"lat": "8.383333", "city": "Auau", "lon": "33.7"}, {"lat": "7.916667", "city": "Awarla", "lon": "34.033333"}, {"lat": "8.383333", "city": "Awau", "lon": "33.7"}, {"lat": "7.566667", "city": "Bacialb\u00e0", "lon": "33.933333"}, {"lat": "8.35", "city": "Baignol", "lon": "33.833333"}, {"lat": "8.133333", "city": "Bail", "lon": "33.2"}, {"lat": "8.35", "city": "Baitiok", "lon": "33.833333"}, {"lat": "8.466667", "city": "Barakwich", "lon": "33.633333"}, {"lat": "8.466667", "city": "Baraquic", "lon": "33.633333"}, {"lat": "8.35", "city": "Beiniol", "lon": "33.833333"}, {"lat": "7.266667", "city": "Betmai", "lon": "35.1"}, {"lat": "8.216667", "city": "Birhane Selam", "lon": "34.116667"}, {"lat": "7.566667", "city": "Bochiaba", "lon": "33.933333"}, {"lat": "7.733333", "city": "Bola", "lon": "33.983333"}, {"lat": "8.266667", "city": "Bol", "lon": "33.916667"}, {"lat": "7.95", "city": "Borgebba", "lon": "33.583333"}, {"lat": "8.133333", "city": "Bul", "lon": "33.2"}, {"lat": "7.733333", "city": "Buoala", "lon": "33.983333"}, {"lat": "8.266667", "city": "Buol", "lon": "33.916667"}, {"lat": "7.983333", "city": "Burgot", "lon": "34.15"}, {"lat": "8.266667", "city": "Caic", "lon": "34.016667"}, {"lat": "8.25", "city": "Caig", "lon": "34.016667"}, {"lat": "7.084241", "city": "Cara", "lon": "34.19472"}, {"lat": "7.5", "city": "Chidi", "lon": "34.533333"}, {"lat": "7.533333", "city": "Ciam", "lon": "33.933333"}, {"lat": "7.6", "city": "Ciamlum", "lon": "34.2"}, {"lat": "7.916667", "city": "Ciobo", "lon": "34.45"}, {"lat": "7.6", "city": "Cocaieca", "lon": "34.983333"}, {"lat": "7.716667", "city": "Comaton", "lon": "34.383333"}, {"lat": "7.25", "city": "Com", "lon": "34.65"}, {"lat": "8.366667", "city": "Cot", "lon": "33.483333"}, {"lat": "8", "city": "Cueciar", "lon": "33.05"}, {"lat": "8", "city": "Cuicer", "lon": "33.05"}, {"lat": "7.65", "city": "Debo", "lon": "34.2"}, {"lat": "7.866667", "city": "Diboc", "lon": "33.016667"}, {"lat": "7.65", "city": "Dipa", "lon": "34.2"}, {"lat": "7.7", "city": "Docota", "lon": "34.05"}, {"lat": "7.35", "city": "Dodi", "lon": "35.033333"}, {"lat": "7.85", "city": "Dumban", "lon": "34.633333"}, {"lat": "8.2", "city": "Eboko", "lon": "34.316667"}, {"lat": "8.15", "city": "Enuagri", "lon": "34.2"}, {"lat": "8.166667", "city": "Faina", "lon": "34.233333"}, {"lat": "8.183333", "city": "Fanuar", "lon": "34.166667"}, {"lat": "8.183333", "city": "Fanuor", "lon": "34.166667"}, {"lat": "8.166667", "city": "Fina", "lon": "34.233333"}, {"lat": "8.266667", "city": "Fincao", "lon": "34.6"}, {"lat": "8.266667", "city": "Fincau", "lon": "34.6"}, {"lat": "8.266667", "city": "Finch'awo", "lon": "34.6"}, {"lat": "8.266667", "city": "Finchiau", "lon": "34.6"}, {"lat": "8.166667", "city": "Foual", "lon": "34.166667"}, {"lat": "8.166667", "city": "Fouol", "lon": "34.166667"}, {"lat": "8.033333", "city": "Fuchedi", "lon": "34.2"}, {"lat": "8.25", "city": "Fugual", "lon": "33.95"}, {"lat": "8.25", "city": "Fuguol", "lon": "33.95"}, {"lat": "8.166667", "city": "Fukumu", "lon": "34.3"}, {"lat": "7.75", "city": "Funyido", "lon": "34.5"}, {"lat": "8.25", "city": "Gambeila", "lon": "34.583333"}, {"lat": "8.25", "city": "Gambela", "lon": "34.583333"}, {"lat": "8.25", "city": "Gambela Post", "lon": "34.583333"}, {"lat": "8.25", "city": "Gambella", "lon": "34.583333"}, {"lat": "7.533333", "city": "Garri", "lon": "34.4"}, {"lat": "8.266667", "city": "Gauchel", "lon": "33.9"}, {"lat": "8.266667", "city": "Gaukel", "lon": "33.9"}, {"lat": "7.566667", "city": "Gesci", "lon": "35.033333"}, {"lat": "7.65", "city": "Gesi", "lon": "34.2"}, {"lat": "7.533333", "city": "Gherri", "lon": "34.4"}, {"lat": "7.533333", "city": "Gianggior", "lon": "34.366667"}, {"lat": "7.533333", "city": "Giangior", "lon": "34.366667"}, {"lat": "7.8", "city": "Giara", "lon": "34.816667"}, {"lat": "8.166667", "city": "Gilawo", "lon": "34.333333"}, {"lat": "7.833333", "city": "Gniuir", "lon": "33.95"}, {"lat": "7.533333", "city": "Goc Giangior", "lon": "34.366667"}, {"lat": "8.266667", "city": "Gochel", "lon": "33.9"}, {"lat": "7.583333", "city": "Gog", "lon": "34.5"}, {"lat": "7.583333", "city": "Gogo", "lon": "34.5"}, {"lat": "7.383333", "city": "Gogu", "lon": "35.066667"}, {"lat": "8.333333", "city": "Gungiang", "lon": "33.733333"}, {"lat": "8.333333", "city": "Guniang", "lon": "33.733333"}, {"lat": "8.333333", "city": "Gunjang", "lon": "33.733333"}, {"lat": "7.816667", "city": "Ibidagaia", "lon": "34.65"}, {"lat": "8.25", "city": "Ideni", "lon": "34"}, {"lat": "8.166667", "city": "Ileo", "lon": "34.333333"}, {"lat": "8.233333", "city": "Imida", "lon": "34.083333"}, {"lat": "8.233333", "city": "Immeda", "lon": "34.083333"}, {"lat": "8.233333", "city": "Inmeda", "lon": "34.083333"}, {"lat": "8.15", "city": "Inwany", "lon": "34.2"}, {"lat": "8.2", "city": "Itang", "lon": "34.266667"}, {"lat": "8.366667", "city": "Jikao", "lon": "33.766667"}, {"lat": "8.366667", "city": "Jikau", "lon": "33.766667"}, {"lat": "8.366667", "city": "Jikawa", "lon": "33.766667"}, {"lat": "8.366667", "city": "Jikaw", "lon": "33.766667"}, {"lat": "8.366667", "city": "Jikawo", "lon": "33.766667"}, {"lat": "8.366667", "city": "Jokau", "lon": "33.766667"}, {"lat": "8.25", "city": "Kaig", "lon": "34.016667"}, {"lat": "7.084241", "city": "Kara", "lon": "34.19472"}, {"lat": "8.25", "city": "Kono", "lon": "34.016667"}, {"lat": "8.366667", "city": "Kot", "lon": "33.483333"}, {"lat": "8.05", "city": "Kwonyrek", "lon": "33.083333"}, {"lat": "7.733333", "city": "Lar Gnan", "lon": "34.4"}, {"lat": "8.35", "city": "Lim Nuer Bar", "lon": "33.216667"}, {"lat": "7.7", "city": "Locota", "lon": "34.05"}, {"lat": "8.4", "city": "Luella", "lon": "33.466667"}, {"lat": "8.2", "city": "Madaino", "lon": "33.2"}, {"lat": "8.2", "city": "Mading", "lon": "33.2"}, {"lat": "8.416667", "city": "Malwal", "lon": "33.233333"}, {"lat": "8.25", "city": "Mangjang", "lon": "33.183333"}, {"lat": "7.5", "city": "Mangum", "lon": "34.433333"}, {"lat": "8.416667", "city": "Melual", "lon": "33.233333"}, {"lat": "8.2", "city": "Methoc", "lon": "34.066667"}, {"lat": "8.2", "city": "Metoc", "lon": "34.066667"}, {"lat": "8.416667", "city": "Miluol", "lon": "33.233333"}, {"lat": "8.166667", "city": "Nyikowo", "lon": "34.283333"}, {"lat": "7.733333", "city": "Obaghi", "lon": "33.766667"}, {"lat": "7.733333", "city": "Obanghi", "lon": "33.766667"}, {"lat": "7.7", "city": "Obuol", "lon": "34.1"}, {"lat": "7.683333", "city": "Obwodi", "lon": "33.616667"}, {"lat": "7.833333", "city": "Odochi", "lon": "33.833333"}, {"lat": "8.2", "city": "Ogara", "lon": "34.433333"}, {"lat": "8.2", "city": "Oghera", "lon": "34.433333"}, {"lat": "7.666667", "city": "Oghin", "lon": "33.75"}, {"lat": "7.733333", "city": "Oiela", "lon": "33.766667"}, {"lat": "8.166667", "city": "Olea", "lon": "34.333333"}, {"lat": "7.516667", "city": "Olen", "lon": "34.733333"}, {"lat": "7.75", "city": "Omeda", "lon": "33.916667"}, {"lat": "7.666667", "city": "Omial", "lon": "33.8"}, {"lat": "7.916667", "city": "Orang", "lon": "33.55"}, {"lat": "8.033333", "city": "Pacchede", "lon": "34.2"}, {"lat": "7.483333", "city": "Pacchelo", "lon": "34.016667"}, {"lat": "7.633333", "city": "Pacodi", "lon": "34.8"}, {"lat": "8.183333", "city": "Pagnau", "lon": "34.166667"}, {"lat": "8.25", "city": "Pamoli", "lon": "34.483333"}, {"lat": "7.783333", "city": "Peccialla", "lon": "34.2"}, {"lat": "7.683333", "city": "Pegncoa", "lon": "33.7"}, {"lat": "7.666667", "city": "Pengmial", "lon": "34.116667"}, {"lat": "7.666667", "city": "Pengmiel", "lon": "34.116667"}, {"lat": "7.866667", "city": "Pentin", "lon": "33.65"}, {"lat": "7.9", "city": "Perbom", "lon": "34.35"}, {"lat": "7.9", "city": "Perbona", "lon": "33.683333"}, {"lat": "7.9", "city": "Perbongo", "lon": "34.35"}, {"lat": "7.9", "city": "Perbong", "lon": "33.683333"}, {"lat": "7.7", "city": "Periet", "lon": "34.05"}, {"lat": "7.2", "city": "Peso", "lon": "35.166667"}, {"lat": "7.433333", "city": "Pingtaidi", "lon": "34.333333"}, {"lat": "7.433333", "city": "Pingtidi", "lon": "34.333333"}, {"lat": "7.433333", "city": "Pintidi", "lon": "34.333333"}, {"lat": "8.233333", "city": "Pintor", "lon": "34.016667"}, {"lat": "8.15", "city": "Poko", "lon": "34.466667"}, {"lat": "8.25", "city": "Pomolo", "lon": "34.483333"}, {"lat": "8.183333", "city": "Pullum", "lon": "34.266667"}, {"lat": "8.3", "city": "Quamnum", "lon": "33.833333"}, {"lat": "7.883333", "city": "Renguall", "lon": "33.566667"}, {"lat": "7.883333", "city": "Rengual", "lon": "33.566667"}, {"lat": "7.6", "city": "Sciamlum", "lon": "34.2"}, {"lat": "7.933333", "city": "Sciamo", "lon": "34.616667"}, {"lat": "8.433333", "city": "Segi", "lon": "34.466667"}, {"lat": "8.433333", "city": "Sigi", "lon": "34.466667"}, {"lat": "8.183333", "city": "Sisa", "lon": "34.766667"}, {"lat": "7.483333", "city": "Taada", "lon": "34.016667"}, {"lat": "7.9", "city": "Taine", "lon": "34.733333"}, {"lat": "7.9", "city": "Tame", "lon": "34.733333"}, {"lat": "8.266667", "city": "Teylut", "lon": "33.916667"}, {"lat": "7.816667", "city": "Tirgoi", "lon": "33.033333"}, {"lat": "7.816667", "city": "Tirgol", "lon": "33.033333"}, {"lat": "7.816667", "city": "Tirgul", "lon": "33.033333"}, {"lat": "7.816667", "city": "Tirigol", "lon": "33.033333"}, {"lat": "7.716667", "city": "Togn", "lon": "34.016667"}, {"lat": "7.85", "city": "Tori", "lon": "33.583333"}, {"lat": "8.35", "city": "Tormum", "lon": "33.716667"}, {"lat": "8.35", "city": "Tormun", "lon": "33.716667"}, {"lat": "7.533333", "city": "Tsciam", "lon": "33.933333"}, {"lat": "7.9", "city": "Ualo", "lon": "34"}, {"lat": "8.333333", "city": "Uancai", "lon": "33.816667"}, {"lat": "8.333333", "city": "Uanchei", "lon": "33.816667"}, {"lat": "7.783333", "city": "Uarcialla", "lon": "34.2"}, {"lat": "8.45", "city": "Uau", "lon": "33.666667"}, {"lat": "7.516667", "city": "Ucari", "lon": "34.416667"}, {"lat": "7.516667", "city": "Ucoi", "lon": "34.416667"}, {"lat": "7.716667", "city": "Ucura", "lon": "34.383333"}, {"lat": "7.833333", "city": "Udia", "lon": "33.833333"}, {"lat": "7.633333", "city": "Uduela", "lon": "34.283333"}, {"lat": "7.966667", "city": "Ugat", "lon": "33.6"}, {"lat": "7.966667", "city": "Ugudi", "lon": "34.216667"}, {"lat": "7.733333", "city": "Uinam", "lon": "33.766667"}, {"lat": "7.666667", "city": "Umiel", "lon": "33.8"}, {"lat": "7.85", "city": "Ungela", "lon": "33.8"}, {"lat": "7.85", "city": "Unghela", "lon": "33.8"}, {"lat": "8.45", "city": "Uo", "lon": "33.666667"}], "46": [{"lat": "11.266667", "city": "Aba Ali", "lon": "39.4"}, {"lat": "11.983333", "city": "Aba Biruk", "lon": "39.35"}, {"lat": "11.333333", "city": "Aba Bona", "lon": "39.95"}, {"lat": "11.05", "city": "Aba Boru", "lon": "39.183333"}, {"lat": "10.833333", "city": "Aba Buko", "lon": "39.4"}, {"lat": "11.15", "city": "Aba Bula", "lon": "39.233333"}, {"lat": "8.866667", "city": "Aba Ch'orga", "lon": "39.316667"}, {"lat": "11.25", "city": "Abadise", "lon": "39.016667"}, {"lat": "12.383333", "city": "Abagennen", "lon": "37.233333"}, {"lat": "11.666667", "city": "Aba Gerima", "lon": "37.5"}, {"lat": "12.383333", "city": "Abaghennen", "lon": "37.233333"}, {"lat": "12.518056", "city": "Aba Golja", "lon": "37.026944"}, {"lat": "11.033333", "city": "Abagolja Ager", "lon": "39.816667"}, {"lat": "11.033333", "city": "Aba Golja Ager", "lon": "39.816667"}, {"lat": "11.1", "city": "Abagolja Ager", "lon": "39.833333"}, {"lat": "11.1", "city": "Aba Golja Ager", "lon": "39.833333"}, {"lat": "11.25", "city": "Abahala", "lon": "37.95"}, {"lat": "10.983333", "city": "Abai", "lon": "37.216667"}, {"lat": "10.9", "city": "Aba Kibe", "lon": "39.533333"}, {"lat": "10.583333", "city": "Aba K'undi", "lon": "39.2"}, {"lat": "11.25", "city": "Abala", "lon": "37.95"}, {"lat": "12.283333", "city": "Abale", "lon": "37.45"}, {"lat": "12.35", "city": "Aba Libanos", "lon": "37.35"}, {"lat": "11.483333", "city": "Abalo Meda", "lon": "39.166667"}, {"lat": "12.066667", "city": "Aba Mesk", "lon": "39.283333"}, {"lat": "10.816667", "city": "Aba Milik", "lon": "39.566667"}, {"lat": "12.066667", "city": "Abarche", "lon": "38.3"}, {"lat": "12.066667", "city": "Abarctie", "lon": "38.3"}, {"lat": "13.1", "city": "Abargale", "lon": "38.95"}, {"lat": "11.616667", "city": "Abarge", "lon": "37.25"}, {"lat": "9.566667", "city": "Abas", "lon": "39.516667"}, {"lat": "10.95", "city": "Aba Selam", "lon": "39.3"}, {"lat": "10.916667", "city": "Abate Ager", "lon": "39.15"}, {"lat": "10.566667", "city": "Aba Wani", "lon": "39.5"}, {"lat": "11.516667", "city": "Aba Wat'", "lon": "39.366667"}, {"lat": "9.666667", "city": "Aba Wibe Ager", "lon": "39.716667"}, {"lat": "11.6", "city": "Abay", "lon": "37.416667"}, {"lat": "9.916667", "city": "Abaye At'ir", "lon": "40.016667"}, {"lat": "9.916667", "city": "Abaye At'r", "lon": "40.016667"}, {"lat": "12.366667", "city": "Abay Yilas", "lon": "38.85"}, {"lat": "12.166667", "city": "Abay Zinamba", "lon": "38.75"}, {"lat": "11.6", "city": "Abba", "lon": "37.416667"}, {"lat": "12.05", "city": "Abba Foge", "lon": "37.8"}, {"lat": "10.983333", "city": "Abbai", "lon": "37.216667"}, {"lat": "11.433333", "city": "Abchekli", "lon": "36.883333"}, {"lat": "11.433333", "city": "Abchikile", "lon": "36.883333"}, {"lat": "11.433333", "city": "Abchikili", "lon": "36.883333"}, {"lat": "9.516667", "city": "Abchu", "lon": "39.55"}, {"lat": "13.733333", "city": "Abderafi", "lon": "36.45"}, {"lat": "13.733333", "city": "Abder Rafi", "lon": "36.45"}, {"lat": "13.733333", "city": "Abderraft", "lon": "36.45"}, {"lat": "9.716667", "city": "Abdi Gara", "lon": "39.85"}, {"lat": "12.983333", "city": "Abdula", "lon": "36.366667"}, {"lat": "12.983333", "city": "Abdulah", "lon": "36.366667"}, {"lat": "9.483333", "city": "Abebaye", "lon": "39.533333"}, {"lat": "12.366667", "city": "Abek'at", "lon": "39.133333"}, {"lat": "10.3", "city": "Abek'esti", "lon": "38.016667"}, {"lat": "13.416667", "city": "Abena", "lon": "38.366667"}, {"lat": "13.433333", "city": "Abera", "lon": "38.233333"}, {"lat": "13.1", "city": "Abergale", "lon": "38.95"}, {"lat": "13.1", "city": "Abergeie", "lon": "38.95"}, {"lat": "13.1", "city": "Abergele", "lon": "38.95"}, {"lat": "12.316667", "city": "Abersha", "lon": "38.95"}, {"lat": "12.742222", "city": "Abertege", "lon": "37.415556"}, {"lat": "11.533333", "city": "Abiche", "lon": "37.816667"}, {"lat": "9.816667", "city": "Abichu", "lon": "38.85"}, {"lat": "9.733333", "city": "Abilamoch", "lon": "39.716667"}, {"lat": "12.6", "city": "Abiyatku", "lon": "39.05"}, {"lat": "12.033333", "city": "Abo'a", "lon": "37.75"}, {"lat": "12.166667", "city": "Abo Arka", "lon": "37.616667"}, {"lat": "10.95", "city": "Abole", "lon": "39.5"}, {"lat": "9.983333", "city": "Abomsa", "lon": "39.983333"}, {"lat": "9.983333", "city": "Abonsa", "lon": "39.983333"}, {"lat": "10.016667", "city": "Abram", "lon": "37.9"}, {"lat": "12.283333", "city": "Abriha", "lon": "37.05"}, {"lat": "12.45", "city": "Abscia", "lon": "38"}, {"lat": "11.883333", "city": "Abt'at'e", "lon": "38.916667"}, {"lat": "12.366667", "city": "Abuna", "lon": "38.583333"}, {"lat": "12.9", "city": "Abune Aregay", "lon": "37.833333"}, {"lat": "12.116667", "city": "Abune Yosef", "lon": "39.166667"}, {"lat": "11.833333", "city": "Abutu", "lon": "39.833333"}, {"lat": "12.666667", "city": "Abza", "lon": "38.966667"}, {"lat": "10.933333", "city": "Acaita", "lon": "36.983333"}, {"lat": "12.316667", "city": "Acam", "lon": "38.033333"}, {"lat": "12.3", "city": "Acara Mariam", "lon": "37.366667"}, {"lat": "11.966667", "city": "Accana Georghis", "lon": "38.183333"}, {"lat": "11.716667", "city": "Acchera", "lon": "38.416667"}, {"lat": "11.633333", "city": "Ach'awach", "lon": "39.383333"}, {"lat": "12.916667", "city": "Acheta", "lon": "38.233333"}, {"lat": "10.816667", "city": "Ach'ewa Bado", "lon": "38.033333"}, {"lat": "10.933333", "city": "Achfa", "lon": "36.983333"}, {"lat": "12.416667", "city": "Acscera", "lon": "36.65"}, {"lat": "12.416667", "city": "Acsera", "lon": "36.65"}, {"lat": "11.516667", "city": "Adada", "lon": "38.333333"}, {"lat": "11.9", "city": "Adahunat", "lon": "37.3"}, {"lat": "10.433333", "city": "Adama", "lon": "39.4"}, {"lat": "10.966667", "city": "Adame", "lon": "39.816667"}, {"lat": "11.25", "city": "Adami Gebeya", "lon": "39.833333"}, {"lat": "10.133333", "city": "Adara", "lon": "39.4"}, {"lat": "11.066667", "city": "Adasha", "lon": "37.983333"}, {"lat": "11.266667", "city": "Addiet", "lon": "37.483333"}, {"lat": "11.266667", "city": "Addiet Canna", "lon": "37.483333"}, {"lat": "12.116667", "city": "Addis Zaman", "lon": "37.783333"}, {"lat": "12.116667", "city": "Addis Zemen", "lon": "37.783333"}, {"lat": "9.416667", "city": "Adebabay", "lon": "39.616667"}, {"lat": "11.516667", "city": "Adeda", "lon": "38.333333"}, {"lat": "12.35", "city": "Adema Iyasu", "lon": "39.45"}, {"lat": "12.233333", "city": "Aderseg", "lon": "38.283333"}, {"lat": "11.266667", "city": "Adet", "lon": "37.483333"}, {"lat": "12.55", "city": "Adeza", "lon": "37.133333"}, {"lat": "9.666667", "city": "Adgo Ager", "lon": "39.666667"}, {"lat": "9.666667", "city": "Adguo", "lon": "39.666667"}, {"lat": "13.166667", "city": "Adi Agag", "lon": "37.766667"}, {"lat": "12.416667", "city": "Adi Aro", "lon": "39.166667"}, {"lat": "13.3", "city": "Adi Gheva", "lon": "37.733333"}, {"lat": "12.916667", "city": "Adi K'aga", "lon": "38.3"}, {"lat": "12.316667", "city": "Adi K'esawist", "lon": "39.45"}, {"lat": "12", "city": "Adi Mugia", "lon": "39.283333"}, {"lat": "13.383333", "city": "Adi Rihits'an", "lon": "37.683333"}, {"lat": "10.466667", "city": "Adis Amba", "lon": "38.866667"}, {"lat": "12.283333", "city": "Adi Saseso", "lon": "39.5"}, {"lat": "11.766667", "city": "Adiscia", "lon": "37.166667"}, {"lat": "13.483333", "city": "Adi Selam", "lon": "38.416667"}, {"lat": "13", "city": "Adisge", "lon": "38.333333"}, {"lat": "12.516667", "city": "Adishe", "lon": "38.2"}, {"lat": "12.516667", "city": "Adisici\u00e0", "lon": "38.2"}, {"lat": "13.083333", "city": "Adi Sighe", "lon": "38"}, {"lat": "11.083333", "city": "Adis K'idame", "lon": "36.883333"}, {"lat": "12.25", "city": "Adis Kiny", "lon": "39.733333"}, {"lat": "12.116667", "city": "Adis Zemen", "lon": "37.783333"}, {"lat": "13.366667", "city": "Adi Tuoldemedhin", "lon": "37.4"}, {"lat": "13.177524", "city": "Adi Zelay", "lon": "39.017415"}, {"lat": "12.6", "city": "Adliya", "lon": "39.133333"}, {"lat": "12.716667", "city": "Admase", "lon": "37.35"}, {"lat": "10.583333", "city": "Advakel", "lon": "37.116667"}, {"lat": "11.633333", "city": "Adwa", "lon": "37.933333"}, {"lat": "10.366667", "city": "Afaf", "lon": "39.333333"}, {"lat": "11.366667", "city": "Afenk'ir", "lon": "37.8"}, {"lat": "12.5", "city": "Afersa", "lon": "38.55"}, {"lat": "12.033333", "city": "Aferuba", "lon": "39.233333"}, {"lat": "10.666667", "city": "Afeso", "lon": "39.766667"}, {"lat": "11.333333", "city": "Afeyi", "lon": "37.75"}, {"lat": "9.966667", "city": "Afezez", "lon": "38.966667"}, {"lat": "11.1", "city": "Afk'era", "lon": "38.866667"}, {"lat": "11.633333", "city": "Afk'ire", "lon": "37.5"}, {"lat": "10.25", "city": "Aftenet", "lon": "39.683333"}, {"lat": "12.5", "city": "Afu", "lon": "39.116667"}, {"lat": "10.05", "city": "Agama", "lon": "39.283333"}, {"lat": "10.533333", "city": "Agamina", "lon": "37.95"}, {"lat": "10.533333", "city": "Agamna", "lon": "37.95"}, {"lat": "12.016667", "city": "Agamsa", "lon": "39.766667"}, {"lat": "9.833333", "city": "Agam Wiha", "lon": "39.45"}, {"lat": "11.6", "city": "Agat'", "lon": "38.466667"}, {"lat": "11.116667", "city": "Agaye", "lon": "39.266667"}, {"lat": "10.016667", "city": "Agemgo", "lon": "38.783333"}, {"lat": "11.016667", "city": "Agemti", "lon": "40.066667"}, {"lat": "10.85", "city": "Agew Gimja Bet", "lon": "36.883333"}, {"lat": "12", "city": "Agewiye", "lon": "39.216667"}, {"lat": "12.8", "city": "Agheliele", "lon": "38.95"}, {"lat": "12.066667", "city": "Aghissa", "lon": "38.366667"}, {"lat": "11.316667", "city": "Aghitta", "lon": "37.65"}, {"lat": "10.633333", "city": "Agibar", "lon": "38.783333"}, {"lat": "12.433333", "city": "Agit'a", "lon": "38.966667"}, {"lat": "11.316667", "city": "Agitta", "lon": "37.65"}, {"lat": "10.766667", "city": "Agni", "lon": "37.133333"}, {"lat": "10.083333", "city": "Ago", "lon": "39.6"}, {"lat": "11.6", "city": "Agona", "lon": "38.216667"}, {"lat": "11.883333", "city": "Agwat Wiha", "lon": "39.45"}, {"lat": "12.25", "city": "Ahacha", "lon": "37"}, {"lat": "10.15", "city": "Ahba", "lon": "39.3"}, {"lat": "8.95", "city": "Ahimed Ager", "lon": "39.633333"}, {"lat": "10.966667", "city": "Ahimed", "lon": "39.833333"}, {"lat": "12.3", "city": "Ahiyo", "lon": "39.316667"}, {"lat": "8.95", "city": "Ahmed Ager", "lon": "39.633333"}, {"lat": "10.966667", "city": "Ahmed", "lon": "39.833333"}, {"lat": "10.433333", "city": "Ahun Tegent", "lon": "39.083333"}, {"lat": "10.433333", "city": "Ahun Tegeny", "lon": "39.083333"}, {"lat": "11.866667", "city": "Ahun Tugre", "lon": "39.45"}, {"lat": "12.35", "city": "Aiha", "lon": "38.083333"}, {"lat": "10.883333", "city": "Aimusa", "lon": "36.533333"}, {"lat": "12.15", "city": "Aina Jesus", "lon": "38.85"}, {"lat": "12.15", "city": "Aine-Jesus", "lon": "38.85"}, {"lat": "12.3", "city": "Aio", "lon": "39.316667"}, {"lat": "11.55", "city": "Aiscet Mariam", "lon": "37.616667"}, {"lat": "12.05", "city": "Aja", "lon": "38.216667"}, {"lat": "11.516667", "city": "Ajafej", "lon": "37.7"}, {"lat": "12.883333", "city": "Ajaye", "lon": "37.683333"}, {"lat": "11.233333", "city": "Ajbar", "lon": "39.233333"}, {"lat": "10.866667", "city": "Ajibar", "lon": "38.666667"}, {"lat": "12.883333", "city": "Ajire", "lon": "37.683333"}, {"lat": "9.183333", "city": "Ajo", "lon": "39.783333"}, {"lat": "11.733333", "city": "Ak'abet", "lon": "38.283333"}, {"lat": "9.35", "city": "Akabido", "lon": "39.5"}, {"lat": "10.266667", "city": "Ak'afe", "lon": "39.433333"}, {"lat": "9.016667", "city": "Akarmit", "lon": "39.583333"}, {"lat": "9.183333", "city": "Akele", "lon": "39.683333"}, {"lat": "10.85", "city": "Akesta", "lon": "39.183333"}, {"lat": "10.85", "city": "Akista", "lon": "39.183333"}, {"lat": "10.85", "city": "Ak'sta", "lon": "39.183333"}, {"lat": "11.933333", "city": "Aktena", "lon": "38.166667"}, {"lat": "10.766667", "city": "Ak'usho Ager", "lon": "39.4"}, {"lat": "11.316667", "city": "Alada", "lon": "39.416667"}, {"lat": "11.95", "city": "Alafa", "lon": "36.866667"}, {"lat": "11.2", "city": "Alah Set", "lon": "39.75"}, {"lat": "11.2", "city": "Alah Set'o", "lon": "39.75"}, {"lat": "10.7", "city": "Alala", "lon": "39.35"}, {"lat": "8.95", "city": "Alame Agher", "lon": "39.633333"}, {"lat": "10.083333", "city": "Alam Katma", "lon": "39.033333"}, {"lat": "10.233333", "city": "Alash", "lon": "39.266667"}, {"lat": "12.816667", "city": "Albeta", "lon": "39.183333"}, {"lat": "11.383333", "city": "Albishiny", "lon": "39.15"}, {"lat": "10.783333", "city": "Albuco", "lon": "39.783333"}, {"lat": "10.783333", "city": "Albuko", "lon": "39.783333"}, {"lat": "10.783333", "city": "Albukoterie", "lon": "39.783333"}, {"lat": "11.516667", "city": "Alebamba", "lon": "39.233333"}, {"lat": "11.95", "city": "Alefa", "lon": "36.866667"}, {"lat": "10.083333", "city": "Alem Catema", "lon": "39.033333"}, {"lat": "9.433333", "city": "`Alem Gebeya", "lon": "39.783333"}, {"lat": "10.083333", "city": "`Alem Ketema", "lon": "39.033333"}, {"lat": "11.45", "city": "Alet", "lon": "39.583333"}, {"lat": "9.533333", "city": "Alio Amba", "lon": "39.8"}, {"lat": "9.533333", "city": "Aliyu Amba", "lon": "39.8"}, {"lat": "11.566667", "city": "Alk'a", "lon": "39.183333"}, {"lat": "11.116667", "city": "Alkodyu", "lon": "39.416667"}, {"lat": "12.5", "city": "Alk'wat'", "lon": "38.666667"}, {"lat": "11.85", "city": "Alla", "lon": "39.7"}, {"lat": "12.266667", "city": "Alloha", "lon": "37.1"}, {"lat": "10.75", "city": "Almuko", "lon": "39.55"}, {"lat": "10.316667", "city": "Alo", "lon": "39.183333"}, {"lat": "10.183333", "city": "Al'ula", "lon": "39.45"}, {"lat": "9.183333", "city": "Ama", "lon": "39.65"}, {"lat": "10.55", "city": "Amajo", "lon": "39.333333"}, {"lat": "10.25", "city": "Aman", "lon": "39.233333"}, {"lat": "10.45", "city": "Amanu'el", "lon": "37.566667"}, {"lat": "10.9", "city": "Amara", "lon": "39.433333"}, {"lat": "10.65", "city": "Amba", "lon": "38.583333"}, {"lat": "10.233333", "city": "Ambaccia", "lon": "38.066667"}, {"lat": "12.462222", "city": "Ambaciara", "lon": "37.712778"}, {"lat": "12.768889", "city": "Amba Georgis", "lon": "37.623889"}, {"lat": "12.768889", "city": "Amba Ghiorghis", "lon": "37.623889"}, {"lat": "12.768889", "city": "Amba Giorgis", "lon": "37.623889"}, {"lat": "12.768889", "city": "Amba Giyorgis", "lon": "37.623889"}, {"lat": "11.7", "city": "Amba Lamba", "lon": "39.05"}, {"lat": "10.166667", "city": "Ambalay", "lon": "39.783333"}, {"lat": "10.766667", "city": "Amba Mariam", "lon": "37.983333"}, {"lat": "10.766667", "city": "Amba Maryam", "lon": "37.983333"}, {"lat": "11.483333", "city": "Amba Not", "lon": "39.366667"}, {"lat": "12.283333", "city": "Ambara", "lon": "37.45"}, {"lat": "12.766667", "city": "Amba Ras", "lon": "37.716667"}, {"lat": "13.216667", "city": "Ambaras", "lon": "38.083333"}, {"lat": "10.25", "city": "Amba Selis", "lon": "39.066667"}, {"lat": "10.9", "city": "Amba Silas", "lon": "39.233333"}, {"lat": "10.233333", "city": "Ambatcha", "lon": "38.066667"}, {"lat": "11.233333", "city": "Ambatna", "lon": "37.5"}, {"lat": "10.733333", "city": "Ambela", "lon": "39.216667"}, {"lat": "10.283333", "city": "Ambersha", "lon": "39.55"}, {"lat": "10.683333", "city": "Ambili", "lon": "36.7"}, {"lat": "10.816667", "city": "Ambiti Gheorghis", "lon": "36.633333"}, {"lat": "10.816667", "city": "Ambiti Gheorgis", "lon": "36.633333"}, {"lat": "10.816667", "city": "Ambiti Ghiorghis", "lon": "36.633333"}, {"lat": "11.25", "city": "Ambo", "lon": "39.566667"}, {"lat": "11.666667", "city": "Ambola", "lon": "39.416667"}, {"lat": "9.983333", "city": "Ambwash", "lon": "39.5"}, {"lat": "12.349722", "city": "Amde Werk", "lon": "38.7525"}, {"lat": "12.349722", "city": "Amde Work", "lon": "38.7525"}, {"lat": "10.316667", "city": "Amed Guya", "lon": "39.55"}, {"lat": "10.966667", "city": "Amedo", "lon": "39.6"}, {"lat": "12.833333", "city": "Amegiagi", "lon": "37.65"}, {"lat": "10.3", "city": "Ameja", "lon": "39.866667"}, {"lat": "12.833333", "city": "Ameniyos", "lon": "37.45"}, {"lat": "10.383333", "city": "Amerguya", "lon": "39.516667"}, {"lat": "10.766667", "city": "Amfur", "lon": "39.283333"}, {"lat": "13.283333", "city": "Ami'alka", "lon": "38.2"}, {"lat": "12.316667", "city": "Amisala", "lon": "37.383333"}, {"lat": "12.016667", "city": "Amistiya", "lon": "36.916667"}, {"lat": "13.133333", "city": "Amja Lebes", "lon": "38.166667"}, {"lat": "11.666667", "city": "Amjeye", "lon": "38.033333"}, {"lat": "11.983333", "city": "Amora Gedel", "lon": "37.8"}, {"lat": "11.15", "city": "Amora Genda", "lon": "39.433333"}, {"lat": "12.15", "city": "Amora Ghadel", "lon": "39.483333"}, {"lat": "9.75", "city": "Amoraghede", "lon": "39.5"}, {"lat": "12.15", "city": "Amora Ghedel", "lon": "39.483333"}, {"lat": "10.666667", "city": "Amoscia", "lon": "39.766667"}, {"lat": "13.216667", "city": "Amsafesge", "lon": "38.066667"}, {"lat": "10.266667", "city": "Amuata", "lon": "37.666667"}, {"lat": "10.266667", "city": "Amurata", "lon": "37.666667"}, {"lat": "12.15", "city": "Anaco", "lon": "36.366667"}, {"lat": "11.716667", "city": "Anbesame", "lon": "37.633333"}, {"lat": "12.066667", "city": "Anbes", "lon": "36.933333"}, {"lat": "12.366667", "city": "Anch'ano", "lon": "37.466667"}, {"lat": "11.05", "city": "Ancharo", "lon": "39.783333"}, {"lat": "9.316667", "city": "Anchi Awgi", "lon": "39.366667"}, {"lat": "9.8", "city": "Anch'ik'orer", "lon": "39.283333"}, {"lat": "9.583333", "city": "Ancobar", "lon": "39.733333"}, {"lat": "9.583333", "city": "Ancober", "lon": "39.733333"}, {"lat": "11.6", "city": "Anda", "lon": "38.533333"}, {"lat": "11.583333", "city": "And Aja", "lon": "39.15"}, {"lat": "12.066667", "city": "And Aymetir", "lon": "39.266667"}, {"lat": "12.933333", "city": "Andeinada", "lon": "37.283333"}, {"lat": "11.5", "city": "Andera", "lon": "36.5"}, {"lat": "12.35", "city": "Anderjiha", "lon": "37.2"}, {"lat": "11.95", "city": "And Iyela", "lon": "39.383333"}, {"lat": "9.433333", "city": "Anduod Uascia", "lon": "39.516667"}, {"lat": "10.466667", "city": "Angach'a", "lon": "38.016667"}, {"lat": "13.25", "city": "Angareb", "lon": "37.1"}, {"lat": "11.766667", "city": "Angat'a", "lon": "37.166667"}, {"lat": "11.533333", "city": "Angebet", "lon": "39.116667"}, {"lat": "10.466667", "city": "Angecha", "lon": "38.016667"}, {"lat": "13.25", "city": "Angereb", "lon": "37.1"}, {"lat": "9.833333", "city": "Angergira", "lon": "38.85"}, {"lat": "10.466667", "city": "Anghec", "lon": "38.016667"}, {"lat": "10.283333", "city": "Anghetam Abo", "lon": "37.616667"}, {"lat": "10.283333", "city": "Anghetam", "lon": "37.616667"}, {"lat": "9.633333", "city": "Angolala", "lon": "39.433333"}, {"lat": "9.633333", "city": "Angolela", "lon": "39.433333"}, {"lat": "10.216667", "city": "Anjetla", "lon": "39.65"}, {"lat": "10", "city": "Anjim", "lon": "37.7"}, {"lat": "10.416667", "city": "Ank'elafit", "lon": "39.666667"}, {"lat": "9.583333", "city": "Ankobar", "lon": "39.733333"}, {"lat": "9.583333", "city": "Ankober", "lon": "39.733333"}, {"lat": "11.433333", "city": "Ank'osa", "lon": "38.383333"}, {"lat": "11.666667", "city": "Antagussa", "lon": "37.333333"}, {"lat": "11.7", "city": "Ant'ebat'bi", "lon": "38.466667"}, {"lat": "12.2", "city": "Anteta", "lon": "37.016667"}, {"lat": "10.85", "city": "Aqesta", "lon": "39.183333"}, {"lat": "11.016667", "city": "Ara", "lon": "40.15"}, {"lat": "11.683333", "city": "Araba", "lon": "39.716667"}, {"lat": "11.5", "city": "Arakse", "lon": "38.216667"}, {"lat": "9.683333", "city": "Aramba", "lon": "39.8"}, {"lat": "10.716667", "city": "Arara", "lon": "38.35"}, {"lat": "11.5", "city": "Arata", "lon": "38.216667"}, {"lat": "11.5", "city": "Aratal", "lon": "38.216667"}, {"lat": "12.433333", "city": "Arbatelmisa", "lon": "38.833333"}, {"lat": "11.866667", "city": "Arba T'incha", "lon": "39.016667"}, {"lat": "12.316667", "city": "Arbaya", "lon": "37.833333"}, {"lat": "11.516667", "city": "`Arb Gebeya", "lon": "38.666667"}, {"lat": "11.516667", "city": "Arbi Ghebia", "lon": "38.666667"}, {"lat": "10.016667", "city": "Arbo Abis", "lon": "37.85"}, {"lat": "13.3", "city": "Arcazie", "lon": "38.266667"}, {"lat": "11.966667", "city": "Ardisa", "lon": "39.183333"}, {"lat": "11.016667", "city": "Arefa", "lon": "37.716667"}, {"lat": "12.166667", "city": "Aregena", "lon": "39.333333"}, {"lat": "12.15", "city": "Aregza", "lon": "39.4"}, {"lat": "10.366667", "city": "Arek'it", "lon": "39.716667"}, {"lat": "12.116667", "city": "Arema", "lon": "38.75"}, {"lat": "9.883333", "city": "Aremaniyan", "lon": "39.816667"}, {"lat": "12.283333", "city": "Arengem", "lon": "39.633333"}, {"lat": "12.25", "city": "Areoscia", "lon": "39.7"}, {"lat": "10.983333", "city": "Arera", "lon": "39.933333"}, {"lat": "8.833333", "city": "Arerti", "lon": "39.4"}, {"lat": "8.933333", "city": "Arertu", "lon": "39.416667"}, {"lat": "12.6", "city": "Arfits'", "lon": "39.183333"}, {"lat": "11.766667", "city": "Arga", "lon": "38.233333"}, {"lat": "11.533333", "city": "Argebet", "lon": "39.116667"}, {"lat": "11.883333", "city": "Aringo", "lon": "37.983333"}, {"lat": "13.05", "city": "Arisagh", "lon": "38.233333"}, {"lat": "13.05", "city": "Arisegh", "lon": "38.233333"}, {"lat": "12.416667", "city": "Arjal", "lon": "38.733333"}, {"lat": "12.25", "city": "Arka", "lon": "39.166667"}, {"lat": "9.883333", "city": "Armania", "lon": "39.816667"}, {"lat": "9.883333", "city": "Armaniya", "lon": "39.816667"}, {"lat": "10.783333", "city": "Armofa", "lon": "39.816667"}, {"lat": "10.383333", "city": "Aro", "lon": "39.233333"}, {"lat": "12.116667", "city": "Aroda", "lon": "37.733333"}, {"lat": "11.383333", "city": "Aroge", "lon": "39.133333"}, {"lat": "11.166667", "city": "Aroge Meda", "lon": "38.8"}, {"lat": "9.966667", "city": "Aro Genda", "lon": "38.9"}, {"lat": "12.633333", "city": "Arohna", "lon": "37.133333"}, {"lat": "11.383333", "city": "Arorya", "lon": "38.45"}, {"lat": "12.25", "city": "Aroscia", "lon": "39.7"}, {"lat": "11.35", "city": "Arota", "lon": "37.866667"}, {"lat": "10.583333", "city": "Art'uma", "lon": "40.016667"}, {"lat": "11.283333", "city": "Aryat", "lon": "38.316667"}, {"lat": "11.3", "city": "Asana", "lon": "39.183333"}, {"lat": "10.933333", "city": "Ascif\u00e0", "lon": "36.983333"}, {"lat": "10.833333", "city": "Ascuna", "lon": "37.083333"}, {"lat": "11.5", "city": "Asfa Meda", "lon": "38.283333"}, {"lat": "11.033333", "city": "Asgedo", "lon": "39.433333"}, {"lat": "10.916667", "city": "Asgori", "lon": "39.383333"}, {"lat": "11.466667", "city": "Ashenat", "lon": "38.916667"}, {"lat": "11.033333", "city": "Ashenga", "lon": "38.766667"}, {"lat": "11.083333", "city": "Ashmen", "lon": "37.683333"}, {"lat": "11.433333", "city": "Asim", "lon": "37.833333"}, {"lat": "11.75", "city": "Asinwara", "lon": "37.033333"}, {"lat": "11.016667", "city": "Asit", "lon": "38.783333"}, {"lat": "10.083333", "city": "Ask'at'a", "lon": "38.1"}, {"lat": "11.683333", "city": "Askera", "lon": "39.15"}, {"lat": "12.433333", "city": "Askoye", "lon": "37.183333"}, {"lat": "11.033333", "city": "Askuna", "lon": "36.7"}, {"lat": "10.833333", "city": "Ask'un", "lon": "37.083333"}, {"lat": "11.133333", "city": "Asol", "lon": "38.983333"}, {"lat": "12.933333", "city": "Assaf", "lon": "36.216667"}, {"lat": "10.983333", "city": "Assama", "lon": "37.85"}, {"lat": "11.666667", "city": "Assiru Dabr", "lon": "37.066667"}, {"lat": "9.75", "city": "Astakel", "lon": "39.783333"}, {"lat": "11.533333", "city": "Astamba", "lon": "39.383333"}, {"lat": "10.05", "city": "Astaye", "lon": "39.666667"}, {"lat": "12.216667", "city": "Asui", "lon": "38.433333"}, {"lat": "12.766667", "city": "Aszimew", "lon": "37.416667"}, {"lat": "13.516667", "city": "Ataba", "lon": "38.4"}, {"lat": "12.683333", "city": "Ata Belage", "lon": "37.516667"}, {"lat": "9.666667", "city": "Atakilt", "lon": "39.666667"}, {"lat": "11.666667", "city": "Atangus\u00e0", "lon": "37.333333"}, {"lat": "10.35", "city": "Ataya", "lon": "39.933333"}, {"lat": "10.35", "city": "At'aye", "lon": "39.933333"}, {"lat": "11.966667", "city": "At'ech'ama", "lon": "38.183333"}, {"lat": "13.266667", "city": "At'egeba", "lon": "38.283333"}, {"lat": "12.3", "city": "At'ela", "lon": "39.333333"}, {"lat": "11.033333", "city": "At'et'aft", "lon": "37.816667"}, {"lat": "11.483333", "city": "Atkilt", "lon": "37.666667"}, {"lat": "9.833333", "city": "At'net", "lon": "39.116667"}, {"lat": "9.716667", "city": "Ats'e Washa", "lon": "39.45"}, {"lat": "11.566667", "city": "Ats'ey Weyn", "lon": "37.766667"}, {"lat": "13.4", "city": "Auasa", "lon": "38.116667"}, {"lat": "10.816667", "city": "Ausa Jesus", "lon": "37.816667"}, {"lat": "13.1", "city": "Avergalle", "lon": "38.95"}, {"lat": "11.633333", "city": "Awariya", "lon": "39"}, {"lat": "10.566667", "city": "Awirt", "lon": "39.116667"}, {"lat": "9.966667", "city": "Awit", "lon": "39.466667"}, {"lat": "12.166667", "city": "Aybga", "lon": "37.016667"}, {"lat": "11.133333", "city": "Ayer", "lon": "39.133333"}, {"lat": "11.85", "city": "Ayib Be'ink'ib", "lon": "38.2"}, {"lat": "12.55", "city": "Ayikel", "lon": "37.066667"}, {"lat": "10.75", "city": "Ayit", "lon": "39.266667"}, {"lat": "10.8", "city": "Ayit Gora", "lon": "39.233333"}, {"lat": "12.516667", "city": "Aykel", "lon": "37.083333"}, {"lat": "10.433333", "city": "Ayk'olba", "lon": "38.416667"}, {"lat": "10.616667", "city": "Aymetir", "lon": "39.55"}, {"lat": "12.15", "city": "`Ayna", "lon": "38.85"}, {"lat": "12.3", "city": "Ayoha", "lon": "37.4"}, {"lat": "12.566667", "city": "Ayra", "lon": "37.45"}, {"lat": "12.083333", "city": "Ayt'ala", "lon": "39.25"}, {"lat": "11.4", "city": "Aytony", "lon": "37.9"}, {"lat": "12.233333", "city": "Ayu", "lon": "39.583333"}, {"lat": "10.516667", "city": "Ayzosh Amora", "lon": "39.666667"}, {"lat": "12.483333", "city": "Azaye", "lon": "37.483333"}, {"lat": "12.55", "city": "Azaza", "lon": "37.433333"}, {"lat": "12.55", "city": "Azaz\u00f2", "lon": "37.433333"}, {"lat": "10.666667", "city": "Azena", "lon": "36.783333"}, {"lat": "12.533333", "city": "Azezo", "lon": "37.433333"}, {"lat": "10.316667", "city": "Azma", "lon": "39.016667"}, {"lat": "12.116667", "city": "Azmazge", "lon": "39.35"}, {"lat": "12.433333", "city": "Aznan", "lon": "38.666667"}, {"lat": "12.55", "city": "Azoza", "lon": "37.433333"}, {"lat": "12.55", "city": "Azozo", "lon": "37.433333"}, {"lat": "11.566667", "city": "Azurit", "lon": "39.3"}, {"lat": "12.55", "city": "Azzazo", "lon": "37.433333"}, {"lat": "12.55", "city": "Azzoz\u00f2", "lon": "37.433333"}, {"lat": "13.183333", "city": "Baarna Abbo", "lon": "38.183333"}, {"lat": "11.5", "city": "Baba", "lon": "39.316667"}, {"lat": "11.6", "city": "Babardur Georgis", "lon": "37.383333"}, {"lat": "10.75", "city": "Babile", "lon": "39.833333"}, {"lat": "11.716667", "city": "Babingia", "lon": "38.9"}, {"lat": "11.516667", "city": "Babok'al", "lon": "39.233333"}, {"lat": "10.116667", "city": "Baca", "lon": "39.85"}, {"lat": "10.4", "city": "Bacet", "lon": "37.966667"}, {"lat": "10.4", "city": "Bachet", "lon": "37.966667"}, {"lat": "12.216667", "city": "Bach'ila", "lon": "37.85"}, {"lat": "11.066667", "city": "Badenneb", "lon": "37.633333"}, {"lat": "12.4", "city": "Badinia", "lon": "37.5"}, {"lat": "11.066667", "city": "Badnib", "lon": "37.633333"}, {"lat": "12.742222", "city": "Bagena Amba", "lon": "37.415556"}, {"lat": "12.742222", "city": "Bagena", "lon": "37.415556"}, {"lat": "10.733333", "city": "Baguina", "lon": "36.95"}, {"lat": "10.733333", "city": "Baguna", "lon": "36.95"}, {"lat": "11.6", "city": "Bahar", "lon": "37.383333"}, {"lat": "11.6", "city": "Bahar Dar", "lon": "37.383333"}, {"lat": "11.6", "city": "Bahar Dar Ghiorghis", "lon": "37.383333"}, {"lat": "11.6", "city": "Baherdar-Giyorgis", "lon": "37.383333"}, {"lat": "11.6", "city": "Bahir Dar", "lon": "37.383333"}, {"lat": "12.1", "city": "Bahita", "lon": "37.016667"}, {"lat": "11.3", "city": "Bahoch", "lon": "39.066667"}, {"lat": "11.6", "city": "Bahr Dar", "lon": "37.383333"}, {"lat": "11.6", "city": "Bahrdar Giyergio", "lon": "37.383333"}, {"lat": "11.6", "city": "Bahrdar Giyorgis", "lon": "37.383333"}, {"lat": "11.1", "city": "Baja", "lon": "39.3"}, {"lat": "12.066667", "city": "Balakurda", "lon": "38.85"}, {"lat": "12.416667", "city": "Balaza", "lon": "37.733333"}, {"lat": "8.866667", "city": "Balch'", "lon": "39.4"}, {"lat": "8.916667", "city": "Balch'i", "lon": "39.366667"}, {"lat": "8.916667", "city": "Balci", "lon": "39.366667"}, {"lat": "12.283333", "city": "Bale Kurma", "lon": "39.683333"}, {"lat": "8.916667", "city": "Balki", "lon": "39.366667"}, {"lat": "11.866667", "city": "Baltach", "lon": "39.233333"}, {"lat": "12.7", "city": "Bambelo", "lon": "37.583333"}, {"lat": "12.766667", "city": "Bambolina", "lon": "38.516667"}, {"lat": "12.766667", "city": "Bamboline", "lon": "38.516667"}, {"lat": "11.1", "city": "Bangia", "lon": "36.933333"}, {"lat": "11.783333", "city": "Bani Terara", "lon": "39.066667"}, {"lat": "11.1", "city": "Banja", "lon": "36.933333"}, {"lat": "12.65", "city": "Bara", "lon": "38.983333"}, {"lat": "11.716667", "city": "Barat", "lon": "38.983333"}, {"lat": "11.783333", "city": "Bardo", "lon": "37.133333"}, {"lat": "10.383333", "city": "Baremma", "lon": "37.65"}, {"lat": "11.1", "city": "Bargu", "lon": "40.05"}, {"lat": "10.7", "city": "Barigo", "lon": "39.566667"}, {"lat": "10.35", "city": "Bar Meda", "lon": "39.733333"}, {"lat": "11.216667", "city": "Barumied\u00e0", "lon": "39.65"}, {"lat": "12.583333", "city": "Barusha", "lon": "39"}, {"lat": "12.383333", "city": "Bas", "lon": "37.683333"}, {"lat": "12.033333", "city": "Basha", "lon": "37.616667"}, {"lat": "10.6", "city": "Basi", "lon": "37.016667"}, {"lat": "12.616667", "city": "Baskura", "lon": "37.433333"}, {"lat": "12.566667", "city": "Bastora", "lon": "37.133333"}, {"lat": "11.783333", "city": "Batele", "lon": "39"}, {"lat": "11.183333", "city": "Batia", "lon": "40.016667"}, {"lat": "11.183333", "city": "Bati", "lon": "40.016667"}, {"lat": "11.183333", "city": "Batie", "lon": "40.016667"}, {"lat": "12.2", "city": "Bawzan", "lon": "38.683333"}, {"lat": "12.466667", "city": "Baych'a", "lon": "38.616667"}, {"lat": "12.683333", "city": "Bayloge", "lon": "37.666667"}, {"lat": "9.983333", "city": "Baymot", "lon": "39.233333"}, {"lat": "10.966667", "city": "Bazana", "lon": "37"}, {"lat": "11.266667", "city": "Bazura", "lon": "39.15"}, {"lat": "12.3", "city": "Bebehabo", "lon": "37.116667"}, {"lat": "10.4", "city": "Becet", "lon": "37.966667"}, {"lat": "10.45", "city": "Bechana", "lon": "38.2"}, {"lat": "10.4", "city": "Bech'et", "lon": "37.966667"}, {"lat": "10.1", "city": "Bede", "lon": "39.05"}, {"lat": "9.833333", "city": "Bedebej", "lon": "38.833333"}, {"lat": "12.316667", "city": "Bedena Leko", "lon": "39.683333"}, {"lat": "10.883333", "city": "Bedeno", "lon": "39.8"}, {"lat": "10.516667", "city": "Begide", "lon": "39.266667"}, {"lat": "11.633333", "city": "Bego Ch'erek'a", "lon": "38.733333"}, {"lat": "12.316667", "city": "Begole'a", "lon": "39.2"}, {"lat": "12.016667", "city": "Beguoco", "lon": "39.683333"}, {"lat": "12.316667", "city": "Begwele'a", "lon": "39.2"}, {"lat": "12.3", "city": "Behaba Abbo", "lon": "37.116667"}, {"lat": "10.35", "city": "Beha", "lon": "39.133333"}, {"lat": "13.2", "city": "Beieda", "lon": "38.483333"}, {"lat": "11.416667", "city": "Beirat", "lon": "39.6"}, {"lat": "12.516667", "city": "Bela", "lon": "39.05"}, {"lat": "10.883333", "city": "Belaita", "lon": "37.75"}, {"lat": "11.883333", "city": "Belaya", "lon": "36.433333"}, {"lat": "12.4", "city": "Belcoac", "lon": "39.05"}, {"lat": "10.8", "city": "Belele", "lon": "39.416667"}, {"lat": "13.048772", "city": "Belenta", "lon": "39.011596"}, {"lat": "12.416667", "city": "Belesa", "lon": "37.733333"}, {"lat": "12.416667", "city": "Beleza", "lon": "37.733333"}, {"lat": "11.666667", "city": "Belina", "lon": "39.85"}, {"lat": "10.35", "city": "Bena", "lon": "39.133333"}, {"lat": "11.716667", "city": "Ben", "lon": "38.9"}, {"lat": "12.933333", "city": "Bencher", "lon": "37.766667"}, {"lat": "11.1", "city": "Bengia", "lon": "36.933333"}, {"lat": "11.45", "city": "Benina", "lon": "39.316667"}, {"lat": "11.1", "city": "Benja", "lon": "36.933333"}, {"lat": "11.116667", "city": "Berat Sanca Gheorghis", "lon": "38.75"}, {"lat": "11.116667", "city": "Berat-Sanc\u00e0 Ghiorghis", "lon": "38.75"}, {"lat": "11.116667", "city": "Berat-Sank\u00e0 Ghiorgis", "lon": "38.75"}, {"lat": "10.333333", "city": "Berben Zimma", "lon": "37.383333"}, {"lat": "11.383333", "city": "Ber", "lon": "38.4"}, {"lat": "10.333333", "city": "Berbeti Zimma", "lon": "37.383333"}, {"lat": "12.216667", "city": "Bercuacua", "lon": "38.65"}, {"lat": "10.7", "city": "Bereda", "lon": "39.016667"}, {"lat": "11.3", "city": "Berejat", "lon": "39.3"}, {"lat": "9.916667", "city": "Beresa", "lon": "38.833333"}, {"lat": "9.916667", "city": "Beressa", "lon": "38.833333"}, {"lat": "10.616667", "city": "Beret Wenz", "lon": "39.666667"}, {"lat": "11.25", "city": "Berk'ana", "lon": "39.466667"}, {"lat": "13.422778", "city": "Ber Maryam", "lon": "38.035833"}, {"lat": "12.066667", "city": "Ber Metebek'iye", "lon": "39.116667"}, {"lat": "10.966667", "city": "Bero", "lon": "39.783333"}, {"lat": "10.55", "city": "Bertete", "lon": "39.233333"}, {"lat": "12.216667", "city": "Bestekan", "lon": "39.133333"}, {"lat": "11.416667", "city": "Bet Ansa", "lon": "38"}, {"lat": "12.05", "city": "Betara", "lon": "39.4"}, {"lat": "11.616667", "city": "Bete Hor", "lon": "39.033333"}, {"lat": "9.983333", "city": "Bete Nigus", "lon": "37.8"}, {"lat": "11.666667", "city": "Bete Yohanis", "lon": "38.983333"}, {"lat": "10.116667", "city": "Betgar", "lon": "39.483333"}, {"lat": "11.616667", "city": "Bethor", "lon": "39.033333"}, {"lat": "11.616667", "city": "Betor", "lon": "39.033333"}, {"lat": "12.6", "city": "Beyza", "lon": "38.966667"}, {"lat": "10.966667", "city": "Bezzena", "lon": "37"}, {"lat": "12.516667", "city": "Biala", "lon": "39.05"}, {"lat": "10.45", "city": "Biccena", "lon": "38.2"}, {"lat": "10.45", "city": "Bichana", "lon": "38.2"}, {"lat": "12.466667", "city": "Bichemer", "lon": "37.45"}, {"lat": "10.45", "city": "Bichena", "lon": "38.2"}, {"lat": "9.283333", "city": "Bich'enk'eny", "lon": "39.816667"}, {"lat": "12.25", "city": "Bich'ro", "lon": "39.55"}, {"lat": "11.083333", "city": "Bidersa", "lon": "39.833333"}, {"lat": "12.066667", "city": "Biet Ambessa", "lon": "39.083333"}, {"lat": "11.066667", "city": "Bigunj", "lon": "39.15"}, {"lat": "12.65", "city": "Bihon", "lon": "37.466667"}, {"lat": "10.866667", "city": "Bihur Meda", "lon": "38.633333"}, {"lat": "10.016667", "city": "Bik'ita", "lon": "38.9"}, {"lat": "11.45", "city": "Bila", "lon": "40"}, {"lat": "12.6", "city": "Bilajig", "lon": "37.433333"}, {"lat": "12.583333", "city": "Bilat", "lon": "39.133333"}, {"lat": "12.333333", "city": "Bilbaho", "lon": "37.766667"}, {"lat": "12.183333", "city": "Bilbala", "lon": "38.966667"}, {"lat": "12.183333", "city": "Bilbala Gherghis", "lon": "38.966667"}, {"lat": "12.183333", "city": "Bilbala Gorgis", "lon": "38.966667"}, {"lat": "12.183333", "city": "Bilbiola Gheorghis", "lon": "38.966667"}, {"lat": "11.283333", "city": "Bile", "lon": "39.666667"}, {"lat": "11.683333", "city": "Bina", "lon": "39.216667"}, {"lat": "11.866667", "city": "Bir Afaf", "lon": "39.133333"}, {"lat": "10.466667", "city": "Birbira", "lon": "39.916667"}, {"lat": "12.6", "city": "Birbir", "lon": "39.066667"}, {"lat": "10.883333", "city": "Birbirsa", "lon": "39.033333"}, {"lat": "10.05", "city": "Bircato", "lon": "39.016667"}, {"lat": "12", "city": "Bireyli", "lon": "39.716667"}, {"lat": "12.216667", "city": "Birgida", "lon": "37.283333"}, {"lat": "11.266667", "city": "Biriti", "lon": "39.766667"}, {"lat": "12.1", "city": "Birkumit", "lon": "39.35"}, {"lat": "9.95", "city": "Birk'wa", "lon": "39.5"}, {"lat": "12.216667", "city": "Birkwakwa", "lon": "38.65"}, {"lat": "12.233333", "city": "Birk'wak'wa", "lon": "38.75"}, {"lat": "13.5", "city": "Birri", "lon": "37.966667"}, {"lat": "11.333333", "city": "Bistima", "lon": "39.766667"}, {"lat": "10.383333", "city": "Bit'a", "lon": "39.133333"}, {"lat": "11.4", "city": "Biterfo", "lon": "39.083333"}, {"lat": "10.766667", "city": "Bitilta Zebraro", "lon": "36.783333"}, {"lat": "12.266667", "city": "Bitimo", "lon": "39.6"}, {"lat": "12.766667", "city": "Bitirtiko", "lon": "39.05"}, {"lat": "11.616667", "city": "Bitor", "lon": "39.033333"}, {"lat": "11.883333", "city": "Bit'oy", "lon": "39.083333"}, {"lat": "12.6", "city": "Biws", "lon": "39.1"}, {"lat": "10.766667", "city": "Biyo", "lon": "39"}, {"lat": "11.75", "city": "Bizeb", "lon": "37.5"}, {"lat": "10.366667", "city": "Bode", "lon": "39.066667"}, {"lat": "12.4", "city": "Bodela", "lon": "36.116667"}, {"lat": "10.7", "city": "Boglie", "lon": "37.166667"}, {"lat": "11.383333", "city": "Bogsa", "lon": "39.883333"}, {"lat": "10.733333", "city": "Boguina", "lon": "36.95"}, {"lat": "9.8", "city": "Boled", "lon": "39.033333"}, {"lat": "8.833333", "city": "Bollo Selassie", "lon": "39.366667"}, {"lat": "10.95", "city": "Bolo", "lon": "39.566667"}, {"lat": "10.683333", "city": "Bonya", "lon": "39.083333"}, {"lat": "10.733333", "city": "Bora", "lon": "40.05"}, {"lat": "10.7", "city": "Borebo", "lon": "36.533333"}, {"lat": "10.4", "city": "Borebor", "lon": "38.416667"}, {"lat": "10.75", "city": "Borena", "lon": "38.766667"}, {"lat": "10.45", "city": "Boren", "lon": "39.416667"}, {"lat": "12.683333", "city": "Borni", "lon": "36.016667"}, {"lat": "10.016667", "city": "Boro Areda", "lon": "38.766667"}, {"lat": "11.216667", "city": "Boru Debre Birhan", "lon": "39.65"}, {"lat": "11.216667", "city": "Borumieda", "lon": "39.65"}, {"lat": "13.15", "city": "Bosa", "lon": "37.816667"}, {"lat": "10.75", "city": "Bot Gheorgis", "lon": "37.4"}, {"lat": "10.75", "city": "Bot Ghiorghis", "lon": "37.4"}, {"lat": "9.8", "city": "Boulle", "lon": "39.033333"}, {"lat": "11.816667", "city": "Boya", "lon": "38.983333"}, {"lat": "12.1", "city": "Brigandet", "lon": "39.483333"}, {"lat": "12.3", "city": "Bufeli", "lon": "39.616667"}, {"lat": "11.666667", "city": "Bukero", "lon": "39.6"}, {"lat": "12.583333", "city": "Bularge", "lon": "37.083333"}, {"lat": "11.65", "city": "Bulbula", "lon": "40"}, {"lat": "9.483333", "city": "Bura", "lon": "39.466667"}, {"lat": "10.7", "city": "Bure", "lon": "37.066667"}, {"lat": "10.7", "city": "Burie", "lon": "37.066667"}, {"lat": "10.716667", "city": "Burk'a", "lon": "39.1"}, {"lat": "9.05", "city": "Burk'ik'e", "lon": "39.633333"}, {"lat": "11.916667", "city": "Buro Gabriet", "lon": "38.05"}, {"lat": "11.183333", "city": "Buruk'itu", "lon": "39.25"}, {"lat": "10.7", "city": "Burye", "lon": "37.066667"}, {"lat": "13.116667", "city": "Caba", "lon": "37.933333"}, {"lat": "9.833333", "city": "Cabi", "lon": "38.916667"}, {"lat": "12.1", "city": "Cacuaha", "lon": "36.1"}, {"lat": "10.35", "city": "Cadambo Ghiorghis", "lon": "39.733333"}, {"lat": "12.433333", "city": "Caena Tesama", "lon": "37.516667"}, {"lat": "10.466667", "city": "Calal\u00e0", "lon": "38.8"}, {"lat": "12.9", "city": "Cambildge", "lon": "37.766667"}, {"lat": "11.083333", "city": "Cambolcia", "lon": "39.733333"}, {"lat": "11.883333", "city": "Cancella", "lon": "37.033333"}, {"lat": "11.883333", "city": "Cansela", "lon": "37.033333"}, {"lat": "13.1", "city": "Canta", "lon": "37.6"}, {"lat": "11.45", "city": "Cantafa", "lon": "36.9"}, {"lat": "10.416667", "city": "Caracore", "lon": "39.933333"}, {"lat": "11.166667", "city": "Carra", "lon": "40.066667"}, {"lat": "10.716667", "city": "Cascim", "lon": "39.866667"}, {"lat": "10.85", "city": "Casta", "lon": "39.183333"}, {"lat": "10.85", "city": "Cast", "lon": "39.183333"}, {"lat": "12.55", "city": "Celga", "lon": "37.066667"}, {"lat": "12.316667", "city": "Cencher", "lon": "37.266667"}, {"lat": "12.316667", "city": "Cencher Mariam", "lon": "37.266667"}, {"lat": "12.95", "city": "Cengia", "lon": "36.2"}, {"lat": "12.316667", "city": "Cenher Mariam", "lon": "37.266667"}, {"lat": "12.316667", "city": "Cenner", "lon": "37.266667"}, {"lat": "12.233333", "city": "Cercir Abo", "lon": "38.75"}, {"lat": "11.416667", "city": "Cercusquam", "lon": "37.016667"}, {"lat": "10.6", "city": "Cereca", "lon": "37.433333"}, {"lat": "9.066667", "city": "Ch'aba", "lon": "39.616667"}, {"lat": "11.783333", "city": "Ch'abo", "lon": "38.983333"}, {"lat": "9.533333", "city": "Ch'ach'a", "lon": "39.45"}, {"lat": "9.916667", "city": "Ch'ach'at", "lon": "39.266667"}, {"lat": "12.266667", "city": "Chach", "lon": "37.1"}, {"lat": "12.616667", "city": "Ch'ach'k'una", "lon": "37.35"}, {"lat": "10.95", "city": "Chagne", "lon": "36.5"}, {"lat": "10.533333", "city": "Ch'aketa", "lon": "38.55"}, {"lat": "12.266667", "city": "Ch'ak'irna", "lon": "37.066667"}, {"lat": "11.883333", "city": "Ch'alma", "lon": "37.85"}, {"lat": "12.233333", "city": "Ch'amak'", "lon": "37.75"}, {"lat": "11.733333", "city": "Ch'an", "lon": "37.716667"}, {"lat": "12.316667", "city": "Ch'anch'ayo", "lon": "37.75"}, {"lat": "12.416667", "city": "Ch'andiba", "lon": "37.033333"}, {"lat": "13.15", "city": "Ch'ank'", "lon": "37.816667"}, {"lat": "12.133333", "city": "Ch'ank'e", "lon": "36.983333"}, {"lat": "9.95", "city": "Ch'aso", "lon": "39.216667"}, {"lat": "10.166667", "city": "Ch'at Wiha", "lon": "39.333333"}, {"lat": "10.166667", "city": "Ch'at Wina", "lon": "39.333333"}, {"lat": "10.6", "city": "Ch'ech'ebdu", "lon": "39.366667"}, {"lat": "12.983333", "city": "Chechin", "lon": "39.016667"}, {"lat": "10.95", "city": "Ch'efa Bad", "lon": "39.266667"}, {"lat": "11", "city": "Ch'efa", "lon": "39.766667"}, {"lat": "9.133333", "city": "Ch'efe", "lon": "39.4"}, {"lat": "10.416667", "city": "Ch'efe Michiny", "lon": "39.283333"}, {"lat": "12.433333", "city": "Ch'egen", "lon": "37.2"}, {"lat": "13.35", "city": "Ch'egwar Kudo", "lon": "37.383333"}, {"lat": "11.716667", "city": "Ch'ekerefta", "lon": "38.783333"}, {"lat": "10.7", "city": "Chelag", "lon": "36.533333"}, {"lat": "13.433333", "city": "Chelala", "lon": "38.3"}, {"lat": "10.5", "city": "Ch'elek'uma", "lon": "37.416667"}, {"lat": "12.55", "city": "Ch'elga", "lon": "37.066667"}, {"lat": "9.483333", "city": "Chelila", "lon": "39.616667"}, {"lat": "10.2", "city": "Ch'emere", "lon": "38.933333"}, {"lat": "10.3", "city": "Ch'emoga", "lon": "37.766667"}, {"lat": "12.3", "city": "Ch'emrore", "lon": "38.85"}, {"lat": "9.933333", "city": "Ch'endefo", "lon": "37.733333"}, {"lat": "11.516667", "city": "Chenefer", "lon": "39.066667"}, {"lat": "12.316667", "city": "Chenker", "lon": "37.266667"}, {"lat": "11.566667", "city": "Ch'enta", "lon": "37.266667"}, {"lat": "10.966667", "city": "Cheranio", "lon": "37.966667"}, {"lat": "12.75", "city": "Ch'eray", "lon": "39.283333"}, {"lat": "12.8", "city": "Cherbra", "lon": "36.9"}, {"lat": "10.016667", "city": "Ch'er", "lon": "37.75"}, {"lat": "12.316667", "city": "Ch'erch'er", "lon": "38.716667"}, {"lat": "9.816667", "city": "Chere Amba", "lon": "39.916667"}, {"lat": "9.75", "city": "Cherit", "lon": "39.5"}, {"lat": "11.016667", "city": "Ch'erk'wa", "lon": "39.683333"}, {"lat": "13.422778", "city": "Ch'ew Ber", "lon": "38.035833"}, {"lat": "10.283333", "city": "Ch'ew Wiha", "lon": "39.45"}, {"lat": "10.766667", "city": "Ch'ibach'ibasa", "lon": "36.866667"}, {"lat": "10.366667", "city": "Ch'ibas", "lon": "39.616667"}, {"lat": "12.6", "city": "Ch'ich'imara", "lon": "37.633333"}, {"lat": "10.233333", "city": "Ch'ifar", "lon": "38.066667"}, {"lat": "11.316667", "city": "Ch'ifeta", "lon": "39.9"}, {"lat": "11.6", "city": "Ch'ifra", "lon": "40.016667"}, {"lat": "11.533333", "city": "Ch'iftu", "lon": "39.983333"}, {"lat": "10.016667", "city": "Ch'ik'ach", "lon": "38.95"}, {"lat": "13.116667", "city": "Ch'ik'ara", "lon": "37.85"}, {"lat": "13", "city": "Ch'ila", "lon": "38.083333"}, {"lat": "12.533333", "city": "Chilarwa", "lon": "39.183333"}, {"lat": "12.8", "city": "Chilehiyo", "lon": "38.95"}, {"lat": "9.8", "city": "Ch'ilema Washa", "lon": "39.533333"}, {"lat": "12.55", "city": "Chilga", "lon": "37.066667"}, {"lat": "9.433333", "city": "Ch'ilgi", "lon": "39.666667"}, {"lat": "12.55", "city": "Ch'ilgiya", "lon": "37.066667"}, {"lat": "12.683333", "city": "Chilibra", "lon": "39"}, {"lat": "10.85", "city": "Chilwa", "lon": "39.333333"}, {"lat": "11.633333", "city": "Ch'imbil", "lon": "37.45"}, {"lat": "11.316667", "city": "Chincha", "lon": "38.983333"}, {"lat": "11.533333", "city": "Ch'ini", "lon": "39.966667"}, {"lat": "11.933333", "city": "Ch'intoy", "lon": "38.15"}, {"lat": "11.883333", "city": "Chinzela", "lon": "37.033333"}, {"lat": "12.416667", "city": "Chirchemesc", "lon": "36.75"}, {"lat": "12.416667", "city": "Chirchemesce", "lon": "36.75"}, {"lat": "12.983333", "city": "Chirchin", "lon": "36.883333"}, {"lat": "10.933333", "city": "Ch'irecha", "lon": "39.416667"}, {"lat": "10.6", "city": "Ch'iret'e", "lon": "39.916667"}, {"lat": "10.833333", "city": "Ch'iri Ager", "lon": "39.816667"}, {"lat": "10.666667", "city": "Ch'isa", "lon": "39.383333"}, {"lat": "9.066667", "city": "Choba", "lon": "39.616667"}, {"lat": "10.933333", "city": "Ch'obi", "lon": "40.05"}, {"lat": "10.966667", "city": "Ch'ome", "lon": "39.366667"}, {"lat": "11.216667", "city": "Ch'ore Amba", "lon": "39.3"}, {"lat": "9.066667", "city": "Chowa", "lon": "39.616667"}, {"lat": "11.116667", "city": "Ch'ufi", "lon": "40.116667"}, {"lat": "12.383333", "city": "Chula", "lon": "37.15"}, {"lat": "11.133333", "city": "Ch'ungwa", "lon": "38.933333"}, {"lat": "12.334444", "city": "Ch'wahit", "lon": "37.226389"}, {"lat": "10.683333", "city": "Ciacu", "lon": "36.366667"}, {"lat": "9.933333", "city": "Ciandeto", "lon": "37.733333"}, {"lat": "10.516667", "city": "Ciara", "lon": "39.95"}, {"lat": "13.283333", "city": "Ciardaqua", "lon": "37.65"}, {"lat": "13.283333", "city": "Ciarduqua", "lon": "37.65"}, {"lat": "12.866667", "city": "Ciarveta", "lon": "37.7"}, {"lat": "12.883333", "city": "Ciarveta Gheorghis", "lon": "37.7"}, {"lat": "12.883333", "city": "Ciarveta Giorgis", "lon": "37.7"}, {"lat": "10.85", "city": "Cima", "lon": "37.016667"}, {"lat": "12.6", "city": "Cincilla", "lon": "37.433333"}, {"lat": "9.066667", "city": "Ciob\u00e0", "lon": "39.616667"}, {"lat": "12.2", "city": "Ciobi", "lon": "39.65"}, {"lat": "13.35", "city": "Ciogguar Cudo", "lon": "37.383333"}, {"lat": "12.15", "city": "Cobbo", "lon": "39.633333"}, {"lat": "11.883333", "city": "Cobie", "lon": "39.7"}, {"lat": "12.866667", "city": "Cola", "lon": "37.516667"}, {"lat": "12.916667", "city": "Collit", "lon": "36.216667"}, {"lat": "12.833333", "city": "Comar", "lon": "36.25"}, {"lat": "11.083333", "city": "Combolcha", "lon": "39.733333"}, {"lat": "11.083333", "city": "Combolcia", "lon": "39.733333"}, {"lat": "12.583333", "city": "Contur", "lon": "37.183333"}, {"lat": "10.033333", "city": "Corc", "lon": "37.816667"}, {"lat": "11.316667", "city": "Coreb", "lon": "38.9"}, {"lat": "12.316667", "city": "Corissa", "lon": "38.466667"}, {"lat": "10.033333", "city": "Coro", "lon": "37.816667"}, {"lat": "9.216667", "city": "Coromasc", "lon": "39.3"}, {"lat": "13.4", "city": "Cosso", "lon": "38.266667"}, {"lat": "10.933333", "city": "Cotti\u00e8", "lon": "39.666667"}, {"lat": "12.15", "city": "Cua Amba", "lon": "38.55"}, {"lat": "11.333333", "city": "Cuassa Abbo", "lon": "38.316667"}, {"lat": "10.966667", "city": "Cule", "lon": "37.2"}, {"lat": "9.666667", "city": "Cundi", "lon": "39.716667"}, {"lat": "11.616667", "city": "Cuocamba", "lon": "38.9"}, {"lat": "11.05", "city": "Curcureta", "lon": "39.783333"}, {"lat": "10.366667", "city": "Curie", "lon": "39.616667"}, {"lat": "11.5", "city": "Cuscul", "lon": "37.05"}, {"lat": "8.983333", "city": "Cutebab", "lon": "39.55"}, {"lat": "13.156111", "city": "Dabark'", "lon": "37.898056"}, {"lat": "13.156111", "city": "Dabarq", "lon": "37.898056"}, {"lat": "12.984167", "city": "Dabat", "lon": "37.765"}, {"lat": "10.833333", "city": "Dabdo", "lon": "39.733333"}, {"lat": "12.166667", "city": "Dabiye", "lon": "39.05"}, {"lat": "10.35", "city": "Dabra-7arqos", "lon": "37.733333"}, {"lat": "9.683333", "city": "Dabra Berham", "lon": "39.533333"}, {"lat": "9.683333", "city": "Dabra-Berhan", "lon": "39.533333"}, {"lat": "10.35", "city": "Dabra Marko's", "lon": "37.733333"}, {"lat": "11.85", "city": "Dabra-Tabor", "lon": "38.016667"}, {"lat": "11.9", "city": "Dabra Tsekay", "lon": "39.35"}, {"lat": "10.666667", "city": "Dabra Wark'", "lon": "38.166667"}, {"lat": "10.666667", "city": "Dabra-Warq", "lon": "38.166667"}, {"lat": "11.816667", "city": "Dabrazabat", "lon": "38.583333"}, {"lat": "12.45", "city": "Dacna", "lon": "38.85"}, {"lat": "13.064444", "city": "Dacua", "lon": "37.823611"}, {"lat": "11.033333", "city": "Dadula", "lon": "38.9"}, {"lat": "9.183333", "city": "Dagete", "lon": "39.766667"}, {"lat": "11.25", "city": "Daghi", "lon": "37.083333"}, {"lat": "9.616667", "city": "Dagiat", "lon": "39.65"}, {"lat": "12.85", "city": "Dagibi", "lon": "39.1"}, {"lat": "12.462222", "city": "Dagoma", "lon": "37.712778"}, {"lat": "10.016667", "city": "Dahahila", "lon": "38.983333"}, {"lat": "12.45", "city": "Dahana", "lon": "38.85"}, {"lat": "12.984167", "city": "Dahat", "lon": "37.765"}, {"lat": "12.266667", "city": "Dahna", "lon": "37.316667"}, {"lat": "10.533333", "city": "Dair", "lon": "39.616667"}, {"lat": "9.466667", "city": "Dajet", "lon": "39.516667"}, {"lat": "11.35", "city": "Dala", "lon": "39.316667"}, {"lat": "9.666667", "city": "Daleti", "lon": "39.433333"}, {"lat": "9.833333", "city": "Dalota", "lon": "38.916667"}, {"lat": "10.55", "city": "Dambach'a", "lon": "37.483333"}, {"lat": "12.183333", "city": "Dame", "lon": "37.033333"}, {"lat": "11.033333", "city": "Dameto", "lon": "40.116667"}, {"lat": "11.45", "city": "Damot", "lon": "38.166667"}, {"lat": "12.466667", "city": "Dancaz", "lon": "37.616667"}, {"lat": "11.25", "city": "Dangera", "lon": "36.9"}, {"lat": "11.266667", "city": "Danghela", "lon": "36.833333"}, {"lat": "11.266667", "city": "Danghila", "lon": "36.833333"}, {"lat": "11.266667", "city": "Danghilla", "lon": "36.833333"}, {"lat": "10.666667", "city": "Dangiama", "lon": "38.233333"}, {"lat": "11.266667", "city": "Dangila", "lon": "36.833333"}, {"lat": "11.266667", "city": "Dangla", "lon": "36.833333"}, {"lat": "11.466667", "city": "Danguel", "lon": "37.283333"}, {"lat": "12.871389", "city": "Dangura", "lon": "37.095278"}, {"lat": "11.75", "city": "Dangur", "lon": "36.183333"}, {"lat": "10.666667", "city": "Dangyame", "lon": "38.233333"}, {"lat": "12.466667", "city": "Dankaz", "lon": "37.616667"}, {"lat": "12.466667", "city": "Danqaz", "lon": "37.616667"}, {"lat": "11.066667", "city": "Danya", "lon": "39.666667"}, {"lat": "9.7", "city": "Danye", "lon": "39.633333"}, {"lat": "11.466667", "city": "Daont", "lon": "38.983333"}, {"lat": "12.483333", "city": "Daraconsi", "lon": "38.883333"}, {"lat": "12.916667", "city": "Dara", "lon": "37.783333"}, {"lat": "13.033333", "city": "Darasge", "lon": "38.183333"}, {"lat": "10.5", "city": "Darat", "lon": "39.583333"}, {"lat": "11.4", "city": "Darechera", "lon": "37.883333"}, {"lat": "13.266667", "city": "Darioa", "lon": "37.85"}, {"lat": "12.266667", "city": "Darna", "lon": "37.316667"}, {"lat": "9.766667", "city": "Dar Nebba", "lon": "39.2"}, {"lat": "10.533333", "city": "Dasa", "lon": "39.616667"}, {"lat": "12.383333", "city": "Das", "lon": "37.683333"}, {"lat": "11.133333", "city": "Dase", "lon": "39.633333"}, {"lat": "11.466667", "city": "Daunt", "lon": "38.983333"}, {"lat": "13.156111", "city": "Davark", "lon": "37.898056"}, {"lat": "9.366667", "city": "Dawile", "lon": "39.616667"}, {"lat": "11.466667", "city": "Dawint", "lon": "38.983333"}, {"lat": "9.833333", "city": "Dawo", "lon": "39.216667"}, {"lat": "11.433333", "city": "Daya", "lon": "38.766667"}, {"lat": "10.533333", "city": "Dayer", "lon": "39.45"}, {"lat": "12.183333", "city": "Dazariya", "lon": "39.1"}, {"lat": "13.156111", "city": "Debarec", "lon": "37.898056"}, {"lat": "13.156111", "city": "Debarech", "lon": "37.898056"}, {"lat": "13.233333", "city": "Debarec Nuova", "lon": "37.883333"}, {"lat": "13.156111", "city": "Debarek", "lon": "37.898056"}, {"lat": "13.156111", "city": "Debark'", "lon": "37.898056"}, {"lat": "11.066667", "city": "Debay", "lon": "38.833333"}, {"lat": "13.233333", "city": "Debbivar", "lon": "37.883333"}, {"lat": "13.233333", "city": "Debebahir", "lon": "37.883333"}, {"lat": "11.383333", "city": "Debec\u00e0m", "lon": "37.083333"}, {"lat": "11.916667", "city": "Debelima", "lon": "38.25"}, {"lat": "11.916667", "city": "Debeliman", "lon": "38.25"}, {"lat": "12.45", "city": "Deberega", "lon": "37.116667"}, {"lat": "12.45", "city": "Deberiga", "lon": "37.116667"}, {"lat": "13.233333", "city": "Debevar", "lon": "37.883333"}, {"lat": "11.116667", "city": "Debir", "lon": "37.933333"}, {"lat": "11.7", "city": "Debir Duba", "lon": "37.216667"}, {"lat": "13.233333", "city": "Debivar", "lon": "37.883333"}, {"lat": "10.483333", "city": "Debora Guracha", "lon": "39.266667"}, {"lat": "11.933333", "city": "Debot", "lon": "39.383333"}, {"lat": "9.683333", "city": "Debra Berham", "lon": "39.533333"}, {"lat": "9.683333", "city": "Debra Berhan", "lon": "39.533333"}, {"lat": "9.683333", "city": "Debra Birhan", "lon": "39.533333"}, {"lat": "9.683333", "city": "Debra Brehan", "lon": "39.533333"}, {"lat": "10.35", "city": "Debra Ghelele", "lon": "39.933333"}, {"lat": "11.383333", "city": "Debrakoni", "lon": "37.083333"}, {"lat": "11.366667", "city": "Debra Mai", "lon": "37.383333"}, {"lat": "10.35", "city": "Debra Marcos", "lon": "37.733333"}, {"lat": "10.35", "city": "Debra Markos", "lon": "37.733333"}, {"lat": "9.85", "city": "Debra Sina", "lon": "39.766667"}, {"lat": "11.85", "city": "Debra Tabor", "lon": "38.016667"}, {"lat": "10.666667", "city": "Debra Uerch", "lon": "38.166667"}, {"lat": "10.666667", "city": "Debra Uorc", "lon": "38.166667"}, {"lat": "10.666667", "city": "Debra Uorch", "lon": "38.166667"}, {"lat": "10.666667", "city": "Debra Uork", "lon": "38.166667"}, {"lat": "10.666667", "city": "Debra Wark", "lon": "38.166667"}, {"lat": "10.666667", "city": "Debra Werk", "lon": "38.166667"}, {"lat": "10.666667", "city": "Debra Work", "lon": "38.166667"}, {"lat": "11.816667", "city": "Debra Zebit", "lon": "38.583333"}, {"lat": "9.683333", "city": "Debre Berhan", "lon": "39.533333"}, {"lat": "9.683333", "city": "Debre Birhan", "lon": "39.533333"}, {"lat": "10.3", "city": "Debre Eliyas", "lon": "37.466667"}, {"lat": "10.35", "city": "Debre Marcos", "lon": "37.733333"}, {"lat": "10.35", "city": "Debre Mark'os", "lon": "37.733333"}, {"lat": "11.55", "city": "Debre Maryam", "lon": "37.616667"}, {"lat": "11.366667", "city": "Debre May", "lon": "37.383333"}, {"lat": "11.716667", "city": "Debre Medahani", "lon": "38.366667"}, {"lat": "9.85", "city": "Debre Sina", "lon": "39.766667"}, {"lat": "11.85", "city": "Debre Tabor", "lon": "38.016667"}, {"lat": "11.383333", "city": "Debre Ts'ehay", "lon": "37.083333"}, {"lat": "10.55", "city": "Debre Ts'ige", "lon": "38.733333"}, {"lat": "10.666667", "city": "Debre Werk'", "lon": "38.166667"}, {"lat": "10.883333", "city": "Debre Ya`ik'ob", "lon": "38.216667"}, {"lat": "11.816667", "city": "Debre Zebit", "lon": "38.583333"}, {"lat": "10.466667", "city": "Debre Zeyit", "lon": "37.8"}, {"lat": "12.216667", "city": "Debtera Got'", "lon": "36.916667"}, {"lat": "13.333333", "city": "Decagaro", "lon": "37.133333"}, {"lat": "11.233333", "city": "Dedeho", "lon": "39.183333"}, {"lat": "11.183333", "city": "Dedere", "lon": "39.15"}, {"lat": "11.5", "city": "Defer", "lon": "39.033333"}, {"lat": "10.516667", "city": "Degaga", "lon": "39.966667"}, {"lat": "11.416667", "city": "Dega Majete", "lon": "39.15"}, {"lat": "11.15", "city": "Degan", "lon": "39.9"}, {"lat": "10.916667", "city": "Dega Tsion", "lon": "37.65"}, {"lat": "11.883333", "city": "Degbassa", "lon": "36.633333"}, {"lat": "11.433333", "city": "Degela", "lon": "38.816667"}, {"lat": "10.166667", "city": "Degen", "lon": "38.133333"}, {"lat": "10.433333", "city": "Deger", "lon": "38.983333"}, {"lat": "10.416667", "city": "Degiy", "lon": "39.016667"}, {"lat": "11.683333", "city": "Degol", "lon": "37.75"}, {"lat": "10.416667", "city": "Degolo", "lon": "39.25"}, {"lat": "12.462222", "city": "Degoma", "lon": "37.712778"}, {"lat": "10.183333", "city": "Degore", "lon": "38.983333"}, {"lat": "12.116667", "city": "Degosay", "lon": "39.066667"}, {"lat": "10.916667", "city": "Dego Tsiyon", "lon": "37.65"}, {"lat": "12.462222", "city": "Deguma", "lon": "37.712778"}, {"lat": "9.966667", "city": "Dehana", "lon": "39.683333"}, {"lat": "10.166667", "city": "Dejen", "lon": "38.133333"}, {"lat": "13.383333", "city": "Dek'aba", "lon": "37.266667"}, {"lat": "11.633333", "city": "Dek'e", "lon": "37.333333"}, {"lat": "12.516667", "city": "Delaba", "lon": "38.933333"}, {"lat": "11.516667", "city": "Delache", "lon": "37.016667"}, {"lat": "11.166667", "city": "Delante", "lon": "39.483333"}, {"lat": "11.466667", "city": "Delay Mele", "lon": "40.016667"}, {"lat": "12.416667", "city": "Deldalit", "lon": "37.55"}, {"lat": "12.183333", "city": "Delego", "lon": "37.9"}, {"lat": "11.516667", "city": "Deleket", "lon": "37.016667"}, {"lat": "12.2", "city": "Delgh", "lon": "37.05"}, {"lat": "12.2", "city": "Delghi", "lon": "37.05"}, {"lat": "12.2", "city": "Delgi", "lon": "37.05"}, {"lat": "10.616667", "city": "Del Mika'el", "lon": "39.55"}, {"lat": "11.583333", "city": "Dema", "lon": "37.533333"}, {"lat": "10.55", "city": "Dembeccia", "lon": "37.483333"}, {"lat": "10.55", "city": "Dembech'a", "lon": "37.483333"}, {"lat": "10.55", "city": "Dembechia", "lon": "37.483333"}, {"lat": "11.6", "city": "Dem Bet", "lon": "39.383333"}, {"lat": "8.866667", "city": "Dembi", "lon": "39.516667"}, {"lat": "12.883333", "city": "Dembie", "lon": "36.983333"}, {"lat": "10.633333", "city": "Dembiya", "lon": "39.3"}, {"lat": "11.816667", "city": "Demeka", "lon": "37.233333"}, {"lat": "10.166667", "city": "Demk'a", "lon": "39.166667"}, {"lat": "11.033333", "city": "Demoto", "lon": "40.116667"}, {"lat": "11.8", "city": "Demt'a", "lon": "39.5"}, {"lat": "10.55", "city": "Denbecha", "lon": "37.483333"}, {"lat": "10.633333", "city": "Denbi Mekane Selam", "lon": "38.783333"}, {"lat": "11.65", "city": "Dench'u", "lon": "37.2"}, {"lat": "10.1", "city": "Den", "lon": "37.683333"}, {"lat": "11.283333", "city": "Dender", "lon": "38.766667"}, {"lat": "10.516667", "city": "Dendewaj", "lon": "38.083333"}, {"lat": "9.766667", "city": "Deneba", "lon": "39.166667"}, {"lat": "11.633333", "city": "Denfel", "lon": "38.583333"}, {"lat": "10.8", "city": "Dengara Mariam", "lon": "37.283333"}, {"lat": "10.8", "city": "Dengara Maryam", "lon": "37.283333"}, {"lat": "11.95", "city": "Dengelbar", "lon": "37"}, {"lat": "11.95", "city": "Dengel Ber", "lon": "37"}, {"lat": "11.166667", "city": "Dengel", "lon": "37.65"}, {"lat": "10.016667", "city": "Dengeze", "lon": "39.466667"}, {"lat": "11.95", "city": "Denghelbar", "lon": "37"}, {"lat": "11.95", "city": "Denghelber", "lon": "37"}, {"lat": "11.466667", "city": "Denghet", "lon": "37.283333"}, {"lat": "12.283333", "city": "Dengi", "lon": "37.383333"}, {"lat": "11.683333", "city": "Dengola", "lon": "39.5"}, {"lat": "12.033333", "city": "Dengolsa", "lon": "39.483333"}, {"lat": "10.216667", "city": "Dengora", "lon": "37.95"}, {"lat": "11.466667", "city": "Denguel", "lon": "37.283333"}, {"lat": "10.333333", "city": "Denij", "lon": "39.166667"}, {"lat": "10.633333", "city": "Denjin", "lon": "37.083333"}, {"lat": "11.716667", "city": "Denkaka", "lon": "39.783333"}, {"lat": "12.466667", "city": "Denk'ez", "lon": "37.616667"}, {"lat": "9.766667", "city": "Denneba", "lon": "39.2"}, {"lat": "10.916667", "city": "Densa", "lon": "38.65"}, {"lat": "11.216667", "city": "Dens", "lon": "39.3"}, {"lat": "10.183333", "city": "De'os", "lon": "39.6"}, {"lat": "11.733333", "city": "Deragon", "lon": "37.583333"}, {"lat": "11.866667", "city": "Deragush Bado", "lon": "39.25"}, {"lat": "12.183333", "city": "Deranze Abbo", "lon": "38.6"}, {"lat": "13.033333", "city": "Derasghi", "lon": "38.183333"}, {"lat": "13.033333", "city": "Derasghie", "lon": "38.183333"}, {"lat": "13.033333", "city": "Derashgie", "lon": "38.183333"}, {"lat": "12.033333", "city": "Derba Maryam", "lon": "39.5"}, {"lat": "13.166667", "city": "Derche", "lon": "39"}, {"lat": "10.85", "city": "Dereba", "lon": "39.366667"}, {"lat": "12.316667", "city": "Dere", "lon": "37.35"}, {"lat": "12.466667", "city": "Dere'igse", "lon": "37.366667"}, {"lat": "10.7", "city": "Derek' Amba", "lon": "39.266667"}, {"lat": "9.8", "city": "Dereku", "lon": "38.95"}, {"lat": "12.116667", "city": "Derenko", "lon": "38.2"}, {"lat": "10.466667", "city": "Derensa", "lon": "39.966667"}, {"lat": "12.516667", "city": "Deresge", "lon": "37.433333"}, {"lat": "12.033333", "city": "Derewa", "lon": "39"}, {"lat": "10.9", "city": "Derk'a", "lon": "39.4"}, {"lat": "11.416667", "city": "Dermadu", "lon": "40.05"}, {"lat": "11.95", "city": "Dersa Dibe", "lon": "39.75"}, {"lat": "12.516667", "city": "Derza", "lon": "37.05"}, {"lat": "11.133333", "city": "Dese", "lon": "39.633333"}, {"lat": "11.133333", "city": "Dessa", "lon": "39.633333"}, {"lat": "11.133333", "city": "Dessi", "lon": "39.633333"}, {"lat": "11.133333", "city": "Dessie", "lon": "39.633333"}, {"lat": "11.133333", "city": "Dessye", "lon": "39.633333"}, {"lat": "11.116667", "city": "Deva", "lon": "37.633333"}, {"lat": "13.156111", "city": "Devark", "lon": "37.898056"}, {"lat": "11.383333", "city": "Devratai", "lon": "37.083333"}, {"lat": "10.15", "city": "Dewa", "lon": "39.633333"}, {"lat": "9.85", "city": "Dewaro", "lon": "39.733333"}, {"lat": "10.333333", "city": "Dewes", "lon": "39.516667"}, {"lat": "12.4", "city": "Dewrela", "lon": "38.966667"}, {"lat": "11.583333", "city": "Deyma", "lon": "37.533333"}, {"lat": "10.416667", "city": "Dgolo", "lon": "39.25"}, {"lat": "12.3", "city": "Diarola", "lon": "39.716667"}, {"lat": "12.333333", "city": "Diba", "lon": "37.383333"}, {"lat": "13.156111", "city": "Dibark", "lon": "37.898056"}, {"lat": "13.233333", "city": "Dib Bahar", "lon": "37.883333"}, {"lat": "13.233333", "city": "Dib Bahir", "lon": "37.883333"}, {"lat": "13.233333", "city": "Dib Bahr", "lon": "37.883333"}, {"lat": "9.633333", "city": "Dibe", "lon": "39.55"}, {"lat": "12.766667", "city": "Dibiga", "lon": "39.2"}, {"lat": "11.583333", "city": "Dibil", "lon": "39.4"}, {"lat": "11.733333", "city": "Dibir", "lon": "38.816667"}, {"lat": "10.366667", "city": "Dibisa", "lon": "38.133333"}, {"lat": "10.583333", "city": "Diblil", "lon": "36.983333"}, {"lat": "10.85", "city": "Dibo", "lon": "38.316667"}, {"lat": "11.766667", "city": "Diddim Tion", "lon": "38.2"}, {"lat": "11.766667", "city": "Didib", "lon": "38.2"}, {"lat": "9.05", "city": "Didi", "lon": "39.7"}, {"lat": "12.95", "city": "Diensa", "lon": "37.916667"}, {"lat": "10.2", "city": "Digim Asterio", "lon": "37.35"}, {"lat": "12.783333", "city": "Digmetaba", "lon": "37.916667"}, {"lat": "10.85", "city": "Digo `Arb Gebeya", "lon": "37.733333"}, {"lat": "13.183333", "city": "Digula", "lon": "38.95"}, {"lat": "9.616667", "city": "Digut", "lon": "39.65"}, {"lat": "10.916667", "city": "Digu Ts'iyon", "lon": "37.65"}, {"lat": "12.133333", "city": "Dihajk'a", "lon": "39.133333"}, {"lat": "12.666667", "city": "Dihol", "lon": "37.383333"}, {"lat": "11.716667", "city": "Diko", "lon": "39.833333"}, {"lat": "10.966667", "city": "Dikulkana", "lon": "37.5"}, {"lat": "12.25", "city": "Dik'ulu", "lon": "39.1"}, {"lat": "11.833333", "city": "Dilala", "lon": "37.683333"}, {"lat": "9.7", "city": "Dil Amba", "lon": "39.216667"}, {"lat": "13.115278", "city": "Dilbiza", "lon": "38.441111"}, {"lat": "12.183333", "city": "Dildi", "lon": "39.483333"}, {"lat": "11.483333", "city": "Dildil", "lon": "37.583333"}, {"lat": "9.6", "city": "Dilila", "lon": "39.616667"}, {"lat": "11.533333", "city": "Dilish", "lon": "37.216667"}, {"lat": "12.45", "city": "Diliyako", "lon": "39.116667"}, {"lat": "13.115278", "city": "Dil Yibza", "lon": "38.441111"}, {"lat": "10.033333", "city": "Dima", "lon": "38"}, {"lat": "12.333333", "city": "Dimbasia", "lon": "39.1"}, {"lat": "11.833333", "city": "Dimbiso", "lon": "37.55"}, {"lat": "10.016667", "city": "Dimbrara", "lon": "39.416667"}, {"lat": "11.233333", "city": "Dimsa", "lon": "36.8"}, {"lat": "9.716667", "city": "Dinbaro", "lon": "39.616667"}, {"lat": "10.716667", "city": "Dincha", "lon": "38.316667"}, {"lat": "12.333333", "city": "Dinfascia", "lon": "39.1"}, {"lat": "12.333333", "city": "Dinfasia", "lon": "39.1"}, {"lat": "10.166667", "city": "Dingab", "lon": "38.133333"}, {"lat": "10.566667", "city": "Dingay Wember", "lon": "37.9"}, {"lat": "12.283333", "city": "Dinge", "lon": "37.383333"}, {"lat": "10.383333", "city": "Dingiaghara", "lon": "37.933333"}, {"lat": "10.8", "city": "Dingra Maryam", "lon": "37.283333"}, {"lat": "12.083333", "city": "Dino", "lon": "39.416667"}, {"lat": "10.25", "city": "Dinta", "lon": "37.916667"}, {"lat": "12", "city": "Dira'inkwa", "lon": "36.9"}, {"lat": "12.55", "city": "Dirawa", "lon": "39.116667"}, {"lat": "11.383333", "city": "Dirdira", "lon": "37.383333"}, {"lat": "8.916667", "city": "Dire Amba", "lon": "39.533333"}, {"lat": "10.016667", "city": "Dire", "lon": "38.783333"}, {"lat": "12.35", "city": "Dirmo", "lon": "39.183333"}, {"lat": "10.75", "city": "Disim", "lon": "39.5"}, {"lat": "10.15", "city": "Doba Agher", "lon": "39.3"}, {"lat": "10.15", "city": "Dob\u00e0", "lon": "39.3"}, {"lat": "10.7", "city": "Dodota", "lon": "40"}, {"lat": "11.833333", "city": "Dogoro", "lon": "38.95"}, {"lat": "10.8", "city": "Dolo", "lon": "39.533333"}, {"lat": "13.416667", "city": "Doncoschi", "lon": "38.366667"}, {"lat": "12.95", "city": "Donga", "lon": "36.366667"}, {"lat": "9.716667", "city": "Donji", "lon": "39.116667"}, {"lat": "10.066667", "city": "Dora", "lon": "39.8"}, {"lat": "12.616667", "city": "Dorasma", "lon": "39.05"}, {"lat": "11.166667", "city": "Dork'a", "lon": "39.816667"}, {"lat": "11.866667", "city": "Doro Gibir", "lon": "39.666667"}, {"lat": "10.816667", "city": "Dot'o", "lon": "39.933333"}, {"lat": "10.266667", "city": "Du'at", "lon": "39.65"}, {"lat": "10.15", "city": "Duba", "lon": "39.166667"}, {"lat": "12.083333", "city": "Duce Arua", "lon": "36.95"}, {"lat": "12.083333", "city": "Duc-el-Arua", "lon": "36.95"}, {"lat": "10.266667", "city": "Duch'e", "lon": "38.033333"}, {"lat": "11.5", "city": "Duda Arba", "lon": "39.683333"}, {"lat": "12.583333", "city": "Dudubba", "lon": "38.183333"}, {"lat": "10.716667", "city": "Dugudu", "lon": "39.966667"}, {"lat": "12.216667", "city": "Duncar", "lon": "36"}, {"lat": "12.216667", "city": "Duncur", "lon": "36"}, {"lat": "11.266667", "city": "Dungoler", "lon": "36.833333"}, {"lat": "11.333333", "city": "Dure", "lon": "39.733333"}, {"lat": "12.133333", "city": "Ebbenat", "lon": "38.05"}, {"lat": "10.1", "city": "Ebieta Jesus", "lon": "37.583333"}, {"lat": "12.133333", "city": "Ebnat", "lon": "38.05"}, {"lat": "10.35", "city": "Efeson", "lon": "39.966667"}, {"lat": "10.166667", "city": "Egiube", "lon": "37.816667"}, {"lat": "11.433333", "city": "Ejersa", "lon": "39.883333"}, {"lat": "10.433333", "city": "Ejerti", "lon": "39.216667"}, {"lat": "12.666667", "city": "El Begaiya", "lon": "35.7"}, {"lat": "12.3", "city": "El Gulut", "lon": "35.95"}, {"lat": "10.3", "city": "Elias", "lon": "37.466667"}, {"lat": "10.3", "city": "Eliyas", "lon": "37.466667"}, {"lat": "10.3", "city": "Elyas", "lon": "37.466667"}, {"lat": "9.883333", "city": "Embertera", "lon": "39.216667"}, {"lat": "13.25", "city": "Enda Gabriel", "lon": "37.483333"}, {"lat": "12.15", "city": "Endiafat", "lon": "39.233333"}, {"lat": "12.333333", "city": "Endib", "lon": "37.9"}, {"lat": "8.95", "city": "Endoda", "lon": "39.466667"}, {"lat": "10.666667", "city": "Endodi", "lon": "39.016667"}, {"lat": "9.883333", "city": "Enewari", "lon": "39.15"}, {"lat": "11", "city": "Engiabara", "lon": "36.916667"}, {"lat": "11", "city": "Enjabara", "lon": "36.916667"}, {"lat": "10.416667", "city": "Ennerata", "lon": "37.75"}, {"lat": "10.416667", "city": "Ennereta", "lon": "37.75"}, {"lat": "9.883333", "city": "Enwari", "lon": "39.15"}, {"lat": "10.766667", "city": "Ericch\u00e8", "lon": "39.833333"}, {"lat": "10.766667", "city": "Erikshe", "lon": "39.833333"}, {"lat": "12.65", "city": "Ez Zair", "lon": "35.683333"}, {"lat": "10.9", "city": "Fafa", "lon": "36.866667"}, {"lat": "11.133333", "city": "Fageta", "lon": "37.133333"}, {"lat": "11.133333", "city": "Fagutta", "lon": "37.133333"}, {"lat": "10.416667", "city": "Falma", "lon": "39.916667"}, {"lat": "12.45", "city": "Fangia", "lon": "37.283333"}, {"lat": "12.566667", "city": "Fantar", "lon": "37.483333"}, {"lat": "12.45", "city": "Faregse", "lon": "38.716667"}, {"lat": "11.216667", "city": "Fasiledes", "lon": "37.6"}, {"lat": "12.683333", "city": "Faya", "lon": "38.95"}, {"lat": "10.3", "city": "Fek'o Meda", "lon": "38.35"}, {"lat": "13", "city": "Felaina Micael", "lon": "38.133333"}, {"lat": "10.75", "city": "Felege Berhan", "lon": "38.066667"}, {"lat": "10.75", "city": "Felege Birhan", "lon": "38.066667"}, {"lat": "10.75", "city": "Feleghe Berhan", "lon": "38.066667"}, {"lat": "12.833333", "city": "Felfei", "lon": "36.916667"}, {"lat": "12.833333", "city": "Felfel", "lon": "36.916667"}, {"lat": "12.783333", "city": "Felisma", "lon": "39.033333"}, {"lat": "12.45", "city": "Fenja", "lon": "37.283333"}, {"lat": "10.7", "city": "Fenote Selam", "lon": "37.266667"}, {"lat": "12.316667", "city": "Fentay", "lon": "37.133333"}, {"lat": "12.566667", "city": "Fent'er", "lon": "37.483333"}, {"lat": "10.6", "city": "Fent'eriya", "lon": "38.283333"}, {"lat": "12.2", "city": "Fercaber", "lon": "37.65"}, {"lat": "10.533333", "city": "Feres Bet", "lon": "39.516667"}, {"lat": "11.683333", "city": "Fereshoch", "lon": "39.083333"}, {"lat": "11.583333", "city": "Feres Megalebiya", "lon": "38.983333"}, {"lat": "11.816667", "city": "Feres Midir", "lon": "38.15"}, {"lat": "10.533333", "city": "Feses Bet", "lon": "39.516667"}, {"lat": "11.233333", "city": "Fetek'a", "lon": "39.85"}, {"lat": "9.983333", "city": "Fet'era", "lon": "38.9"}, {"lat": "12.25", "city": "Fet'imeny", "lon": "37.733333"}, {"lat": "9.983333", "city": "Fet'ira", "lon": "38.9"}, {"lat": "9.983333", "city": "Fet'ra", "lon": "38.9"}, {"lat": "12.266667", "city": "Fich'aza", "lon": "38.766667"}, {"lat": "9.983333", "city": "Fietira", "lon": "38.9"}, {"lat": "13.183333", "city": "Fik're Sini", "lon": "38.983333"}, {"lat": "11.666667", "city": "Filagit", "lon": "38.8"}, {"lat": "11.666667", "city": "Filaket", "lon": "38.8"}, {"lat": "11.666667", "city": "Filakit", "lon": "38.8"}, {"lat": "11.666667", "city": "Filatit", "lon": "38.8"}, {"lat": "10.7", "city": "Finote Selam", "lon": "37.266667"}, {"lat": "12.166667", "city": "Fint'al Feres", "lon": "38.816667"}, {"lat": "12.316667", "city": "Fint'iro", "lon": "37.433333"}, {"lat": "11.783333", "city": "Finyano", "lon": "39.783333"}, {"lat": "11.566667", "city": "Firida Mareja", "lon": "39.133333"}, {"lat": "11.75", "city": "Firk'ija", "lon": "38.916667"}, {"lat": "12.916667", "city": "Firt'at'a", "lon": "39.05"}, {"lat": "11.733333", "city": "Fisa", "lon": "37.45"}, {"lat": "11.116667", "city": "Fit'o", "lon": "39.216667"}, {"lat": "13.1", "city": "Fogay", "lon": "38.366667"}, {"lat": "11.95", "city": "Fogera", "lon": "37.583333"}, {"lat": "10.816667", "city": "Fogero", "lon": "39.1"}, {"lat": "10.966667", "city": "Fontanina", "lon": "39.783333"}, {"lat": "11.716667", "city": "Forat", "lon": "38.166667"}, {"lat": "11.833333", "city": "Frida Amba", "lon": "39.5"}, {"lat": "11.216667", "city": "Fultulo", "lon": "39.833333"}, {"lat": "10.366667", "city": "Fureuta", "lon": "39.8"}, {"lat": "10.95", "city": "Gaba Gheorghis", "lon": "37.883333"}, {"lat": "11.833333", "city": "Gabgabit", "lon": "37.033333"}, {"lat": "11.833333", "city": "Gabgarbit", "lon": "37.033333"}, {"lat": "13.25", "city": "Gabrel", "lon": "37.483333"}, {"lat": "13.3", "city": "Gadabi", "lon": "36.316667"}, {"lat": "8.916667", "city": "Gadaburqa", "lon": "39.583333"}, {"lat": "10.633333", "city": "Gaday", "lon": "37.633333"}, {"lat": "10.883333", "city": "Gadisa", "lon": "39.1"}, {"lat": "13.45", "city": "Gadober", "lon": "38.633333"}, {"lat": "12.266667", "city": "Gail", "lon": "37.116667"}, {"lat": "11.833333", "city": "Gala K'ibe", "lon": "37.716667"}, {"lat": "8.883333", "city": "Gala K'olk'ol", "lon": "39.483333"}, {"lat": "10.616667", "city": "Galat", "lon": "37.683333"}, {"lat": "11.25", "city": "Gale", "lon": "37.833333"}, {"lat": "12.2", "city": "Galegu", "lon": "35.9"}, {"lat": "10.85", "city": "Galemot", "lon": "38.883333"}, {"lat": "10.5", "city": "Galibe", "lon": "37"}, {"lat": "12.966667", "city": "Gallabat", "lon": "36.2"}, {"lat": "8.866667", "city": "Gammi", "lon": "39.666667"}, {"lat": "13.366667", "city": "Gamo", "lon": "37.516667"}, {"lat": "9.666667", "city": "Gandi Ghior", "lon": "39.716667"}, {"lat": "11.55", "city": "Gangale", "lon": "38.916667"}, {"lat": "10.416667", "city": "Garole", "lon": "39.35"}, {"lat": "11.8", "city": "Gasay", "lon": "38.133333"}, {"lat": "13.016667", "city": "Gasha Jagre", "lon": "38.166667"}, {"lat": "10.866667", "city": "Gat'ira", "lon": "39.533333"}, {"lat": "13.25", "city": "Gavriel", "lon": "37.483333"}, {"lat": "12.333333", "city": "Gawurna", "lon": "37.183333"}, {"lat": "11.85", "city": "Gayint", "lon": "38.366667"}, {"lat": "12.166667", "city": "Gazara", "lon": "37.716667"}, {"lat": "10.3", "city": "Geba", "lon": "39.266667"}, {"lat": "9.866667", "city": "Gebaye", "lon": "39"}, {"lat": "10.116667", "city": "Geber Shengo", "lon": "39.183333"}, {"lat": "10.533333", "city": "Gebeya Dar", "lon": "39.433333"}, {"lat": "9.983333", "city": "Gebeya Mewaya", "lon": "39.183333"}, {"lat": "11.033333", "city": "Gebeze Mariam", "lon": "37.466667"}, {"lat": "11.033333", "city": "Gebez", "lon": "37.466667"}, {"lat": "11.033333", "city": "Gebez Mariam", "lon": "37.466667"}, {"lat": "11.033333", "city": "Gebez Maryam", "lon": "37.466667"}, {"lat": "11.7", "city": "Gebga", "lon": "38.266667"}, {"lat": "10.033333", "city": "Gebi", "lon": "38.733333"}, {"lat": "10.033333", "city": "Gebri'el", "lon": "37.9"}, {"lat": "13.3", "city": "Gedabiet", "lon": "36.316667"}, {"lat": "10.466667", "city": "Geda Iyasu", "lon": "38.383333"}, {"lat": "10.55", "city": "Gedamayt Rebu`i Gebeya", "lon": "37.766667"}, {"lat": "10", "city": "Gedam", "lon": "39.65"}, {"lat": "10.6", "city": "Gedeb", "lon": "38.35"}, {"lat": "12.875833", "city": "Gedebge", "lon": "37.741111"}, {"lat": "12.875833", "city": "Gedebgi", "lon": "37.741111"}, {"lat": "11.35", "city": "Gedero", "lon": "39.816667"}, {"lat": "11.233333", "city": "Ged\u00e8s Micael", "lon": "37.083333"}, {"lat": "13", "city": "Gedeta", "lon": "37.766667"}, {"lat": "11.45", "city": "Gedida", "lon": "39.966667"}, {"lat": "10.416667", "city": "Gedoye", "lon": "39.533333"}, {"lat": "11.633333", "city": "Gedro", "lon": "37.433333"}, {"lat": "11.433333", "city": "Gelana", "lon": "39.783333"}, {"lat": "11.633333", "city": "Gelawdiwos", "lon": "37.816667"}, {"lat": "10.55", "city": "Gelebe", "lon": "38.65"}, {"lat": "9.766667", "city": "Gellida", "lon": "39.166667"}, {"lat": "10.95", "city": "Gelmo Ager", "lon": "39.633333"}, {"lat": "9.916667", "city": "Gemameda", "lon": "39.316667"}, {"lat": "10.95", "city": "Gemase", "lon": "39.05"}, {"lat": "11.45", "city": "Gembore", "lon": "39.233333"}, {"lat": "12.15", "city": "Gena Mech'awecha", "lon": "39.2"}, {"lat": "12.366667", "city": "Genda", "lon": "37.266667"}, {"lat": "12.666667", "city": "Gendawa", "lon": "37.15"}, {"lat": "10.266667", "city": "Gende Buhe", "lon": "39.166667"}, {"lat": "10.266667", "city": "Gende Bune", "lon": "39.166667"}, {"lat": "10.533333", "city": "Gende Ela", "lon": "39.2"}, {"lat": "11.45", "city": "Gende Gora", "lon": "39.916667"}, {"lat": "12.516667", "city": "Gendwa", "lon": "37.366667"}, {"lat": "10.45", "city": "Genete", "lon": "39.45"}, {"lat": "11.016667", "city": "Genete Maryam", "lon": "38.1"}, {"lat": "11.566667", "city": "Gengena", "lon": "39.25"}, {"lat": "11.4", "city": "Genta", "lon": "37.9"}, {"lat": "10.866667", "city": "Gente", "lon": "39.133333"}, {"lat": "11.466667", "city": "Gentenya", "lon": "37.283333"}, {"lat": "11.333333", "city": "Genyet'", "lon": "39.133333"}, {"lat": "11.25", "city": "Gerado", "lon": "39.4"}, {"lat": "11", "city": "Geradu", "lon": "39.783333"}, {"lat": "10.766667", "city": "Geranyo", "lon": "39.833333"}, {"lat": "11.15", "city": "Gerba", "lon": "39.916667"}, {"lat": "10.2", "city": "Gerbe", "lon": "39.983333"}, {"lat": "11.75", "city": "Gere'ado", "lon": "39.616667"}, {"lat": "11.35", "city": "Gereba Abo", "lon": "39.883333"}, {"lat": "12.875833", "city": "Gerebge", "lon": "37.741111"}, {"lat": "11.683333", "city": "Geregera", "lon": "38.683333"}, {"lat": "9.95", "city": "Geren", "lon": "38.966667"}, {"lat": "11.7", "city": "Geret'ot", "lon": "39.483333"}, {"lat": "11.6", "city": "Geriro", "lon": "39.983333"}, {"lat": "11", "city": "Germame", "lon": "39.283333"}, {"lat": "10.983333", "city": "Gesh Abai Michael", "lon": "37.216667"}, {"lat": "12", "city": "Gesta", "lon": "39.383333"}, {"lat": "10.283333", "city": "Gey", "lon": "39.5"}, {"lat": "9.833333", "city": "Geza Washa", "lon": "38.866667"}, {"lat": "11.633333", "city": "Gheddera", "lon": "37.433333"}, {"lat": "12.916667", "city": "Ghedenghie", "lon": "36.816667"}, {"lat": "11.233333", "city": "Ghedes Micael", "lon": "37.083333"}, {"lat": "12.2", "city": "Ghelegu", "lon": "35.9"}, {"lat": "9.483333", "city": "Ghelila", "lon": "39.616667"}, {"lat": "13.233333", "city": "Ghemascia", "lon": "38.6"}, {"lat": "13.233333", "city": "Ghemscia", "lon": "38.6"}, {"lat": "12.95", "city": "Ghenga", "lon": "36.2"}, {"lat": "11.366667", "city": "Ghenghis", "lon": "37.95"}, {"lat": "11.083333", "city": "Ghenz", "lon": "37.3"}, {"lat": "10.75", "city": "Gheorghis", "lon": "37.4"}, {"lat": "11.75", "city": "Gherado", "lon": "39.616667"}, {"lat": "11.783333", "city": "Gherbidda", "lon": "39.6"}, {"lat": "10.233333", "city": "Ghietem Mariam", "lon": "37.833333"}, {"lat": "13.116667", "city": "Ghina Chid Meret", "lon": "38.133333"}, {"lat": "9.3", "city": "Ghinna Agher", "lon": "39.533333"}, {"lat": "9.3", "city": "Ghinna", "lon": "39.533333"}, {"lat": "10.983333", "city": "Ghisc Abbai", "lon": "37.216667"}, {"lat": "10.533333", "city": "Giafarie", "lon": "39.516667"}, {"lat": "12.066667", "city": "Giaguala", "lon": "38.866667"}, {"lat": "11.633333", "city": "Giahana Gheorghis", "lon": "36.983333"}, {"lat": "12.733333", "city": "Giancue", "lon": "37.116667"}, {"lat": "10.516667", "city": "Giarra", "lon": "39.95"}, {"lat": "10.45", "city": "Giasanbat", "lon": "37.966667"}, {"lat": "10.566667", "city": "Gich'uma", "lon": "39.716667"}, {"lat": "9.783333", "city": "Giderajo", "lon": "39.766667"}, {"lat": "11.5", "city": "Giderefej", "lon": "37.916667"}, {"lat": "12.166667", "city": "Gidiba", "lon": "39.5"}, {"lat": "12.05", "city": "Gidib", "lon": "39.166667"}, {"lat": "10.366667", "city": "Gidim", "lon": "39.816667"}, {"lat": "10.366667", "city": "Gidm", "lon": "39.816667"}, {"lat": "10.266667", "city": "Gifreye", "lon": "39.816667"}, {"lat": "10.666667", "city": "Giga", "lon": "37.366667"}, {"lat": "10.666667", "city": "Gigga", "lon": "37.366667"}, {"lat": "11.1", "city": "Gilbit'e", "lon": "39.416667"}, {"lat": "9.866667", "city": "Gildima", "lon": "39.916667"}, {"lat": "10.566667", "city": "Gilu", "lon": "39.366667"}, {"lat": "10.166667", "city": "Gimb", "lon": "39.9"}, {"lat": "10.5", "city": "Gimbi", "lon": "39.416667"}, {"lat": "9.866667", "city": "Gimdere", "lon": "39.966667"}, {"lat": "13", "city": "Gimela", "lon": "38.183333"}, {"lat": "12.683333", "city": "Gimiza", "lon": "39.083333"}, {"lat": "10.85", "city": "Gimja Beit", "lon": "36.883333"}, {"lat": "10.85", "city": "Gimjabet Mariam", "lon": "36.883333"}, {"lat": "10.85", "city": "Gimja Bet Maryam", "lon": "36.883333"}, {"lat": "9.3", "city": "Gina Ager", "lon": "39.533333"}, {"lat": "9.3", "city": "Gin Ager", "lon": "39.533333"}, {"lat": "11.6", "city": "Gina", "lon": "37.7"}, {"lat": "10.15", "city": "Ginb Washa", "lon": "39.716667"}, {"lat": "10.15", "city": "Ginib Washa", "lon": "39.716667"}, {"lat": "10.133333", "city": "Gino", "lon": "39.5"}, {"lat": "12.866667", "city": "Gira Felase", "lon": "38.333333"}, {"lat": "10.766667", "city": "Girafgotet", "lon": "38.7"}, {"lat": "12.3", "city": "Giram Hora", "lon": "39.5"}, {"lat": "11.566667", "city": "Girana", "lon": "39.716667"}, {"lat": "11.933333", "city": "Girany Amba", "lon": "38.983333"}, {"lat": "12.25", "city": "Girara", "lon": "39.283333"}, {"lat": "11.083333", "city": "Girar Amba", "lon": "39.916667"}, {"lat": "10.333333", "city": "Giraray", "lon": "39.7"}, {"lat": "11.283333", "city": "Girarge", "lon": "36.833333"}, {"lat": "10.333333", "city": "Girar", "lon": "37.833333"}, {"lat": "12.5", "city": "Girgij", "lon": "37.416667"}, {"lat": "9.833333", "city": "Girgir", "lon": "38.883333"}, {"lat": "10.6", "city": "Girniya", "lon": "38.233333"}, {"lat": "11.316667", "city": "Girshit'", "lon": "38.9"}, {"lat": "10.983333", "city": "Gish Abay", "lon": "37.216667"}, {"lat": "10.983333", "city": "Gishe Abay", "lon": "37.216667"}, {"lat": "10.633333", "city": "Gishenit", "lon": "39.25"}, {"lat": "12.583333", "city": "Gishman", "lon": "39.083333"}, {"lat": "10.216667", "city": "Git'a", "lon": "39.016667"}, {"lat": "9.083333", "city": "Git'o", "lon": "39.5"}, {"lat": "10.016667", "city": "Giurru", "lon": "39.25"}, {"lat": "11.466667", "city": "Giyorgis", "lon": "38.266667"}, {"lat": "10.333333", "city": "Gobabit", "lon": "39.033333"}, {"lat": "11.883333", "city": "Gobei\u00e8", "lon": "39.7"}, {"lat": "10", "city": "Gobet'ima", "lon": "37.783333"}, {"lat": "10.016667", "city": "Gobil", "lon": "38.833333"}, {"lat": "11.883333", "city": "Gobiye", "lon": "39.7"}, {"lat": "11.883333", "city": "Gobiyo", "lon": "39.7"}, {"lat": "11.883333", "city": "Gobye", "lon": "39.7"}, {"lat": "8.916667", "city": "Godaburka", "lon": "39.583333"}, {"lat": "10.25", "city": "Godana Mika'el", "lon": "37.833333"}, {"lat": "13.3", "city": "Godebe", "lon": "36.316667"}, {"lat": "8.916667", "city": "Godeburk'a", "lon": "39.583333"}, {"lat": "10.25", "city": "Godena Michael", "lon": "37.833333"}, {"lat": "10.25", "city": "Godena Mikael", "lon": "37.833333"}, {"lat": "10.6", "city": "Godeti", "lon": "38.816667"}, {"lat": "11.816667", "city": "Godgwadit", "lon": "37.516667"}, {"lat": "8.916667", "city": "Godoburka", "lon": "39.583333"}, {"lat": "11.1", "city": "Godo", "lon": "39.366667"}, {"lat": "12.166667", "city": "Godscia", "lon": "37.016667"}, {"lat": "10.25", "city": "Goduna Michael", "lon": "37.833333"}, {"lat": "12.266667", "city": "Goel", "lon": "37.116667"}, {"lat": "11.75", "city": "Gof Gof", "lon": "38.4"}, {"lat": "10.333333", "city": "Goft'ima Sebeka", "lon": "37.383333"}, {"lat": "12.166667", "city": "Goggia", "lon": "37.016667"}, {"lat": "12.166667", "city": "Gogia", "lon": "37.016667"}, {"lat": "11.666667", "city": "Goha", "lon": "37.633333"}, {"lat": "12.266667", "city": "Gohil", "lon": "37.116667"}, {"lat": "11.183333", "city": "Gojam", "lon": "39.9"}, {"lat": "10.883333", "city": "Golehit'o", "lon": "39.066667"}, {"lat": "9.883333", "city": "Golele", "lon": "39.216667"}, {"lat": "10.7", "city": "Golelench'a", "lon": "39.2"}, {"lat": "10.816667", "city": "Gol", "lon": "39.216667"}, {"lat": "12.333333", "city": "Golgola", "lon": "38.683333"}, {"lat": "13.366667", "city": "Golima", "lon": "37.95"}, {"lat": "10.416667", "city": "Gollo", "lon": "39.25"}, {"lat": "10.2", "city": "Gomen Amba", "lon": "39.416667"}, {"lat": "11.733333", "city": "Gomenge", "lon": "39.166667"}, {"lat": "11.566667", "city": "Gomfo", "lon": "39.616667"}, {"lat": "11.066667", "city": "Gom", "lon": "39.316667"}, {"lat": "12.233333", "city": "Gona", "lon": "39.233333"}, {"lat": "12.6", "city": "Gondar", "lon": "37.466667"}, {"lat": "12.066667", "city": "Gondat", "lon": "39"}, {"lat": "10.033333", "city": "Gonde", "lon": "38.783333"}, {"lat": "11.5", "city": "Gonder", "lon": "39.15"}, {"lat": "12.616667", "city": "Gonderoch", "lon": "37.433333"}, {"lat": "12.45", "city": "Gond", "lon": "37.683333"}, {"lat": "12.333333", "city": "Gondona", "lon": "36.15"}, {"lat": "10.233333", "city": "Gonga", "lon": "37.8"}, {"lat": "11.216667", "city": "Gonj", "lon": "37.666667"}, {"lat": "12.816667", "city": "Gontrabo", "lon": "37.75"}, {"lat": "10.016667", "city": "Gora Anda", "lon": "38.783333"}, {"lat": "11.433333", "city": "Goradit", "lon": "38.416667"}, {"lat": "10.666667", "city": "Gora", "lon": "40.033333"}, {"lat": "12.433333", "city": "Gor Amba", "lon": "38.716667"}, {"lat": "10.033333", "city": "Gorandu", "lon": "38.75"}, {"lat": "9.583333", "city": "Gorebela", "lon": "39.733333"}, {"lat": "10.533333", "city": "Gore'eka", "lon": "39.216667"}, {"lat": "10.466667", "city": "Gorenj", "lon": "38.7"}, {"lat": "9.2", "city": "Gorfo Feres Bet", "lon": "39.416667"}, {"lat": "10.7", "city": "Gor", "lon": "39.066667"}, {"lat": "12.240278", "city": "Gorgora", "lon": "37.300833"}, {"lat": "10.883333", "city": "Gorgwadit", "lon": "39.15"}, {"lat": "11.433333", "city": "Gorradit", "lon": "38.416667"}, {"lat": "11.433333", "city": "Gorredi", "lon": "38.416667"}, {"lat": "9.783333", "city": "Gortu", "lon": "39.016667"}, {"lat": "9.733333", "city": "Gosh Bado", "lon": "39.45"}, {"lat": "11.166667", "city": "Goshit", "lon": "38.866667"}, {"lat": "11.533333", "city": "Gosh Meda", "lon": "39.25"}, {"lat": "9.7", "city": "Goshu Ager", "lon": "39.7"}, {"lat": "9.766667", "city": "Gosh Wiha", "lon": "39.416667"}, {"lat": "11.45", "city": "Gota", "lon": "37"}, {"lat": "10.016667", "city": "Got'erat", "lon": "37.9"}, {"lat": "9.8", "city": "Gotet", "lon": "39.166667"}, {"lat": "12.283333", "city": "Gotot", "lon": "39.366667"}, {"lat": "9.583333", "city": "Gourabela", "lon": "39.733333"},