{"GD": {"02": [{"lat": "12.05", "city": "Apr\u00e8s Tout", "lon": "-61.6666667"}, {"lat": "12.0333333", "city": "Baillies Bacolet", "lon": "-61.6833333"}, {"lat": "12.05", "city": "Barrow", "lon": "-61.7"}, {"lat": "12.0333333", "city": "Beaton", "lon": "-61.7"}, {"lat": "12.0166667", "city": "Becke Moui", "lon": "-61.7"}, {"lat": "12.0333333", "city": "Belle Isle", "lon": "-61.65"}, {"lat": "12.0333333", "city": "Belle Plain", "lon": "-61.7166667"}, {"lat": "12.05", "city": "Bellevue", "lon": "-61.65"}, {"lat": "12.0333333", "city": "Bois de Gannes", "lon": "-61.7"}, {"lat": "12.05", "city": "Champs Fleurs", "lon": "-61.6833333"}, {"lat": "12.0333333", "city": "Charlotte Vale", "lon": "-61.7"}, {"lat": "12.0333333", "city": "Content", "lon": "-61.6666667"}, {"lat": "12.0333333", "city": "Corbeau Town", "lon": "-61.7166667"}, {"lat": "12.0333333", "city": "Corinth", "lon": "-61.6666667"}, {"lat": "12.05", "city": "Crochu", "lon": "-61.65"}, {"lat": "12.0333333", "city": "Epping Forest", "lon": "-61.7"}, {"lat": "12.05", "city": "Fairfield", "lon": "-61.65"}, {"lat": "12.0333333", "city": "Laborie", "lon": "-61.7166667"}, {"lat": "12.0333333", "city": "La Femme", "lon": "-61.7"}, {"lat": "12.0333333", "city": "Laura", "lon": "-61.7"}, {"lat": "12.05", "city": "Mardigras", "lon": "-61.7"}, {"lat": "12.05", "city": "Marlmount", "lon": "-61.65"}, {"lat": "12.0333333", "city": "Maulti", "lon": "-61.6666667"}, {"lat": "12.0333333", "city": "Mon Repos", "lon": "-61.6666667"}, {"lat": "12.05", "city": "Morne Tranquille", "lon": "-61.7"}, {"lat": "12.0333333", "city": "Mount Airy", "lon": "-61.7166667"}, {"lat": "12.05", "city": "Mount Pleasant", "lon": "-61.7"}, {"lat": "12.0333333", "city": "Mount Rose", "lon": "-61.7166667"}, {"lat": "12.05", "city": "Perdmontemps", "lon": "-61.7"}, {"lat": "12.0166667", "city": "Petit Bacaye", "lon": "-61.6833333"}, {"lat": "12.05", "city": "Petit \u00c9tang", "lon": "-61.6833333"}, {"lat": "12.05", "city": "Pomme Rose", "lon": "-61.65"}, {"lat": "12.05", "city": "Providence", "lon": "-61.6666667"}, {"lat": "12.0333333", "city": "Saint David's", "lon": "-61.6666667"}, {"lat": "12.0333333", "city": "Saint Paul's", "lon": "-61.7166667"}, {"lat": "12.0333333", "city": "Syracuse", "lon": "-61.6833333"}, {"lat": "12.05", "city": "Thebaide", "lon": "-61.6666667"}, {"lat": "12.05", "city": "Thebaid", "lon": "-61.6666667"}, {"lat": "12.05", "city": "Upper La Tante", "lon": "-61.65"}, {"lat": "12.05", "city": "Vincennes", "lon": "-61.6833333"}, {"lat": "12.05", "city": "Vineyard", "lon": "-61.7"}, {"lat": "12.0166667", "city": "Westerhall Land Settlement", "lon": "-61.7"}, {"lat": "12.0333333", "city": "Windsor Castle", "lon": "-61.7"}, {"lat": "12.05", "city": "Windsor Forest", "lon": "-61.6833333"}], "03": [{"lat": "12.0", "city": "Amber Belair", "lon": "-61.75"}, {"lat": "12.0", "city": "Bamboo", "lon": "-61.7833333"}, {"lat": "12.0666667", "city": "Beaulieu", "lon": "-61.7333333"}, {"lat": "12.0333333", "city": "Belmont", "lon": "-61.75"}, {"lat": "11.9833333", "city": "Blow Hole", "lon": "-61.7833333"}, {"lat": "12.0666667", "city": "Boca", "lon": "-61.7166667"}, {"lat": "12.1", "city": "Brisant", "lon": "-61.75"}, {"lat": "12.1", "city": "Brizan", "lon": "-61.75"}, {"lat": "12.0333333", "city": "Caf\u00e9", "lon": "-61.7333333"}, {"lat": "12.0166667", "city": "Calivigny", "lon": "-61.7333333"}, {"lat": "12.0", "city": "Calliste", "lon": "-61.7666667"}, {"lat": "12.0", "city": "Calliste Land Settlement", "lon": "-61.7666667"}, {"lat": "12.0166667", "city": "Canne Fond", "lon": "-61.7166667"}, {"lat": "12.0333333", "city": "Clarkes Court", "lon": "-61.7333333"}, {"lat": "12.0166667", "city": "Confer", "lon": "-61.7166667"}, {"lat": "12.0666667", "city": "Constantine", "lon": "-61.7166667"}, {"lat": "12.05", "city": "D'Arbeau", "lon": "-61.75"}, {"lat": "12.0", "city": "Egmont", "lon": "-61.7166667"}, {"lat": "12.0333333", "city": "Falaise", "lon": "-61.75"}, {"lat": "12.0333333", "city": "Falege", "lon": "-61.75"}, {"lat": "12.0666667", "city": "Fontenoy", "lon": "-61.75"}, {"lat": "12.0", "city": "Fort Jeudy", "lon": "-61.7"}, {"lat": "12.05", "city": "Fort Royal", "lon": "-61.75"}, {"lat": "12.0", "city": "Frequente", "lon": "-61.7666667"}, {"lat": "12.05", "city": "Georgetown", "lon": "-61.75"}, {"lat": "12.0166667", "city": "Golflands", "lon": "-61.75"}, {"lat": "12.0166667", "city": "Grand Ance", "lon": "-61.75"}, {"lat": "12.0166667", "city": "Grand Anse", "lon": "-61.75"}, {"lat": "12.0666667", "city": "Grand Mal", "lon": "-61.75"}, {"lat": "12.0833333", "city": "Granton", "lon": "-61.7166667"}, {"lat": "12.05", "city": "Grenada City", "lon": "-61.75"}, {"lat": "12.05", "city": "Gretna Green", "lon": "-61.75"}, {"lat": "12.0166667", "city": "Gwa Kay", "lon": "-61.7666667"}, {"lat": "12.0833333", "city": "Happy Hill", "lon": "-61.75"}, {"lat": "12.0666667", "city": "Hermitage", "lon": "-61.7333333"}, {"lat": "12.0", "city": "Horne", "lon": "-61.75"}, {"lat": "12.05", "city": "Hyde Park", "lon": "-61.7333333"}, {"lat": "12.0333333", "city": "Ka-fe Beau", "lon": "-61.75"}, {"lat": "12.0666667", "city": "La Mode", "lon": "-61.7333333"}, {"lat": "11.9833333", "city": "Lance aux \u00c9pines", "lon": "-61.75"}, {"lat": "12.05", "city": "Lewis", "lon": "-61.75"}, {"lat": "12.0166667", "city": "Lower Woburn", "lon": "-61.7333333"}, {"lat": "12.0833333", "city": "Maliniere", "lon": "-61.75"}, {"lat": "12.0833333", "city": "Mango", "lon": "-61.7166667"}, {"lat": "12.05", "city": "Mardigras", "lon": "-61.7166667"}, {"lat": "12.0166667", "city": "Marian", "lon": "-61.7166667"}, {"lat": "12.0833333", "city": "Molini\u00e8re", "lon": "-61.75"}, {"lat": "12.0666667", "city": "Mont Moritz", "lon": "-61.7333333"}, {"lat": "12.0166667", "city": "Mont Tout", "lon": "-61.75"}, {"lat": "12.1", "city": "Morne Docteur", "lon": "-61.75"}, {"lat": "12.0166667", "city": "Morne Jaloux", "lon": "-61.7333333"}, {"lat": "12.0333333", "city": "Morne Jaloux Ridge", "lon": "-61.7333333"}, {"lat": "12.0166667", "city": "Morne Rouge", "lon": "-61.7666667"}, {"lat": "12.0166667", "city": "Mount Desir", "lon": "-61.7333333"}, {"lat": "12.05", "city": "Mount Gay", "lon": "-61.7333333"}, {"lat": "12.05", "city": "Mount Helicon", "lon": "-61.7333333"}, {"lat": "12.0666667", "city": "Mount Marice", "lon": "-61.7333333"}, {"lat": "12.0666667", "city": "Mount Morice", "lon": "-61.7333333"}, {"lat": "12.0833333", "city": "Mount Moritz Land Settlement", "lon": "-61.7333333"}, {"lat": "12.0666667", "city": "Mount Moritz", "lon": "-61.7333333"}, {"lat": "12.05", "city": "Mount Royal", "lon": "-61.75"}, {"lat": "12.05", "city": "Mount Weldale", "lon": "-61.75"}, {"lat": "12.0833333", "city": "New Hampshire", "lon": "-61.7166667"}, {"lat": "12.0333333", "city": "Paddock", "lon": "-61.7333333"}, {"lat": "12.05", "city": "Parade", "lon": "-61.7333333"}, {"lat": "12.0166667", "city": "Petit Bouc", "lon": "-61.75"}, {"lat": "12.0", "city": "Petit Calivigny", "lon": "-61.7166667"}, {"lat": "12.05", "city": "Port Louis", "lon": "-61.75"}, {"lat": "12.05", "city": "Port Royal", "lon": "-61.75"}, {"lat": "12.05", "city": "Radix", "lon": "-61.7166667"}, {"lat": "12.05", "city": "Ravine", "lon": "-61.7333333"}, {"lat": "12.0666667", "city": "Retreat", "lon": "-61.7166667"}, {"lat": "12.05", "city": "Richmond Hill", "lon": "-61.7333333"}, {"lat": "12.1", "city": "Richmond", "lon": "-61.7333333"}, {"lat": "12.0166667", "city": "Ruth Howard", "lon": "-61.75"}, {"lat": "12.05", "city": "Saint George", "lon": "-61.75"}, {"lat": "12.05", "city": "Saint George's", "lon": "-61.75"}, {"lat": "12.05", "city": "Saint Paul's", "lon": "-61.7166667"}, {"lat": "12.05", "city": "Sans Souci", "lon": "-61.75"}, {"lat": "12.0666667", "city": "Snug Corner", "lon": "-61.7333333"}, {"lat": "12.0333333", "city": "Springs", "lon": "-61.7333333"}, {"lat": "12.0333333", "city": "Tanteen", "lon": "-61.7333333"}, {"lat": "12.05", "city": "Tempe", "lon": "-61.7333333"}, {"lat": "12.05", "city": "Temple", "lon": "-61.7333333"}, {"lat": "12.0333333", "city": "The Bocas", "lon": "-61.7333333"}, {"lat": "12.0166667", "city": "The Cliff", "lon": "-61.7333333"}, {"lat": "12.0166667", "city": "The Lime", "lon": "-61.7666667"}, {"lat": "12.05", "city": "The Park", "lon": "-61.7166667"}, {"lat": "12.0", "city": "True Blue", "lon": "-61.7666667"}, {"lat": "12.0666667", "city": "Vend\u00f4me", "lon": "-61.7166667"}, {"lat": "12.0", "city": "Westerhall Point", "lon": "-61.7"}, {"lat": "12.0", "city": "Westerhall", "lon": "-61.7"}, {"lat": "12.05", "city": "White Gun", "lon": "-61.7333333"}, {"lat": "12.0833333", "city": "Willis", "lon": "-61.7166667"}, {"lat": "12.0166667", "city": "Woborn", "lon": "-61.7333333"}, {"lat": "12.0166667", "city": "Woburn", "lon": "-61.7333333"}], "01": [{"lat": "12.1", "city": "Adelphia", "lon": "-61.6666667"}, {"lat": "12.1", "city": "Adelphi", "lon": "-61.6666667"}, {"lat": "12.1", "city": "Battle Hill", "lon": "-61.6166667"}, {"lat": "12.1", "city": "Beauregard", "lon": "-61.6666667"}, {"lat": "12.15", "city": "Belair", "lon": "-61.6166667"}, {"lat": "12.1", "city": "Bellevue", "lon": "-61.65"}, {"lat": "12.1333333", "city": "Belvidere", "lon": "-61.7"}, {"lat": "12.1", "city": "Birch Grove", "lon": "-61.6666667"}, {"lat": "12.15", "city": "Blaize", "lon": "-61.65"}, {"lat": "12.1166667", "city": "Brandon Hall", "lon": "-61.6333333"}, {"lat": "12.1333333", "city": "Bylands", "lon": "-61.6666667"}, {"lat": "12.1166667", "city": "Castaigne", "lon": "-61.6666667"}, {"lat": "12.1333333", "city": "Chadeau", "lon": "-61.6833333"}, {"lat": "12.1", "city": "Chutz", "lon": "-61.65"}, {"lat": "12.1333333", "city": "Clabony", "lon": "-61.6666667"}, {"lat": "12.1333333", "city": "Clozier", "lon": "-61.6833333"}, {"lat": "12.15", "city": "Conference", "lon": "-61.6166667"}, {"lat": "12.1", "city": "Deblando", "lon": "-61.6333333"}, {"lat": "12.1333333", "city": "Dumfermline", "lon": "-61.6166667"}, {"lat": "12.1333333", "city": "Dunfermline", "lon": "-61.6166667"}, {"lat": "12.0666667", "city": "Felix Park", "lon": "-61.65"}, {"lat": "12.1166667", "city": "Ford", "lon": "-61.6166667"}, {"lat": "12.1333333", "city": "Grand Bra", "lon": "-61.6333333"}, {"lat": "12.1166667", "city": "Grand Bras", "lon": "-61.6333333"}, {"lat": "12.1166667", "city": "Grenville", "lon": "-61.6166667"}, {"lat": "12.1166667", "city": "Harford Village", "lon": "-61.6333333"}, {"lat": "12.15", "city": "Hermon", "lon": "-61.6166667"}, {"lat": "12.0833333", "city": "Hope Bacolet", "lon": "-61.6166667"}, {"lat": "12.1166667", "city": "La Baye", "lon": "-61.6166667"}, {"lat": "12.1", "city": "La Didue", "lon": "-61.6333333"}, {"lat": "12.1", "city": "La Digue", "lon": "-61.6333333"}, {"lat": "12.1333333", "city": "La Filette", "lon": "-61.6333333"}, {"lat": "12.1666667", "city": "La Poterie", "lon": "-61.6"}, {"lat": "12.1166667", "city": "L'Esterre", "lon": "-61.6333333"}, {"lat": "12.1166667", "city": "Lower Capitol", "lon": "-61.6666667"}, {"lat": "12.05", "city": "Lower La Tante", "lon": "-61.6333333"}, {"lat": "12.1333333", "city": "Lower Pearl", "lon": "-61.6166667"}, {"lat": "12.1333333", "city": "Lower Pearls", "lon": "-61.6166667"}, {"lat": "12.05", "city": "Mahot", "lon": "-61.6333333"}, {"lat": "12.0666667", "city": "Mamma Cannes", "lon": "-61.65"}, {"lat": "12.0833333", "city": "Marquis", "lon": "-61.6166667"}, {"lat": "12.1166667", "city": "Merebeau", "lon": "-61.65"}, {"lat": "12.1166667", "city": "Mirabeau", "lon": "-61.65"}, {"lat": "12.0833333", "city": "Mont Carmel", "lon": "-61.6333333"}, {"lat": "12.1333333", "city": "Morne Jaloux", "lon": "-61.6833333"}, {"lat": "12.1166667", "city": "Morne Longue", "lon": "-61.6833333"}, {"lat": "12.0666667", "city": "Mount Agnes", "lon": "-61.6666667"}, {"lat": "12.0833333", "city": "Mount Carmel", "lon": "-61.6333333"}, {"lat": "12.0666667", "city": "Mount Cassell Land Settlement", "lon": "-61.65"}, {"lat": "12.0833333", "city": "Mount Fann", "lon": "-61.6333333"}, {"lat": "12.15", "city": "Mount Hope", "lon": "-61.6666667"}, {"lat": "12.1333333", "city": "Mount Horne", "lon": "-61.6333333"}, {"lat": "12.0666667", "city": "Mount William", "lon": "-61.6666667"}, {"lat": "12.15", "city": "Moya", "lon": "-61.6166667"}, {"lat": "12.0833333", "city": "Munich", "lon": "-61.6333333"}, {"lat": "12.1166667", "city": "Nianganfoix", "lon": "-61.6666667"}, {"lat": "12.15", "city": "Paraclete", "lon": "-61.6333333"}, {"lat": "12.1333333", "city": "Paradise", "lon": "-61.6166667"}, {"lat": "12.1333333", "city": "Paradise", "lon": "-61.6833333"}, {"lat": "12.15", "city": "Pearls", "lon": "-61.6166667"}, {"lat": "12.1166667", "city": "P\u00eacher", "lon": "-61.6833333"}, {"lat": "12.1", "city": "Petit Balthazar", "lon": "-61.6666667"}, {"lat": "12.0666667", "city": "Pierre Marie", "lon": "-61.65"}, {"lat": "12.1333333", "city": "Plaisance Land Settlement", "lon": "-61.6833333"}, {"lat": "12.1", "city": "Plaisance", "lon": "-61.6333333"}, {"lat": "12.1", "city": "Post Royal", "lon": "-61.6333333"}, {"lat": "12.1333333", "city": "Pyr\u00e9n\u00e9es", "lon": "-61.6666667"}, {"lat": "12.0666667", "city": "Retreat", "lon": "-61.6666667"}, {"lat": "12.1", "city": "Richmond", "lon": "-61.65"}, {"lat": "12.1166667", "city": "Saint Cloud", "lon": "-61.6333333"}, {"lat": "12.1166667", "city": "Saint Cyr", "lon": "-61.65"}, {"lat": "12.1", "city": "Saint James", "lon": "-61.65"}, {"lat": "12.1166667", "city": "Saint John", "lon": "-61.6333333"}, {"lat": "12.1", "city": "Saint Margaret", "lon": "-61.6833333"}, {"lat": "12.1333333", "city": "Saint Omer", "lon": "-61.6666667"}, {"lat": "12.1333333", "city": "Simon", "lon": "-61.6166667"}, {"lat": "12.1", "city": "Soubise", "lon": "-61.6166667"}, {"lat": "12.1166667", "city": "Telescope", "lon": "-61.6166667"}, {"lat": "12.0666667", "city": "Terre Cannes", "lon": "-61.6666667"}, {"lat": "12.1666667", "city": "Tivoli", "lon": "-61.6166667"}, {"lat": "12.1", "city": "Union", "lon": "-61.6333333"}, {"lat": "12.1", "city": "Union Village", "lon": "-61.6333333"}, {"lat": "12.1166667", "city": "Upper Capitol", "lon": "-61.6666667"}, {"lat": "12.15", "city": "Upper Conference", "lon": "-61.6166667"}, {"lat": "12.15", "city": "Upper Pearls", "lon": "-61.6166667"}, {"lat": "12.15", "city": "Upper Pearl", "lon": "-61.6166667"}, {"lat": "12.1333333", "city": "Windsor", "lon": "-61.6666667"}], "06": [{"lat": "12.45", "city": "Argyle", "lon": "-61.4833333"}, {"lat": "12.1666667", "city": "Arthur Seat", "lon": "-61.6333333"}, {"lat": "12.1666667", "city": "Barique", "lon": "-61.65"}, {"lat": "12.4833333", "city": "Belair", "lon": "-61.4333333"}, {"lat": "12.1666667", "city": "Belmont", "lon": "-61.6333333"}, {"lat": "12.5", "city": "Belvedere", "lon": "-61.4333333"}, {"lat": "12.5", "city": "Bogles", "lon": "-61.4333333"}, {"lat": "12.1666667", "city": "Carriere", "lon": "-61.6333333"}, {"lat": "12.1833333", "city": "Castle Hill", "lon": "-61.6666667"}, {"lat": "12.2166667", "city": "Celeste", "lon": "-61.6333333"}, {"lat": "12.2", "city": "Chantimelle", "lon": "-61.65"}, {"lat": "12.2166667", "city": "Des Isles", "lon": "-61.6666667"}, {"lat": "12.2", "city": "Diego Piece", "lon": "-61.6666667"}, {"lat": "12.5", "city": "Dover", "lon": "-61.4333333"}, {"lat": "12.4666667", "city": "Dumfries", "lon": "-61.4666667"}, {"lat": "12.2", "city": "Duquesne", "lon": "-61.6666667"}, {"lat": "12.2", "city": "Elie Hall", "lon": "-61.6333333"}, {"lat": "12.4833333", "city": "Grand Bay", "lon": "-61.4333333"}, {"lat": "12.2166667", "city": "Helvellyn", "lon": "-61.6333333"}, {"lat": "12.1666667", "city": "Hermitage", "lon": "-61.6333333"}, {"lat": "12.4833333", "city": "Hillsborough", "lon": "-61.4666667"}, {"lat": "12.2166667", "city": "Industry", "lon": "-61.6833333"}, {"lat": "12.2166667", "city": "La Fortune", "lon": "-61.6333333"}, {"lat": "12.2", "city": "La Mode", "lon": "-61.6333333"}, {"lat": "12.5166667", "city": "L'Appelle", "lon": "-61.4333333"}, {"lat": "12.1833333", "city": "La Taste", "lon": "-61.6166667"}, {"lat": "12.2166667", "city": "Le Sausos", "lon": "-61.6666667"}, {"lat": "12.4666667", "city": "L'Esterre", "lon": "-61.4833333"}, {"lat": "12.1833333", "city": "L'Etage", "lon": "-61.6333333"}, {"lat": "12.2", "city": "Levera Development", "lon": "-61.6166667"}, {"lat": "12.2166667", "city": "Levera", "lon": "-61.6333333"}, {"lat": "12.1833333", "city": "Lower La Taste", "lon": "-61.6166667"}, {"lat": "12.2166667", "city": "Marli", "lon": "-61.6333333"}, {"lat": "12.5", "city": "Meldrum", "lon": "-61.4333333"}, {"lat": "12.1833333", "city": "Montreuil", "lon": "-61.6333333"}, {"lat": "12.2", "city": "Morne Fendue", "lon": "-61.6333333"}, {"lat": "12.2", "city": "Morne Fondue", "lon": "-61.6333333"}, {"lat": "12.2166667", "city": "Mount Alexander", "lon": "-61.65"}, {"lat": "12.2166667", "city": "Mount Craven", "lon": "-61.65"}, {"lat": "12.4666667", "city": "Mount Pleasant", "lon": "-61.4333333"}, {"lat": "12.1833333", "city": "Mount Rich", "lon": "-61.6333333"}, {"lat": "12.1833333", "city": "Mount Rose", "lon": "-61.6166667"}, {"lat": "12.2166667", "city": "Mount William", "lon": "-61.6666667"}, {"lat": "12.2166667", "city": "Panorama", "lon": "-61.65"}, {"lat": "12.1666667", "city": "Peggys Whim", "lon": "-61.6333333"}, {"lat": "12.2166667", "city": "Prospect", "lon": "-61.6666667"}, {"lat": "12.2", "city": "River Sallee", "lon": "-61.6166667"}, {"lat": "12.2", "city": "Rivi\u00e8re Sallee", "lon": "-61.6166667"}, {"lat": "12.2", "city": "Rose Hill", "lon": "-61.6166667"}, {"lat": "12.2166667", "city": "Sauteurs", "lon": "-61.6333333"}, {"lat": "12.2166667", "city": "Sautiers", "lon": "-61.6333333"}, {"lat": "12.4666667", "city": "Six Roads", "lon": "-61.45"}, {"lat": "12.2166667", "city": "Trevellan", "lon": "-61.6333333"}, {"lat": "12.1833333", "city": "Tricolar", "lon": "-61.65"}, {"lat": "12.2", "city": "Union", "lon": "-61.65"}, {"lat": "12.1833333", "city": "Upper La Taste", "lon": "-61.6166667"}, {"lat": "12.2", "city": "Welcome Hall", "lon": "-61.65"}, {"lat": "12.5166667", "city": "Windward", "lon": "-61.4333333"}], "04": [{"lat": "12.1666667", "city": "Charlotte Town", "lon": "-61.7333333"}, {"lat": "12.1166667", "city": "Concord", "lon": "-61.7333333"}, {"lat": "12.1333333", "city": "Dothan", "lon": "-61.7333333"}, {"lat": "12.15", "city": "Florida", "lon": "-61.7"}, {"lat": "12.1666667", "city": "Gouave", "lon": "-61.7333333"}, {"lat": "12.1666667", "city": "Gouyave", "lon": "-61.7333333"}, {"lat": "12.1666667", "city": "Goyave", "lon": "-61.7333333"}, {"lat": "12.1166667", "city": "Grand Roy", "lon": "-61.75"}, {"lat": "12.1666667", "city": "Guyave", "lon": "-61.7333333"}, {"lat": "12.15", "city": "Mabouya", "lon": "-61.7333333"}, {"lat": "12.1166667", "city": "Marigot", "lon": "-61.75"}, {"lat": "12.1166667", "city": "Mon Plaisir", "lon": "-61.7166667"}, {"lat": "12.1333333", "city": "Mount Nesbit Land Settlement", "lon": "-61.7166667"}, {"lat": "12.1333333", "city": "Mount Nesbit", "lon": "-61.7166667"}, {"lat": "12.15", "city": "Rosemont", "lon": "-61.7"}, {"lat": "12.15", "city": "Saint Mary", "lon": "-61.7"}], "05": [{"lat": "12.1833333", "city": "Bellevue", "lon": "-61.6833333"}, {"lat": "12.1833333", "city": "Belmont", "lon": "-61.6833333"}, {"lat": "12.2", "city": "Crayfish", "lon": "-61.6833333"}, {"lat": "12.1833333", "city": "Grand Pauve", "lon": "-61.7"}, {"lat": "12.1833333", "city": "Grand Pauvre", "lon": "-61.7"}, {"lat": "12.1833333", "city": "L'Esperance", "lon": "-61.7"}, {"lat": "12.1666667", "city": "Maran", "lon": "-61.7166667"}, {"lat": "12.1666667", "city": "Mount Cenis", "lon": "-61.7"}, {"lat": "12.1833333", "city": "Mount Stanhope", "lon": "-61.6833333"}, {"lat": "12.2", "city": "Nonpareil", "lon": "-61.6833333"}, {"lat": "12.1833333", "city": "Saint Mark", "lon": "-61.7"}, {"lat": "12.1833333", "city": "Saint Marks", "lon": "-61.7"}, {"lat": "12.1833333", "city": "Saint Mark Village", "lon": "-61.7"}, {"lat": "12.1666667", "city": "The Lance", "lon": "-61.7166667"}, {"lat": "12.1833333", "city": "Victoria", "lon": "-61.7"}, {"lat": "12.2", "city": "Waltham", "lon": "-61.7"}]}}