{"GE": {"45": [{"lat": "42.3022222", "city": "Argvet'i", "lon": "43.4838889"}, {"lat": "42.3333333", "city": "Badzhiti", "lon": "43.35"}, {"lat": "42.2666667", "city": "Bakhioti", "lon": "43.4666667"}, {"lat": "42.1666667", "city": "Bekami", "lon": "43.55"}, {"lat": "42.1666667", "city": "Bekami Bolshiye", "lon": "43.55"}, {"lat": "42.3333333", "city": "Bodzhiti", "lon": "43.35"}, {"lat": "42.2833333", "city": "Bzhinevi", "lon": "43.3833333"}, {"lat": "42.3325", "city": "Chala", "lon": "43.5186111"}, {"lat": "42.1786111", "city": "Chalovani", "lon": "43.5180556"}, {"lat": "42.1786111", "city": "Chalvani", "lon": "43.5180556"}, {"lat": "42.1786111", "city": "Chalvani Nizhniye", "lon": "43.5180556"}, {"lat": "42.3494444", "city": "Ch'ikha", "lon": "43.4338889"}, {"lat": "42.2891667", "city": "Chlorvila", "lon": "43.4227778"}, {"lat": "42.2383333", "city": "Chonto", "lon": "43.5505556"}, {"lat": "42.2891667", "city": "Chorvila", "lon": "43.4227778"}, {"lat": "42.3666667", "city": "Churnali", "lon": "43.6"}, {"lat": "42.3577778", "city": "Dallag-Kanzman", "lon": "43.6263889"}, {"lat": "42.3577778", "city": "Dallag-Karzman", "lon": "43.6263889"}, {"lat": "42.3283333", "city": "Darka", "lon": "43.5472222"}, {"lat": "42.3411111", "city": "Darkveti", "lon": "43.3627778"}, {"lat": "42.3619444", "city": "Davayeti", "lon": "43.5227778"}, {"lat": "42.3619444", "city": "Daveti", "lon": "43.5227778"}, {"lat": "42.1413889", "city": "Dedabera", "lon": "43.5461111"}, {"lat": "42.3619444", "city": "Dovleti", "lon": "43.5227778"}, {"lat": "42.3333333", "city": "Drbo", "lon": "43.5333333"}, {"lat": "42.35", "city": "Dunta", "lon": "43.4166667"}, {"lat": "42.2766667", "city": "Durevi", "lon": "43.5055556"}, {"lat": "42.4061111", "city": "Dzhalabeti", "lon": "43.6508333"}, {"lat": "42.255", "city": "Dzhalauri", "lon": "43.4116667"}, {"lat": "42.255", "city": "Dzhalaurta", "lon": "43.4116667"}, {"lat": "42.4261111", "city": "Dzholkheti", "lon": "43.3825"}, {"lat": "42.3488889", "city": "Dzhria", "lon": "43.5866667"}, {"lat": "42.2666667", "city": "Dzirula", "lon": "43.6"}, {"lat": "42.3125", "city": "Eto", "lon": "43.5030556"}, {"lat": "42.1569444", "city": "Godora", "lon": "43.4944444"}, {"lat": "42.2366667", "city": "Gogoladzeyebi", "lon": "43.4772222"}, {"lat": "42.3363889", "city": "Gona", "lon": "43.5094444"}, {"lat": "42.2886111", "city": "Gorisa", "lon": "43.46"}, {"lat": "42.3", "city": "Irtavaza", "lon": "43.5333333"}, {"lat": "42.3", "city": "Itskisi", "lon": "43.4833333"}, {"lat": "42.255", "city": "Jalaurt'a", "lon": "43.4116667"}, {"lat": "42.3488889", "city": "Jria", "lon": "43.5866667"}, {"lat": "42.2", "city": "Jvari", "lon": "43.5666667"}, {"lat": "42.3166667", "city": "Kaluata", "lon": "43.4"}, {"lat": "42.3166667", "city": "Kalvata", "lon": "43.4"}, {"lat": "42.35", "city": "Karzman", "lon": "43.6333333"}, {"lat": "42.4", "city": "Khakheti", "lon": "43.6166667"}, {"lat": "42.1997222", "city": "Khvani", "lon": "43.5336111"}, {"lat": "42.3005556", "city": "Kolevi", "lon": "43.5455556"}, {"lat": "42.2425", "city": "Korbouli", "lon": "43.4880556"}, {"lat": "42.31", "city": "K'oret'i", "lon": "43.3988889"}, {"lat": "42.35", "city": "K'veda Orghuli", "lon": "43.4833333"}, {"lat": "42.35", "city": "Kveda-Orguli", "lon": "43.4833333"}, {"lat": "42.1686111", "city": "Kveda-Tsmani", "lon": "43.4955556"}, {"lat": "42.3577778", "city": "K'vemo K'arzmani", "lon": "43.6263889"}, {"lat": "42.3922222", "city": "Kvereti", "lon": "43.4111111"}, {"lat": "42.4319444", "city": "Kvichori", "lon": "43.4163889"}, {"lat": "42.2833333", "city": "Makhatauri", "lon": "43.5"}, {"lat": "42.32", "city": "Malvata", "lon": "43.3916667"}, {"lat": "42.3125", "city": "Merdzhevi", "lon": "43.4511111"}, {"lat": "42.3125", "city": "Merjevi", "lon": "43.4511111"}, {"lat": "42.2708333", "city": "Modzvi", "lon": "43.4191667"}, {"lat": "42.4025", "city": "Mokhva", "lon": "43.3252778"}, {"lat": "42.2141667", "city": "Nigvzara", "lon": "43.4705556"}, {"lat": "42.3444444", "city": "Orguli", "lon": "43.4844444"}, {"lat": "42.2261111", "city": "Otria", "lon": "43.5691667"}, {"lat": "42.3747222", "city": "Perevi", "lon": "43.6013889"}, {"lat": "42.3452778", "city": "Sach'khere", "lon": "43.4194444"}, {"lat": "42.3452778", "city": "Sachkheri", "lon": "43.4194444"}, {"lat": "42.3191667", "city": "Sairkhe", "lon": "43.4122222"}, {"lat": "42.2519444", "city": "Sakanapura", "lon": "43.5255556"}, {"lat": "42.3333333", "city": "Sakokhia", "lon": "43.4833333"}, {"lat": "42.3411111", "city": "Sareki", "lon": "43.3627778"}, {"lat": "42.3191667", "city": "Savane", "lon": "43.4677778"}, {"lat": "42.2833333", "city": "Shalauri", "lon": "43.4666667"}, {"lat": "42.2930556", "city": "Shekouli", "lon": "43.5480556"}, {"lat": "42.2280556", "city": "Shomakhet'i", "lon": "43.4291667"}, {"lat": "42.3986111", "city": "Sinaguri", "lon": "43.6286111"}, {"lat": "42.2455556", "city": "Sisvadzeyebi Nizhniye", "lon": "43.4902778"}, {"lat": "42.2455556", "city": "Sisvadzeyebi", "lon": "43.4902778"}, {"lat": "42.2455556", "city": "Sisvadzeyevi", "lon": "43.4902778"}, {"lat": "42.35", "city": "Skhvitori", "lon": "43.4333333"}, {"lat": "42.3222222", "city": "Spet'i", "lon": "43.5225"}, {"lat": "42.3452778", "city": "Ssatschcheri", "lon": "43.4194444"}, {"lat": "42.4194444", "city": "T'edelet'i", "lon": "43.6038889"}, {"lat": "42.3166667", "city": "Tsitelsopeli", "lon": "43.4"}, {"lat": "42.2863889", "city": "Tskhami", "lon": "43.5127778"}, {"lat": "42.2863889", "city": "Tskham", "lon": "43.5127778"}, {"lat": "42.4097222", "city": "Ts'khomaret'i", "lon": "43.4008333"}, {"lat": "42.1686111", "city": "Tsmani", "lon": "43.4955556"}, {"lat": "42.35", "city": "Tsoisi", "lon": "43.7333333"}, {"lat": "42.1461111", "city": "Ulumba", "lon": "43.5822222"}, {"lat": "42.2538889", "city": "Uruna", "lon": "43.5641667"}, {"lat": "42.4141667", "city": "Uzunta", "lon": "43.3427778"}, {"lat": "42.3091667", "city": "Valanda", "lon": "43.5486111"}, {"lat": "42.3666667", "city": "Vuallag-Karzman", "lon": "43.6333333"}, {"lat": "42.3444444", "city": "Zeda-Orguli", "lon": "43.4844444"}, {"lat": "42.3666667", "city": "Zemo-Karzmani", "lon": "43.6333333"}], "54": [{"lat": "42.1302778", "city": "Akhalsop'eli", "lon": "44.9972222"}, {"lat": "42.05", "city": "Aloti", "lon": "44.95"}, {"lat": "42.2225", "city": "(( Areulebi ))", "lon": "45.0858333"}, {"lat": "42.2211111", "city": "Artani", "lon": "44.9866667"}, {"lat": "42.2730556", "city": "(( Babkhiskhevi ))", "lon": "45.0794444"}, {"lat": "42.2838889", "city": "(( Bachali ))", "lon": "45.0286111"}, {"lat": "42.2838889", "city": "Bachati", "lon": "45.0286111"}, {"lat": "42.2730556", "city": "Bakhis-Khevi", "lon": "45.0794444"}, {"lat": "41.9558333", "city": "Balebiskhevi", "lon": "44.8994444"}, {"lat": "41.95", "city": "Betsentsurebi", "lon": "45.0277778"}, {"lat": "42.2002778", "city": "Bodakheva", "lon": "44.9802778"}, {"lat": "42.2002778", "city": "Bodakhevi", "lon": "44.9802778"}, {"lat": "42.0613889", "city": "Bokoni", "lon": "44.9469444"}, {"lat": "42.1377778", "city": "Ch'abano", "lon": "45.0208333"}, {"lat": "42.0705556", "city": "Ch'ekuraant'gori", "lon": "44.9552778"}, {"lat": "42.0705556", "city": "Chekurantgori", "lon": "44.9552778"}, {"lat": "42.0705556", "city": "Chekuriaantgori", "lon": "44.9552778"}, {"lat": "42.0705556", "city": "Chekuriant-Gori", "lon": "44.9552778"}, {"lat": "42.1644444", "city": "Chiaura", "lon": "45.0372222"}, {"lat": "42.0333333", "city": "Chiotaant-Kari", "lon": "45.0"}, {"lat": "42.0333333", "city": "(( Chiotantkari ))", "lon": "45.0"}, {"lat": "41.9830556", "city": "Chitaurebi", "lon": "44.8677778"}, {"lat": "42.1377778", "city": "Chobano", "lon": "45.0208333"}, {"lat": "42.1333333", "city": "Churchelaurebi", "lon": "44.9666667"}, {"lat": "42.1333333", "city": "Churgelaurebi", "lon": "44.9666667"}, {"lat": "41.9588889", "city": "Dareulebi", "lon": "45.0102778"}, {"lat": "41.9802778", "city": "Devenaantkhevi", "lon": "44.9497222"}, {"lat": "41.9802778", "city": "Deveniant-Khevi", "lon": "44.9497222"}, {"lat": "41.9588889", "city": "Doreulebi", "lon": "45.0102778"}, {"lat": "42.1555556", "city": "Duduzaurebi", "lon": "44.9797222"}, {"lat": "42.1555556", "city": "Duluzaurebi", "lon": "44.9797222"}, {"lat": "42.1005556", "city": "Dzebniaurebi", "lon": "44.9869444"}, {"lat": "42.1477778", "city": "Dzhervalidzeyebi", "lon": "44.88"}, {"lat": "42.1491667", "city": "Dzhidzheti", "lon": "44.8927778"}, {"lat": "42.0388889", "city": "Dzirkhvniani", "lon": "44.8866667"}, {"lat": "42.0388889", "city": "Dzvirkhvniani", "lon": "44.8866667"}, {"lat": "42.0402778", "city": "Evzhenti", "lon": "44.9347222"}, {"lat": "41.9413889", "city": "Ghulelebi", "lon": "44.9288889"}, {"lat": "42.1416667", "city": "Godzhiaanebi", "lon": "44.9830556"}, {"lat": "42.1416667", "city": "Godzhianebi", "lon": "44.9830556"}, {"lat": "42.1416667", "city": "Godzhionebi", "lon": "44.9830556"}, {"lat": "41.9922222", "city": "Gorana", "lon": "44.89"}, {"lat": "41.95", "city": "Gudanelebi", "lon": "44.95"}, {"lat": "41.9413889", "city": "Guleleba", "lon": "44.9288889"}, {"lat": "41.9413889", "city": "Gulelebi", "lon": "44.9288889"}, {"lat": "42.1530556", "city": "Iaradzhulebi", "lon": "44.9016667"}, {"lat": "42.1491667", "city": "Jijet'i", "lon": "44.8927778"}, {"lat": "42.1508333", "city": "Kakbeti", "lon": "44.9697222"}, {"lat": "42.1166667", "city": "Kakhoianebi", "lon": "44.9166667"}, {"lat": "41.8786111", "city": "Kevliani", "lon": "44.9958333"}, {"lat": "41.9333333", "city": "Khadoyelebi", "lon": "44.9333333"}, {"lat": "42.1866667", "city": "Khaisho", "lon": "45.0633333"}, {"lat": "42.1866667", "city": "Khaysho", "lon": "45.0633333"}, {"lat": "41.9894444", "city": "Khevsurt'sop'eli", "lon": "44.9425"}, {"lat": "41.9894444", "city": "Khevurtsopeli", "lon": "44.9425"}, {"lat": "42.245", "city": "(( Korsavi ))", "lon": "45.0319444"}, {"lat": "42.0166667", "city": "(( Kupriantkari ))", "lon": "44.9833333"}, {"lat": "42.2219444", "city": "Kushkhevi", "lon": "44.9802778"}, {"lat": "42.2752778", "city": "Kvara", "lon": "45.0486111"}, {"lat": "42.2211111", "city": "K'vemo Artani", "lon": "44.9866667"}, {"lat": "41.9505556", "city": "K'vemo Nak'alak'ari", "lon": "45.0113889"}, {"lat": "41.9575", "city": "Kvernaula", "lon": "44.9088889"}, {"lat": "41.9541667", "city": "Kviriaskhevi", "lon": "44.9191667"}, {"lat": "41.9541667", "city": "Kviriskhevi", "lon": "44.9191667"}, {"lat": "42.0819444", "city": "Lelovani", "lon": "44.9669444"}, {"lat": "42.0819444", "city": "Lelovoni", "lon": "44.9669444"}, {"lat": "41.8647222", "city": "Lelubani", "lon": "44.9302778"}, {"lat": "42.1761111", "city": "Lisho", "lon": "44.9616667"}, {"lat": "41.9355556", "city": "Magranet'i", "lon": "44.9833333"}, {"lat": "42.1508333", "city": "Mamadaanebi", "lon": "44.9697222"}, {"lat": "42.1508333", "city": "Mamadanebi", "lon": "44.9697222"}, {"lat": "42.05", "city": "Mazhaloiana", "lon": "44.9833333"}, {"lat": "41.9969444", "city": "Meliaskhevi", "lon": "44.9397222"}, {"lat": "41.9766667", "city": "Nadkokra", "lon": "44.8905556"}, {"lat": "41.9766667", "city": "Nadokra", "lon": "44.8905556"}, {"lat": "41.9402778", "city": "Nakalakari", "lon": "45.0105556"}, {"lat": "42.1305556", "city": "Nakhriauli", "lon": "45.0625"}, {"lat": "42.05", "city": "Nakvetaurebi", "lon": "44.9833333"}, {"lat": "42.2211111", "city": "Nizhniye Artani", "lon": "44.9866667"}, {"lat": "41.9505556", "city": "Nizhniye Nakalakari", "lon": "45.0113889"}, {"lat": "42.1166667", "city": "Sachure", "lon": "44.95"}, {"lat": "41.9763889", "city": "Sagdrioni", "lon": "44.9569444"}, {"lat": "42.0166667", "city": "(( Sakaraulo ))", "lon": "44.9666667"}, {"lat": "41.9763889", "city": "Sakdrioni", "lon": "44.9569444"}, {"lat": "42.15", "city": "Sakrechio", "lon": "44.9"}, {"lat": "41.9763889", "city": "Saqdrioni", "lon": "44.9569444"}, {"lat": "42.0027778", "city": "Simoniant'khevi", "lon": "44.9091667"}, {"lat": "41.9641667", "city": "Sionisgori", "lon": "44.8944444"}, {"lat": "41.9641667", "city": "Siontgori", "lon": "44.8944444"}, {"lat": "42.1905556", "city": "Skhlovani", "lon": "44.9933333"}, {"lat": "42.2608333", "city": "Soklioni", "lon": "45.0"}, {"lat": "42.2608333", "city": "(( Soplioni ))", "lon": "45.0"}, {"lat": "42.0027778", "city": "Svimoniantkhevi", "lon": "44.9091667"}, {"lat": "42.0058333", "city": "Tblendzhi", "lon": "44.9202778"}, {"lat": "42.0975", "city": "Tegeraanebi", "lon": "44.9802778"}, {"lat": "42.0975", "city": "Tegeranebi", "lon": "44.9802778"}, {"lat": "41.8825", "city": "Tetdzami", "lon": "44.9516667"}, {"lat": "42.0972222", "city": "Tetrakheva", "lon": "44.9522222"}, {"lat": "42.0972222", "city": "Tetrakhevi", "lon": "44.9522222"}, {"lat": "42.0975", "city": "Teyeranebi", "lon": "44.9802778"}, {"lat": "41.8825", "city": "Tezami", "lon": "44.9516667"}, {"lat": "42.1094444", "city": "T'ianet'i", "lon": "44.9552778"}, {"lat": "42.1094444", "city": "Tianety", "lon": "44.9552778"}, {"lat": "42.1094444", "city": "Tioneti", "lon": "44.9552778"}, {"lat": "42.1094444", "city": "Tionety", "lon": "44.9552778"}, {"lat": "41.9311111", "city": "Togolchebi", "lon": "44.9638889"}, {"lat": "41.9311111", "city": "Tokholcha", "lon": "44.9638889"}, {"lat": "41.9311111", "city": "Tokholchebi", "lon": "44.9638889"}, {"lat": "41.9444444", "city": "Tolatsopeli", "lon": "44.9452778"}, {"lat": "42.0058333", "city": "Tolendzhi", "lon": "44.9202778"}, {"lat": "42.0058333", "city": "T'olenji", "lon": "44.9202778"}, {"lat": "41.9372222", "city": "Trani", "lon": "44.9711111"}, {"lat": "41.9947222", "city": "Tsalkuliant-Kari", "lon": "44.9194444"}, {"lat": "41.9947222", "city": "Tsalugelaantkari", "lon": "44.9194444"}, {"lat": "41.9947222", "city": "Tsalugliantkari", "lon": "44.9194444"}, {"lat": "41.8819444", "city": "Tskharichamia", "lon": "44.9280556"}, {"lat": "41.8819444", "city": "Ts'khvarichamia", "lon": "44.9280556"}, {"lat": "41.8819444", "city": "Tskhvarichamiya", "lon": "44.9280556"}, {"lat": "41.8819444", "city": "Tskhvarigamia", "lon": "44.9280556"}, {"lat": "42.1172222", "city": "Tushurebi", "lon": "44.9019444"}, {"lat": "41.9486111", "city": "Vedzatkheva", "lon": "45.0005556"}, {"lat": "41.9486111", "city": "Vedzatkhevi", "lon": "45.0005556"}, {"lat": "41.9591667", "city": "Vedzat", "lon": "44.9905556"}, {"lat": "42.2388889", "city": "Verkhniye Artani", "lon": "44.9961111"}, {"lat": "41.9402778", "city": "Verkhniye Nakalakari", "lon": "45.0105556"}, {"lat": "42.1666667", "city": "Verkhveli", "lon": "44.9166667"}, {"lat": "41.9591667", "city": "Vetzatkhevi", "lon": "44.9905556"}, {"lat": "42.2388889", "city": "Zemo Artani", "lon": "44.9961111"}, {"lat": "41.9402778", "city": "Zemo Na'kalak'ari", "lon": "45.0105556"}, {"lat": "42.1666667", "city": "Zemo-Tianeti", "lon": "44.8833333"}, {"lat": "42.1002778", "city": "Zhebota", "lon": "44.9772222"}], "42": [{"lat": "42.6038889", "city": "Abano", "lon": "44.3888889"}, {"lat": "42.5777778", "city": "Agatkau", "lon": "44.4719444"}, {"lat": "42.5869444", "city": "Akhalts'ikhe", "lon": "44.6627778"}, {"lat": "42.5569444", "city": "Almasiani", "lon": "44.4969444"}, {"lat": "42.6291667", "city": "Burmaseki", "lon": "44.3405556"}, {"lat": "42.6291667", "city": "Burmasigi", "lon": "44.3405556"}, {"lat": "42.6075", "city": "Desi", "lon": "44.3522222"}, {"lat": "42.5805556", "city": "Dzhuta", "lon": "44.7466667"}, {"lat": "42.6391667", "city": "Gimara", "lon": "44.3327778"}, {"lat": "42.5805556", "city": "Jut'a", "lon": "44.7466667"}, {"lat": "42.5894444", "city": "Kanobi", "lon": "44.5266667"}, {"lat": "42.6241667", "city": "Karatkau", "lon": "44.3527778"}, {"lat": "42.5783333", "city": "Karkuch'a", "lon": "44.6786111"}, {"lat": "42.5958333", "city": "Ketrisi", "lon": "44.3975"}, {"lat": "42.5980556", "city": "Khurt'isi", "lon": "44.5383333"}, {"lat": "42.5583333", "city": "Kobi", "lon": "44.5122222"}, {"lat": "42.5902778", "city": "K'oseli", "lon": "44.6630556"}, {"lat": "42.6108333", "city": "Kvemo-Desi", "lon": "44.3502778"}, {"lat": "42.5952778", "city": "Kvemo-Mna", "lon": "44.4591667"}, {"lat": "42.5861111", "city": "Kvemo-Okrokana", "lon": "44.465"}, {"lat": "42.5894444", "city": "Lanobi", "lon": "44.5266667"}, {"lat": "42.6119444", "city": "Mna", "lon": "44.4641667"}, {"lat": "42.6108333", "city": "Nizhniye Desi", "lon": "44.3502778"}, {"lat": "42.5952778", "city": "Nizhnyaya Mna", "lon": "44.4591667"}, {"lat": "42.5861111", "city": "Nizhnyaya Okrokana", "lon": "44.465"}, {"lat": "42.5733333", "city": "Nogkau", "lon": "44.4725"}, {"lat": "42.5808333", "city": "Okrokana", "lon": "44.4630556"}, {"lat": "42.6619444", "city": "Resi", "lon": "44.3041667"}, {"lat": "42.5830556", "city": "Shavardeni", "lon": "44.4716667"}, {"lat": "42.5830556", "city": "Shevardeni", "lon": "44.4716667"}, {"lat": "42.63", "city": "Suat'isi", "lon": "44.3827778"}, {"lat": "42.6572222", "city": "Tep'i", "lon": "44.3191667"}, {"lat": "42.6280556", "city": "Tsotsolda", "lon": "44.3338889"}, {"lat": "42.6280556", "city": "Tsotsolta", "lon": "44.3338889"}, {"lat": "42.6", "city": "Verkhniye Desi", "lon": "44.35"}, {"lat": "42.6119444", "city": "Verkhnyaya Mna", "lon": "44.4641667"}, {"lat": "42.5808333", "city": "Verkhnyaya Okrokana", "lon": "44.4630556"}, {"lat": "42.7263889", "city": "(( Yermolovskaya ))", "lon": "44.5461111"}, {"lat": "42.6", "city": "Zemo-Desi", "lon": "44.35"}, {"lat": "42.6119444", "city": "Zemo-Mna", "lon": "44.4641667"}, {"lat": "42.5808333", "city": "Zemo-Okrokana", "lon": "44.4630556"}], "43": [{"lat": "41.9047222", "city": "Akhalsop'eli", "lon": "45.9769444"}, {"lat": "41.7911111", "city": "Akhasheni", "lon": "45.7361111"}, {"lat": "41.8597222", "city": "Akura", "lon": "45.6230556"}, {"lat": "42.0297222", "city": "Almati", "lon": "45.6808333"}, {"lat": "41.8666667", "city": "Bushati", "lon": "45.5833333"}, {"lat": "41.8666667", "city": "Busheti", "lon": "45.5833333"}, {"lat": "41.9102778", "city": "Chantlis-Kure", "lon": "45.9152778"}, {"lat": "41.9102778", "city": "Ch'antlisquri", "lon": "45.9152778"}, {"lat": "41.7361111", "city": "Cheremi", "lon": "45.6108333"}, {"lat": "41.7625", "city": "Chumiaki", "lon": "45.765"}, {"lat": "41.7625", "city": "Chumlaki", "lon": "45.765"}, {"lat": "41.7625", "city": "Ch'umlaqi", "lon": "45.765"}, {"lat": "41.6791667", "city": "Dzhimiti", "lon": "45.6902778"}, {"lat": "41.8633333", "city": "(( Endzeba ))", "lon": "46.0605556"}, {"lat": "42.0016667", "city": "Eniseli", "lon": "45.6613889"}, {"lat": "41.8719444", "city": "(( Garbuti ))", "lon": "46.0655556"}, {"lat": "42.0341667", "city": "Grdzeli Chala", "lon": "45.6308333"}, {"lat": "42.0136111", "city": "Gremi", "lon": "45.6702778"}, {"lat": "42.0611111", "city": "Intsoba", "lon": "45.7180556"}, {"lat": "41.6791667", "city": "Jimit'i", "lon": "45.6902778"}, {"lat": "41.8833333", "city": "(( Kalaki ))", "lon": "46.05"}, {"lat": "41.8319444", "city": "Kalauri", "lon": "45.6661111"}, {"lat": "41.8747222", "city": "Khashalkhuti", "lon": "46.0597222"}, {"lat": "41.8977778", "city": "Kisiskhevi", "lon": "45.5436111"}, {"lat": "41.9241667", "city": "Kondoli", "lon": "45.5777778"}, {"lat": "41.8811111", "city": "Kuchatani", "lon": "45.84"}, {"lat": "41.9513889", "city": "Kvareli", "lon": "45.8016667"}, {"lat": "41.9513889", "city": "Kvarely", "lon": "45.8016667"}, {"lat": "41.8858333", "city": "K'vemo Khodasheni", "lon": "45.5766667"}, {"lat": "41.6716667", "city": "Makharadze", "lon": "45.675"}, {"lat": "41.8747222", "city": "Mt'isdziri", "lon": "46.0597222"}, {"lat": "41.8747222", "city": "Mtsidziri", "lon": "46.0597222"}, {"lat": "41.8019444", "city": "Mukazani", "lon": "45.7344444"}, {"lat": "41.8019444", "city": "Mukuzani", "lon": "45.7344444"}, {"lat": "41.9169444", "city": "Nasamkhrali", "lon": "45.5408333"}, {"lat": "41.8858333", "city": "Nizhniye Khodasheni", "lon": "45.5766667"}, {"lat": "41.8969444", "city": "Oktemberi", "lon": "45.9330556"}, {"lat": "41.8969444", "city": "Ok'tomberi", "lon": "45.9330556"}, {"lat": "42.0833333", "city": "(( Pikali ))", "lon": "45.7333333"}, {"lat": "41.9513889", "city": "Qvareli", "lon": "45.8016667"}, {"lat": "42.0261111", "city": "Sabue", "lon": "45.6925"}, {"lat": "42.0261111", "city": "Sabuye", "lon": "45.6925"}, {"lat": "41.8947222", "city": "Sanavardo", "lon": "45.8133333"}, {"lat": "42.0169444", "city": "Shak'riani", "lon": "45.5816667"}, {"lat": "42.0169444", "city": "Shakrian'", "lon": "45.5816667"}, {"lat": "41.915", "city": "Shalauri", "lon": "45.5002778"}, {"lat": "41.8252778", "city": "Shashiani", "lon": "45.6794444"}, {"lat": "41.6641667", "city": "Shibliani", "lon": "45.6197222"}, {"lat": "42.0088889", "city": "Shilda", "lon": "45.7258333"}, {"lat": "41.8444444", "city": "Shroma", "lon": "45.6563889"}, {"lat": "41.9125", "city": "(( Sinobiani ))", "lon": "45.9047222"}, {"lat": "41.9094444", "city": "Tivi", "lon": "45.9611111"}, {"lat": "41.87", "city": "Tkhilistskaro", "lon": "46.0191667"}, {"lat": "41.895", "city": "Tsinandali", "lon": "45.5702778"}, {"lat": "41.895", "city": "Tsinondali", "lon": "45.5702778"}, {"lat": "41.9094444", "city": "Tsitskanaant'seri", "lon": "45.8511111"}, {"lat": "41.82", "city": "Uriatubani", "lon": "45.6911111"}, {"lat": "41.8411111", "city": "Vach'nadziani", "lon": "45.6577778"}, {"lat": "41.8802778", "city": "Vanta", "lon": "45.5961111"}, {"lat": "41.82", "city": "Vazisubani", "lon": "45.6911111"}, {"lat": "41.8161111", "city": "Velists'ikhe", "lon": "45.7525"}, {"lat": "42.0016667", "city": "Yeniseli", "lon": "45.6613889"}, {"lat": "42.0016667", "city": "Yeviseli", "lon": "45.6613889"}, {"lat": "41.7972222", "city": "Zegaani", "lon": "45.7211111"}, {"lat": "41.8969444", "city": "Zinobiani", "lon": "45.9330556"}], "60": [{"lat": "42.0902778", "city": "Amaghleba", "lon": "42.64"}, {"lat": "42.0902778", "city": "Amagleba", "lon": "42.64"}, {"lat": "41.7", "city": "Apiyeti", "lon": "42.6333333"}, {"lat": "42.0475", "city": "Baboti", "lon": "42.7175"}, {"lat": "42.0622222", "city": "Bagineti", "lon": "42.7325"}, {"lat": "41.7666667", "city": "Bayburt", "lon": "42.55"}, {"lat": "42.0813889", "city": "Bzvani", "lon": "42.5244444"}, {"lat": "42.125", "city": "Chagan-Chkvishi", "lon": "42.4291667"}, {"lat": "41.7047222", "city": "Chechla", "lon": "42.6225"}, {"lat": "41.7047222", "city": "Chechlya", "lon": "42.6225"}, {"lat": "41.6902778", "city": "Chela", "lon": "42.6180556"}, {"lat": "42.1141667", "city": "Chkvishi", "lon": "42.4044444"}, {"lat": "41.7558333", "city": "Derts'eli", "lon": "42.5961111"}, {"lat": "42.0583333", "city": "Dikashkho", "lon": "42.5786111"}, {"lat": "42.0583333", "city": "Dikhashkho", "lon": "42.5786111"}, {"lat": "42.0333333", "city": "Dobiro", "lon": "42.4666667"}, {"lat": "42.0133333", "city": "Dutskhuni", "lon": "42.4783333"}, {"lat": "42.0297222", "city": "Dzulukhi", "lon": "42.6041667"}, {"lat": "42.03", "city": "Gadidi", "lon": "42.5541667"}, {"lat": "42.0666667", "city": "Gagma-Vani", "lon": "42.5166667"}, {"lat": "42.0686111", "city": "Gora", "lon": "42.6647222"}, {"lat": "41.7166667", "city": "Gortubani", "lon": "42.6333333"}, {"lat": "42.05", "city": "Imer-Ukhuti", "lon": "42.7166667"}, {"lat": "42.0744444", "city": "Inashauri", "lon": "42.68"}, {"lat": "42.0558333", "city": "Isriti", "lon": "42.5205556"}, {"lat": "41.7052778", "city": "Kekhovani", "lon": "42.5894444"}, {"lat": "41.7666667", "city": "Kikibo", "lon": "42.55"}, {"lat": "42.0536111", "city": "Kirovi", "lon": "42.7222222"}, {"lat": "42.0338889", "city": "Kumuri", "lon": "42.4691667"}, {"lat": "42.0416667", "city": "Kushubauri", "lon": "42.4677778"}, {"lat": "42.0416667", "city": "Kushubouri", "lon": "42.4677778"}, {"lat": "41.9225", "city": "Kvabga", "lon": "42.4127778"}, {"lat": "41.9225", "city": "K'vabgha", "lon": "42.4127778"}, {"lat": "42.0819444", "city": "K'veda Bzvani", "lon": "42.5972222"}, {"lat": "42.0686111", "city": "K'veda Gora", "lon": "42.6647222"}, {"lat": "42.0691667", "city": "K'veda Muk'edi", "lon": "42.5141667"}, {"lat": "42.1027778", "city": "K'veda Ts'ikhesulori", "lon": "42.4669444"}, {"lat": "42.0330556", "city": "Maisauri", "lon": "42.4372222"}, {"lat": "42.0330556", "city": "Mayseuri", "lon": "42.4372222"}, {"lat": "42.05", "city": "Mikeleponi", "lon": "42.4666667"}, {"lat": "42.05", "city": "Mikelponi", "lon": "42.4666667"}, {"lat": "41.7177778", "city": "Mokhe", "lon": "42.6097222"}, {"lat": "42.1113889", "city": "Mt'isdziri", "lon": "42.4338889"}, {"lat": "42.1113889", "city": "Mtisdzirt", "lon": "42.4338889"}, {"lat": "41.7333333", "city": "Namniauri", "lon": "42.6166667"}, {"lat": "42.0819444", "city": "Nizhniye Bzvani", "lon": "42.5972222"}, {"lat": "42.0313889", "city": "Ondzhokheti", "lon": "42.5341667"}, {"lat": "42.0963889", "city": "Patara Rokhi", "lon": "42.7175"}, {"lat": "42.0252778", "city": "Pateleseuli", "lon": "42.4658333"}, {"lat": "42.0638889", "city": "P'eret'a", "lon": "42.7080556"}, {"lat": "42.0338889", "city": "Qumuri", "lon": "42.4691667"}, {"lat": "42.0375", "city": "Romaneti", "lon": "42.6469444"}, {"lat": "42.0727778", "city": "Salkhino", "lon": "42.5622222"}, {"lat": "42.0833333", "city": "Salominao", "lon": "42.71"}, {"lat": "42.0319444", "city": "Saprasia", "lon": "42.6397222"}, {"lat": "42.0833333", "city": "Shua-Gora", "lon": "42.6833333"}, {"lat": "42.1111111", "city": "Shuamt'a", "lon": "42.4672222"}, {"lat": "41.9738889", "city": "Shua Surebi", "lon": "42.4216667"}, {"lat": "42.0233333", "city": "Sulari", "lon": "42.575"}, {"lat": "42.0233333", "city": "Sulori", "lon": "42.575"}, {"lat": "42.0519444", "city": "Tkelovani", "lon": "42.5461111"}, {"lat": "42.0519444", "city": "Tkelvani", "lon": "42.5461111"}, {"lat": "42.0447222", "city": "Tkhelagami", "lon": "42.3997222"}, {"lat": "42.0447222", "city": "Tkhelagani", "lon": "42.3997222"}, {"lat": "42.0447222", "city": "Tkhilagani", "lon": "42.3997222"}, {"lat": "41.95", "city": "Tobakhcha-Tavsurebi", "lon": "42.4666667"}, {"lat": "42.0708333", "city": "Tobanieri", "lon": "42.4505556"}, {"lat": "42.0708333", "city": "Tobaniyeri", "lon": "42.4505556"}, {"lat": "42.0477778", "city": "Tsiaghubani", "lon": "42.4130556"}, {"lat": "42.0477778", "city": "Tsiagobani", "lon": "42.4130556"}, {"lat": "42.0477778", "city": "Tsiagubani", "lon": "42.4130556"}, {"lat": "42.0969444", "city": "Tsikhesulori", "lon": "42.4963889"}, {"lat": "41.7166667", "city": "Tsikhisubani", "lon": "42.6"}, {"lat": "42.0338889", "city": "Ukhut'i", "lon": "42.6930556"}, {"lat": "42.0813889", "city": "Vani", "lon": "42.5244444"}, {"lat": "42.0616667", "city": "Verkhniye Bzvani", "lon": "42.6461111"}, {"lat": "42.0516667", "city": "Verkhniye Vani", "lon": "42.5397222"}, {"lat": "42.0616667", "city": "Zeda-Bzvani", "lon": "42.6461111"}, {"lat": "42.0833333", "city": "Zeda-Etser-Tobaniyeri", "lon": "42.4333333"}, {"lat": "42.0666667", "city": "Zeda-Gora", "lon": "42.6833333"}, {"lat": "42.0333333", "city": "Zeda-Mukedi", "lon": "42.4833333"}, {"lat": "42.0969444", "city": "Zeda-Tsikhesulori", "lon": "42.4963889"}, {"lat": "42.0516667", "city": "Zeda-Vani", "lon": "42.5397222"}, {"lat": "41.7166667", "city": "Zedubani", "lon": "42.6333333"}, {"lat": "42.0997222", "city": "Zeindari", "lon": "42.6794444"}, {"lat": "41.9505556", "city": "Zemo Surebi", "lon": "42.4663889"}, {"lat": "41.8944444", "city": "Zoti", "lon": "42.4586111"}, {"lat": "42.1027778", "city": "Zuda-Tsikhesulori", "lon": "42.4669444"}], "61": [{"lat": "42.1", "city": "Akhali Sviri", "lon": "42.95"}, {"lat": "42.0533333", "city": "Alaverdi", "lon": "43.045"}, {"lat": "42.1338889", "city": "Amsaisi", "lon": "43.1972222"}, {"lat": "42.145", "city": "Argveta", "lon": "42.9863889"}, {"lat": "42.145", "city": "Argveti", "lon": "42.9863889"}, {"lat": "42.145", "city": "Argveto", "lon": "42.9863889"}, {"lat": "42.2036111", "city": "Beghlevi", "lon": "43.1719444"}, {"lat": "42.2036111", "city": "Beglevi", "lon": "43.1719444"}, {"lat": "42.2036111", "city": "Boglevi", "lon": "43.1719444"}, {"lat": "42.2030556", "city": "Boslevi", "lon": "43.1916667"}, {"lat": "42.1188889", "city": "Chala", "lon": "43.1944444"}, {"lat": "42.0152778", "city": "Chalkeyeti", "lon": "43.0397222"}, {"lat": "42.0152778", "city": "Chalkhesti", "lon": "43.0397222"}, {"lat": "42.1047222", "city": "Didi-Gantiadi", "lon": "43.1755556"}, {"lat": "42.2169444", "city": "Didtsipela", "lon": "43.1397222"}, {"lat": "42.1566667", "city": "Dilikauri", "lon": "43.1730556"}, {"lat": "42.11", "city": "Dshugeli", "lon": "43.0525"}, {"lat": "42.0908333", "city": "Dzerula", "lon": "43.1758333"}, {"lat": "42.2311111", "city": "Dzhokoyeti", "lon": "43.1583333"}, {"lat": "42.11", "city": "Dzhugeli", "lon": "43.0525"}, {"lat": "42.0908333", "city": "Dzirula", "lon": "43.1758333"}, {"lat": "42.0908333", "city": "Dziruly", "lon": "43.1758333"}, {"lat": "42.2030556", "city": "Gaghma Boslevi", "lon": "43.1916667"}, {"lat": "42.2030556", "city": "Gagma-Boslevi", "lon": "43.1916667"}, {"lat": "42.2030556", "city": "Gamoghma Boslevi", "lon": "43.1613889"}, {"lat": "42.2030556", "city": "Gamogma-Boslevi", "lon": "43.1613889"}, {"lat": "42.1047222", "city": "Gantiadi Bol'shiye", "lon": "43.1755556"}, {"lat": "42.1047222", "city": "Gantiadi", "lon": "43.1755556"}, {"lat": "42.0833333", "city": "Gantiadi Malyye", "lon": "43.1666667"}, {"lat": "42.0833333", "city": "Ilemi", "lon": "43.1166667"}, {"lat": "42.0777778", "city": "Ilemi Verkhniye", "lon": "43.115"}, {"lat": "42.05", "city": "Kinoti", "lon": "43.05"}, {"lat": "42.05", "city": "Kldeyeti", "lon": "43.0519444"}, {"lat": "42.05", "city": "Kldiyeti", "lon": "43.0519444"}, {"lat": "42.0769444", "city": "Kvaliti", "lon": "43.0063889"}, {"lat": "42.0786111", "city": "K'veda Ilemi", "lon": "43.1413889"}, {"lat": "42.0666667", "city": "K'veda Kldeet'i", "lon": "43.0666667"}, {"lat": "42.0666667", "city": "Kveda-Kldeyeti", "lon": "43.0666667"}, {"lat": "42.0927778", "city": "K'veda Kvalit'i", "lon": "43.0027778"}, {"lat": "42.1366667", "city": "K'veda Sak'ara", "lon": "43.0511111"}, {"lat": "42.195", "city": "K'veda Sazano", "lon": "43.07"}, {"lat": "42.0833333", "city": "K'veda Tseva", "lon": "43.1333333"}, {"lat": "42.1166667", "city": "K'veda Tsip'lavake", "lon": "43.1333333"}, {"lat": "42.1666667", "city": "Kveletubani", "lon": "43.1"}, {"lat": "42.11", "city": "Kvirily", "lon": "43.0525"}, {"lat": "42.0666667", "city": "Leladziseuli", "lon": "43.1333333"}, {"lat": "42.1277778", "city": "Macharukha", "lon": "43.1883333"}, {"lat": "42.1277778", "city": "Macharula", "lon": "43.1883333"}, {"lat": "42.1244444", "city": "Makatubani", "lon": "43.2275"}, {"lat": "42.1955556", "city": "Mardzhvena-Rkvia", "lon": "43.18"}, {"lat": "42.1955556", "city": "Marjvena Rkvia", "lon": "43.18"}, {"lat": "42.1325", "city": "Martotubani", "lon": "43.0736111"}, {"lat": "42.1325", "city": "Martoubani", "lon": "43.0736111"}, {"lat": "42.1994444", "city": "Marts'khena Rkvia", "lon": "43.1555556"}, {"lat": "42.1063889", "city": "Meore Sviri", "lon": "42.9097222"}, {"lat": "42.11", "city": "Namaneva", "lon": "43.0525"}, {"lat": "42.0833333", "city": "Patara-Gantiadi", "lon": "43.1666667"}, {"lat": "42.1091667", "city": "Pirveli Maisi", "lon": "43.1075"}, {"lat": "42.1177778", "city": "Pirveli Sviri", "lon": "42.9725"}, {"lat": "42.1091667", "city": "Pirvelmaisi", "lon": "43.1075"}, {"lat": "42.1177778", "city": "Pirvili Sviri", "lon": "42.9725"}, {"lat": "42.08", "city": "P'ut'i", "lon": "43.1197222"}, {"lat": "42.1994444", "city": "Rkvia Levaya", "lon": "43.1555556"}, {"lat": "42.1955556", "city": "Rkvia Pravaya", "lon": "43.18"}, {"lat": "42.1477778", "city": "Rodinauli", "lon": "42.8936111"}, {"lat": "42.1477778", "city": "Rodinouli", "lon": "42.8936111"}, {"lat": "42.1091667", "city": "Sagvine", "lon": "43.1075"}, {"lat": "42.1366667", "city": "Sakara Nizhnyaya", "lon": "43.0511111"}, {"lat": "42.1563889", "city": "Sakara Verkhnyaya", "lon": "43.13"}, {"lat": "42.1325", "city": "Sanakhshire", "lon": "43.1458333"}, {"lat": "42.1525", "city": "Satsable", "lon": "43.1813889"}, {"lat": "42.195", "city": "Sazano Nizhneye", "lon": "43.07"}, {"lat": "42.0958333", "city": "Schorapani", "lon": "43.1155556"}, {"lat": "42.0958333", "city": "Schorpani", "lon": "43.1155556"}, {"lat": "42.11", "city": "Sestafoni", "lon": "43.0525"}, {"lat": "42.0958333", "city": "Sharadan'", "lon": "43.1155556"}, {"lat": "42.0958333", "city": "Shorapani", "lon": "43.1155556"}, {"lat": "42.0958333", "city": "Shorapan'", "lon": "43.1155556"}, {"lat": "42.0958333", "city": "Shorpani", "lon": "43.1155556"}, {"lat": "42.1277778", "city": "Shroma Nizhnyaya", "lon": "43.1883333"}, {"lat": "42.1277778", "city": "Shrosha", "lon": "43.1883333"}, {"lat": "42.1333333", "city": "Shrosha Verkhnyaya", "lon": "43.2"}, {"lat": "42.0769444", "city": "Shua Kvalit'i", "lon": "43.0063889"}, {"lat": "42.1488889", "city": "Svetmagali", "lon": "42.8761111"}, {"lat": "42.1177778", "city": "Sviri Pervyye", "lon": "42.9725"}, {"lat": "42.1563889", "city": "Sviri", "lon": "42.9025"}, {"lat": "42.1063889", "city": "Sviri Vtoryye", "lon": "42.9097222"}, {"lat": "42.0638889", "city": "Tabakini", "lon": "43.0352778"}, {"lat": "42.1758333", "city": "Tqlapivake", "lon": "43.0661111"}, {"lat": "42.0833333", "city": "Tseva-Nizhnyaya", "lon": "43.1333333"}, {"lat": "42.0991667", "city": "Tseva", "lon": "43.1377778"}, {"lat": "42.0991667", "city": "Tseva Verkhnyaya", "lon": "43.1377778"}, {"lat": "42.0991667", "city": "Tsevi", "lon": "43.1377778"}, {"lat": "42.1166667", "city": "Tsiplavake", "lon": "43.1333333"}, {"lat": "42.1438889", "city": "Ts'khent'aro", "lon": "42.8763889"}, {"lat": "42.1002778", "city": "Tskhratskaro", "lon": "43.0461111"}, {"lat": "42.1002778", "city": "Ts'khratsqaro", "lon": "43.0461111"}, {"lat": "42.0991667", "city": "Tsyevi", "lon": "43.1377778"}, {"lat": "42.0777778", "city": "Zeda-Ilemi", "lon": "43.115"}, {"lat": "42.05", "city": "Zeda Kldeet'i", "lon": "43.0519444"}, {"lat": "42.05", "city": "Zeda-Kldeyeti", "lon": "43.0519444"}, {"lat": "42.0666667", "city": "Zeda-Kvaliti", "lon": "43.0166667"}, {"lat": "42.1563889", "city": "Zeda Sak'ara", "lon": "43.13"}, {"lat": "42.0991667", "city": "Zeda-Tseva", "lon": "43.1377778"}, {"lat": "42.1166667", "city": "Zeda-Tsiplavake", "lon": "43.1333333"}, {"lat": "42.11", "city": "Zestafoni", "lon": "43.0525"}, {"lat": "42.11", "city": "Zestap'oni", "lon": "43.0525"}, {"lat": "42.11", "city": "Zistafoni", "lon": "43.0525"}, {"lat": "42.1919444", "city": "Zovret'i", "lon": "43.0527778"}], "62": [{"lat": "42.4011111", "city": "Abast'umani", "lon": "41.8888889"}, {"lat": "42.5333333", "city": "Abastumani", "lon": "41.8166667"}, {"lat": "42.5166667", "city": "Akhali Abast'umani", "lon": "41.8102778"}, {"lat": "42.4619444", "city": "Akhalkakhat'i", "lon": "41.7286111"}, {"lat": "42.4766667", "city": "Akhalsop'eli", "lon": "41.8913889"}, {"lat": "42.4766667", "city": "Akhalsop'ili", "lon": "41.8913889"}, {"lat": "42.4766667", "city": "Akhelsopeli", "lon": "41.8913889"}, {"lat": "42.3983333", "city": "Anaklia", "lon": "41.5652778"}, {"lat": "42.3983333", "city": "Anaklija", "lon": "41.5652778"}, {"lat": "42.3983333", "city": "Anakliya", "lon": "41.5652778"}, {"lat": "42.3983333", "city": "Anakriya", "lon": "41.5652778"}, {"lat": "42.4727778", "city": "Bagmarani", "lon": "41.9661111"}, {"lat": "42.5619444", "city": "Bashi", "lon": "41.9269444"}, {"lat": "42.4888889", "city": "Chakvindzhi", "lon": "41.9902778"}, {"lat": "42.4888889", "city": "Chak'vinja", "lon": "41.9902778"}, {"lat": "42.4888889", "city": "Chak'vinji", "lon": "41.9902778"}, {"lat": "42.3666667", "city": "Chernomorskiy Pos\u00eblok", "lon": "41.6"}, {"lat": "42.4", "city": "Chitatskari", "lon": "41.6166667"}, {"lat": "42.4", "city": "Chita-Tskhali", "lon": "41.6166667"}, {"lat": "42.4786111", "city": "Chit'atsqari", "lon": "41.8502778"}, {"lat": "42.6097222", "city": "Ch'khoria", "lon": "41.9513889"}, {"lat": "42.4341667", "city": "Chkhoushi", "lon": "41.7838889"}, {"lat": "42.4341667", "city": "Darch'eli", "lon": "41.7005556"}, {"lat": "42.4583333", "city": "Davidiani", "lon": "41.7841667"}, {"lat": "42.4583333", "city": "Davitiani", "lon": "41.7841667"}, {"lat": "42.3461111", "city": "Dgvaba", "lon": "41.7347222"}, {"lat": "42.4113889", "city": "Didi Nedzi", "lon": "41.7125"}, {"lat": "42.4", "city": "Dikhagudzuba", "lon": "41.7166667"}, {"lat": "42.5136111", "city": "Dzhikhashkari", "lon": "42.04"}, {"lat": "42.5136111", "city": "Dzhikhaskari", "lon": "42.04"}, {"lat": "42.4516667", "city": "Dzhumi", "lon": "41.8761111"}, {"lat": "42.385", "city": "Ergeta", "lon": "41.6830556"}, {"lat": "42.3983333", "city": "Fort Anakria", "lon": "41.5652778"}, {"lat": "42.4105556", "city": "Ganardzhias-Mukhuri", "lon": "41.5863889"}, {"lat": "42.4105556", "city": "Ganardzhiis-Mukhuri", "lon": "41.5863889"}, {"lat": "42.4105556", "city": "Ganardzhis-Mukhuri", "lon": "41.5863889"}, {"lat": "42.4105556", "city": "Ganarjiis Mukhuri", "lon": "41.5863889"}, {"lat": "42.4105556", "city": "Ganmukhuri", "lon": "41.5863889"}, {"lat": "42.5325", "city": "Gligolishi", "lon": "41.9594444"}, {"lat": "42.5325", "city": "Grigolishi", "lon": "41.9594444"}, {"lat": "42.4902778", "city": "Ingiri", "lon": "41.8175"}, {"lat": "42.4902778", "city": "Inguri", "lon": "41.8175"}, {"lat": "42.5136111", "city": "Jikhaskari", "lon": "42.04"}, {"lat": "42.4880556", "city": "Kakhat'i", "lon": "41.7786111"}, {"lat": "42.3961111", "city": "Kashadepa", "lon": "41.9313889"}, {"lat": "42.4236111", "city": "Khets'era", "lon": "41.8672222"}, {"lat": "42.4127778", "city": "Kirovi", "lon": "41.6708333"}, {"lat": "42.4127778", "city": "Kirov", "lon": "41.6708333"}, {"lat": "42.4847222", "city": "Koki", "lon": "41.7030556"}, {"lat": "42.5530556", "city": "Korts'kheli", "lon": "41.9383333"}, {"lat": "42.58", "city": "Lechitine", "lon": "41.9225"}, {"lat": "42.3719444", "city": "Magiri", "lon": "41.7402778"}, {"lat": "42.6233333", "city": "Makharia", "lon": "41.9372222"}, {"lat": "42.4502778", "city": "Meore-Otobaiya", "lon": "41.6433333"}, {"lat": "42.4502778", "city": "Meore-Otobaya", "lon": "41.6433333"}, {"lat": "42.3719444", "city": "Mogiri", "lon": "41.7402778"}, {"lat": "42.3636111", "city": "Nachkadou", "lon": "41.6911111"}, {"lat": "42.3636111", "city": "Nachkadu", "lon": "41.6911111"}, {"lat": "42.3858333", "city": "Nakalevi", "lon": "41.7213889"}, {"lat": "42.4447222", "city": "Nakargali", "lon": "41.6072222"}, {"lat": "42.3952778", "city": "Narazeni", "lon": "41.9252778"}, {"lat": "42.5708333", "city": "Natsatou", "lon": "41.9802778"}, {"lat": "42.5708333", "city": "Natsatu", "lon": "41.9802778"}, {"lat": "42.5480556", "city": "Natsuluku", "lon": "41.8883333"}, {"lat": "42.5163889", "city": "Odishi", "lon": "41.9205556"}, {"lat": "42.5163889", "city": "Odish", "lon": "41.9205556"}, {"lat": "42.4711111", "city": "Oireme", "lon": "41.8172222"}, {"lat": "42.4405556", "city": "Ok'tomberi", "lon": "41.7708333"}, {"lat": "42.4486111", "city": "Opachkhapu", "lon": "41.8916667"}, {"lat": "42.5125", "city": "Ordzhonikidze", "lon": "41.9452778"}, {"lat": "42.5125", "city": "Orjonikidze", "lon": "41.9452778"}, {"lat": "42.4686111", "city": "Orsantia", "lon": "41.6625"}, {"lat": "42.3988889", "city": "Orule", "lon": "41.7175"}, {"lat": "42.3988889", "city": "Orulu", "lon": "41.7175"}, {"lat": "42.5072222", "city": "Palazoni", "lon": "42.0613889"}, {"lat": "42.5069444", "city": "Qulishkari", "lon": "41.95"}, {"lat": "42.5852778", "city": "Rike", "lon": "41.8847222"}, {"lat": "42.5852778", "city": "Riqe", "lon": "41.8847222"}, {"lat": "42.5627778", "city": "Rukhi", "lon": "41.8533333"}, {"lat": "42.5561111", "city": "Sabulio", "lon": "41.8905556"}, {"lat": "42.53", "city": "Sachurgulio", "lon": "41.965"}, {"lat": "42.4", "city": "Sakukao", "lon": "41.7833333"}, {"lat": "42.5444444", "city": "Sapartsvanno", "lon": "41.8397222"}, {"lat": "42.5619444", "city": "Satordio", "lon": "41.9194444"}, {"lat": "42.4", "city": "Shamadela", "lon": "41.9333333"}, {"lat": "42.5383333", "city": "Shamgona", "lon": "41.7977778"}, {"lat": "42.4", "city": "Shashadela", "lon": "41.9333333"}, {"lat": "42.5013889", "city": "Sugdidi", "lon": "41.8613889"}, {"lat": "42.5477778", "city": "Tageloni", "lon": "41.7883333"}, {"lat": "42.5477778", "city": "T'agiloni", "lon": "41.7883333"}, {"lat": "42.3663889", "city": "Tikori", "lon": "41.5958333"}, {"lat": "42.6197222", "city": "Tkaia", "lon": "41.9225"}, {"lat": "42.6197222", "city": "Tkaya", "lon": "41.9225"}, {"lat": "42.3433333", "city": "Tkhnoishi", "lon": "41.7363889"}, {"lat": "42.4277778", "city": "Ts'aishi", "lon": "41.8008333"}, {"lat": "42.4197222", "city": "Ts'ats'khvi", "lon": "41.8013889"}, {"lat": "42.4277778", "city": "Tsayshi", "lon": "41.8008333"}, {"lat": "42.4", "city": "Tschitazkari", "lon": "41.6166667"}, {"lat": "42.3691667", "city": "Tsvane", "lon": "41.6461111"}, {"lat": "42.4919444", "city": "Uchashona", "lon": "41.9261111"}, {"lat": "42.4072222", "city": "Urt'a", "lon": "41.8088889"}, {"lat": "42.385", "city": "Yergeti", "lon": "41.6830556"}, {"lat": "42.5788889", "city": "Zeda Etseri", "lon": "41.9261111"}, {"lat": "42.6147222", "city": "Zeni", "lon": "41.8811111"}, {"lat": "42.5013889", "city": "Zugdidi", "lon": "41.8613889"}], "57": [{"lat": "42.7022222", "city": "Chale", "lon": "42.0425"}, {"lat": "42.5952778", "city": "Chkaduashi", "lon": "41.9883333"}, {"lat": "42.705", "city": "Ch'k'valeri", "lon": "42.1002778"}, {"lat": "42.6786111", "city": "Chvele", "lon": "42.0075"}, {"lat": "42.6563889", "city": "Dzhagali", "lon": "42.1475"}, {"lat": "42.5375", "city": "Dzhagira", "lon": "42.0705556"}, {"lat": "42.6563889", "city": "Dzhegali", "lon": "42.1475"}, {"lat": "42.6563889", "city": "Dzhgala", "lon": "42.1475"}, {"lat": "42.6563889", "city": "Dzhgali", "lon": "42.1475"}, {"lat": "42.7138889", "city": "Dzhvara", "lon": "42.0536111"}, {"lat": "42.7138889", "city": "Dzhvari", "lon": "42.0536111"}, {"lat": "42.7138889", "city": "Dzhvary", "lon": "42.0536111"}, {"lat": "42.7138889", "city": "Dzhvarzeni", "lon": "42.0536111"}, {"lat": "42.7008333", "city": "Eristsqali", "lon": "41.9486111"}, {"lat": "42.72", "city": "Esherp'erdi", "lon": "42.04"}, {"lat": "42.6491667", "city": "Etseri", "lon": "42.0352778"}, {"lat": "42.72", "city": "Etserperdi", "lon": "42.04"}, {"lat": "42.5375", "city": "Jagira", "lon": "42.0705556"}, {"lat": "42.6563889", "city": "Jgali", "lon": "42.1475"}, {"lat": "42.6563889", "city": "Jugheli", "lon": "42.1475"}, {"lat": "42.7138889", "city": "Jvari", "lon": "42.0536111"}, {"lat": "42.7869444", "city": "Khudoni", "lon": "42.0441667"}, {"lat": "42.64", "city": "Koko", "lon": "42.1722222"}, {"lat": "42.6852778", "city": "Kukheshi", "lon": "42.1208333"}, {"lat": "42.6830556", "city": "Landzhishi", "lon": "41.9897222"}, {"lat": "42.6758333", "city": "Lara", "lon": "42.1311111"}, {"lat": "42.6327778", "city": "Lekharch'ile", "lon": "42.1419444"}, {"lat": "42.6666667", "city": "Lesale", "lon": "42.0833333"}, {"lat": "42.7238889", "city": "Leshamuge", "lon": "42.0533333"}, {"lat": "42.6533333", "city": "Lia", "lon": "42.0219444"}, {"lat": "42.6533333", "city": "Liya", "lon": "42.0219444"}, {"lat": "42.6388889", "city": "Mazandara", "lon": "42.0813889"}, {"lat": "42.6761111", "city": "Medani", "lon": "42.1561111"}, {"lat": "42.6166667", "city": "Mik'ava", "lon": "42.1277778"}, {"lat": "42.715", "city": "Muzha", "lon": "41.9875"}, {"lat": "42.715", "city": "Muzhava", "lon": "41.9875"}, {"lat": "42.6930556", "city": "Naguru", "lon": "42.105"}, {"lat": "42.5627778", "city": "Nakip'u", "lon": "42.105"}, {"lat": "42.7233333", "city": "Nashamuau", "lon": "41.9786111"}, {"lat": "42.64", "city": "Noko", "lon": "42.1722222"}, {"lat": "42.5594444", "city": "Obudzhi", "lon": "42.0644444"}, {"lat": "42.5594444", "city": "Obuji", "lon": "42.0644444"}, {"lat": "42.6138889", "city": "Ordzhonikidze", "lon": "42.0208333"}, {"lat": "42.6138889", "city": "Orjonikidze", "lon": "42.0208333"}, {"lat": "42.6644444", "city": "P'akhulani", "lon": "41.97"}, {"lat": "42.7516667", "city": "Potskho Etseri", "lon": "42.0466667"}, {"lat": "42.7666667", "city": "Purashi", "lon": "42.0333333"}, {"lat": "42.5952778", "city": "Qvaduashi", "lon": "41.9883333"}, {"lat": "42.6430556", "city": "Sach'ino", "lon": "42.0919444"}, {"lat": "42.7022222", "city": "Tchale", "lon": "42.0425"}, {"lat": "42.6044444", "city": "Tsalendzhikha", "lon": "42.0772222"}, {"lat": "42.6044444", "city": "Tsalenjikha", "lon": "42.0772222"}, {"lat": "42.7833333", "city": "Tskavashi", "lon": "42.1166667"}, {"lat": "42.5855556", "city": "Uluria", "lon": "42.1186111"}, {"lat": "42.6775", "city": "Zeda Lia", "lon": "42.0463889"}, {"lat": "42.6558333", "city": "Zinda", "lon": "42.1588889"}], "64": [{"lat": "42.3777778", "city": "Akhalbediseuli", "lon": "42.5266667"}, {"lat": "42.3777778", "city": "Akhalbediseull", "lon": "42.5266667"}, {"lat": "42.3777778", "city": "Akhali Bedissuli", "lon": "42.5266667"}, {"lat": "42.4608333", "city": "Banchuet", "lon": "42.5302778"}, {"lat": "42.4608333", "city": "Banchueti", "lon": "42.5302778"}, {"lat": "42.4608333", "city": "Bangveti", "lon": "42.5302778"}, {"lat": "42.2775", "city": "Bol'shiye Gubi", "lon": "42.4680556"}, {"lat": "42.3241667", "city": "Choni", "lon": "42.43"}, {"lat": "42.3538889", "city": "Dedalauri", "lon": "42.5233333"}, {"lat": "42.4319444", "city": "Didgvabuna", "lon": "42.4911111"}, {"lat": "42.2775", "city": "Didi Gubi", "lon": "42.4680556"}, {"lat": "42.2944444", "city": "Didi Kukhi", "lon": "42.4577778"}, {"lat": "42.4241667", "city": "Dzedzilet'i", "lon": "42.57"}, {"lat": "42.4333333", "city": "Gagma-Noga", "lon": "42.55"}, {"lat": "42.4333333", "city": "Gamogma-Noga", "lon": "42.5166667"}, {"lat": "42.4391667", "city": "Gelaveri", "lon": "42.5705556"}, {"lat": "42.2763889", "city": "Gocha-Dzhikhaishi", "lon": "42.4308333"}, {"lat": "42.2763889", "city": "Goch'ajikhaishi", "lon": "42.4308333"}, {"lat": "42.4275", "city": "Gordi", "lon": "42.5652778"}, {"lat": "42.2775", "city": "Gubi", "lon": "42.4680556"}, {"lat": "42.4166667", "city": "Gvashtibi", "lon": "42.5666667"}, {"lat": "42.2877778", "city": "Gvazauri", "lon": "42.3619444"}, {"lat": "42.4622222", "city": "Gvedi", "lon": "42.5916667"}, {"lat": "42.4166667", "city": "Gvishtibi", "lon": "42.5666667"}, {"lat": "42.3", "city": "Ivandidi", "lon": "42.4238889"}, {"lat": "42.3", "city": "Ivanridi", "lon": "42.4238889"}, {"lat": "42.4166667", "city": "Khidi", "lon": "42.5"}, {"lat": "42.3241667", "city": "Khoni", "lon": "42.43"}, {"lat": "42.5", "city": "Kinchkha", "lon": "42.5666667"}, {"lat": "42.4963889", "city": "Kinchkha-Perdi", "lon": "42.5577778"}, {"lat": "42.34", "city": "Kontuati", "lon": "42.4066667"}, {"lat": "42.2944444", "city": "Kukhi", "lon": "42.4577778"}, {"lat": "42.2861111", "city": "K'utiri", "lon": "42.3666667"}, {"lat": "42.4372222", "city": "K'veda Gordi", "lon": "42.5252778"}, {"lat": "42.4780556", "city": "K'veda Kinch'kha", "lon": "42.5605556"}, {"lat": "42.3627778", "city": "Letsitskhuayye", "lon": "42.4316667"}, {"lat": "42.3627778", "city": "Letsitskhvaiye", "lon": "42.4316667"}, {"lat": "42.25", "city": "Malyye Gubi", "lon": "42.4833333"}, {"lat": "42.3908333", "city": "Matkhodzhi", "lon": "42.4388889"}, {"lat": "42.3908333", "city": "Mat'khoji", "lon": "42.4388889"}, {"lat": "42.3908333", "city": "Matkhovzhi", "lon": "42.4388889"}, {"lat": "42.3441667", "city": "Nakhakhulevi", "lon": "42.4372222"}, {"lat": "42.3441667", "city": "Nakhakhu", "lon": "42.4372222"}, {"lat": "42.4275", "city": "Nizhniye Gordi", "lon": "42.5652778"}, {"lat": "42.4333333", "city": "Noga", "lon": "42.5166667"}, {"lat": "42.4166667", "city": "Oragveti", "lon": "42.5333333"}, {"lat": "42.2658333", "city": "Patara-Dzhikhaishi", "lon": "42.3738889"}, {"lat": "42.25", "city": "Patara-Gubi", "lon": "42.4833333"}, {"lat": "42.2658333", "city": "Patara Jikhaishi", "lon": "42.3738889"}, {"lat": "42.3", "city": "Patara-Kukhi", "lon": "42.4666667"}, {"lat": "42.4666667", "city": "Rondishi", "lon": "42.55"}, {"lat": "42.4816667", "city": "Satsiskvilo", "lon": "42.5452778"}, {"lat": "42.2666667", "city": "Shua-Gubi", "lon": "42.4833333"}, {"lat": "42.4202778", "city": "Sukhcha", "lon": "42.4755556"}, {"lat": "42.3141667", "city": "Tsitel-Varshlavi", "lon": "42.4816667"}, {"lat": "42.3141667", "city": "Tsitelvarskvlavi", "lon": "42.4816667"}, {"lat": "42.3241667", "city": "Tsulukidze", "lon": "42.43"}, {"lat": "42.4333333", "city": "Verkhniye Gordi", "lon": "42.5333333"}, {"lat": "42.4333333", "city": "Zeda-Gordi", "lon": "42.5333333"}, {"lat": "42.4780556", "city": "Zeda Kinchkha", "lon": "42.5605556"}, {"lat": "42.4861111", "city": "Zeda-Kinchkha", "lon": "42.5616667"}, {"lat": "42.3241667", "city": "Zulukidse", "lon": "42.43"}], "52": [{"lat": "42.2158333", "city": "Akhali-Terdzhola", "lon": "42.9877778"}, {"lat": "42.2158333", "city": "Akhali Terjola", "lon": "42.9877778"}, {"lat": "42.2158333", "city": "Akhali T'erzhola", "lon": "42.9877778"}, {"lat": "42.2158333", "city": "Akhal-Terdzhola", "lon": "42.9877778"}, {"lat": "42.2169444", "city": "Akhalubani", "lon": "42.9102778"}, {"lat": "42.2558333", "city": "Akona", "lon": "42.9330556"}, {"lat": "42.2333333", "city": "Alisubani", "lon": "43.0166667"}, {"lat": "42.2441667", "city": "Alisubani Nizhniye", "lon": "43.0361111"}, {"lat": "42.2586111", "city": "Alisubani Verkhniye", "lon": "43.0286111"}, {"lat": "42.2130556", "city": "Bardubani", "lon": "42.8711111"}, {"lat": "42.2655556", "city": "Biga", "lon": "43.1247222"}, {"lat": "42.2166667", "city": "Bosela", "lon": "42.9666667"}, {"lat": "42.2388889", "city": "Broliskedi", "lon": "42.8002778"}, {"lat": "42.2833333", "city": "Chala Kakabouri", "lon": "43.1166667"}, {"lat": "42.2525", "city": "Chalast'avi", "lon": "42.8261111"}, {"lat": "42.1672222", "city": "Chalatke", "lon": "42.9916667"}, {"lat": "42.2525", "city": "Chalestavi", "lon": "42.8261111"}, {"lat": "42.2525", "city": "Chalostavi", "lon": "42.8261111"}, {"lat": "42.2344444", "city": "Chikhori", "lon": "43.0683333"}, {"lat": "42.2333333", "city": "Chkharetseri", "lon": "42.9333333"}, {"lat": "42.2491667", "city": "Ch'khari", "lon": "42.9875"}, {"lat": "42.2333333", "city": "Chkhari-Etseri", "lon": "42.9333333"}, {"lat": "42.2325", "city": "Chognari", "lon": "42.7644444"}, {"lat": "42.2238889", "city": "Deltasubani", "lon": "43.0477778"}, {"lat": "42.2433333", "city": "Dzevri", "lon": "42.9369444"}, {"lat": "42.25", "city": "Dzhgilati", "lon": "43.0833333"}, {"lat": "42.2091667", "city": "Etseri", "lon": "42.9094444"}, {"lat": "42.1697222", "city": "Ghvankit'i", "lon": "43.0130556"}, {"lat": "42.2680556", "city": "Godogani", "lon": "42.7808333"}, {"lat": "42.2627778", "city": "Gogni", "lon": "42.9966667"}, {"lat": "42.1697222", "city": "Gvankiti", "lon": "43.0130556"}, {"lat": "42.2833333", "city": "Kakabauri", "lon": "43.1166667"}, {"lat": "42.2166667", "city": "Kvakhchiri", "lon": "42.7422222"}, {"lat": "42.2441667", "city": "K'veda Alisubani", "lon": "43.0361111"}, {"lat": "42.24", "city": "K'veda Simonet'i", "lon": "42.9175"}, {"lat": "42.2666667", "city": "Machitauri", "lon": "43.0333333"}, {"lat": "42.2666667", "city": "Mudzhireti", "lon": "43.0833333"}, {"lat": "42.2638889", "city": "Nagarevi", "lon": "42.8108333"}, {"lat": "42.2225", "city": "Nakhshirgele", "lon": "42.8105556"}, {"lat": "42.2225", "city": "Nakhshirghele", "lon": "42.8105556"}, {"lat": "42.2502778", "city": "Navenakhevi", "lon": "42.8744444"}, {"lat": "42.2227778", "city": "Odilauri", "lon": "42.7236111"}, {"lat": "42.2558333", "city": "Okona", "lon": "42.9330556"}, {"lat": "42.2247222", "city": "Oktemberi", "lon": "43.0233333"}, {"lat": "42.2375", "city": "Oktomberi", "lon": "42.9777778"}, {"lat": "42.2305556", "city": "Rup'ot'i", "lon": "43.0269444"}, {"lat": "42.2", "city": "Sarbevi", "lon": "42.7166667"}, {"lat": "42.2197222", "city": "Sazano", "lon": "43.0725"}, {"lat": "42.1880556", "city": "Sik't'arva", "lon": "42.9388889"}, {"lat": "42.2347222", "city": "Simonet'i", "lon": "42.8558333"}, {"lat": "42.2627778", "city": "Skande", "lon": "43.0311111"}, {"lat": "42.2708333", "city": "Tavasa", "lon": "43.0611111"}, {"lat": "42.2325", "city": "Tchognari", "lon": "42.7644444"}, {"lat": "42.1952778", "city": "Telepa", "lon": "43.0144444"}, {"lat": "42.1780556", "city": "Terdzhola", "lon": "42.98"}, {"lat": "42.1780556", "city": "T'erjola", "lon": "42.98"}, {"lat": "42.2783333", "city": "Tkhiltatskaro", "lon": "42.985"}, {"lat": "42.25", "city": "Tkibulges", "lon": "42.95"}, {"lat": "42.2819444", "city": "T'uzi", "lon": "43.1191667"}, {"lat": "42.2530556", "city": "Vardigora", "lon": "43.0891667"}, {"lat": "42.2533333", "city": "Zarnadzeyebi", "lon": "42.9727778"}, {"lat": "42.2586111", "city": "Zeda Alisubani", "lon": "43.0286111"}, {"lat": "42.2347222", "city": "Zeda Simoneti", "lon": "42.8558333"}], "02": [{"lat": "43.1269444", "city": "Aats'i", "lon": "40.7388889"}, {"lat": "43.1269444", "city": "Aatsy", "lon": "40.7388889"}, {"lat": "42.8675", "city": "Abaazhvakhu", "lon": "41.5533333"}, {"lat": "43.1436111", "city": "Abakhuamtsa", "lon": "40.7211111"}, {"lat": "43.1436111", "city": "Abakhuatsa", "lon": "40.7211111"}, {"lat": "43.1436111", "city": "Abakhvamtsa", "lon": "40.7211111"}, {"lat": "43.1166667", "city": "Abazadag", "lon": "41.1"}, {"lat": "43.1966667", "city": "Abgara", "lon": "40.6247222"}, {"lat": "43.11", "city": "Abgarkhuk", "lon": "40.7158333"}, {"lat": "43.11", "city": "Abgarkhuki", "lon": "40.7158333"}, {"lat": "43.1269444", "city": "Abgauyera", "lon": "40.6580556"}, {"lat": "43.1269444", "city": "Abgavera", "lon": "40.6580556"}, {"lat": "43.11", "city": "Abgharkhuk'i", "lon": "40.7158333"}, {"lat": "42.8466667", "city": "Abgigdara", "lon": "41.6883333"}, {"lat": "43.1102778", "city": "Ablukhvara", "lon": "41.2438889"}, {"lat": "43.1102778", "city": "Ablukhvari", "lon": "41.2438889"}, {"lat": "43.1725", "city": "Abtskhua", "lon": "40.4880556"}, {"lat": "42.75", "city": "Abzhaaptra", "lon": "41.5166667"}, {"lat": "42.75", "city": "Abzhabtra", "lon": "41.5166667"}, {"lat": "43.0325", "city": "Abzhakva", "lon": "41.0752778"}, {"lat": "43.0325", "city": "Abzhaqva", "lon": "41.0752778"}, {"lat": "43.0438889", "city": "Ach'adara", "lon": "40.9980556"}, {"lat": "43.0952778", "city": "Achakva", "lon": "40.7830556"}, {"lat": "42.89", "city": "Achandara", "lon": "41.5911111"}, {"lat": "42.8122222", "city": "Acharkete", "lon": "41.4027778"}, {"lat": "42.8122222", "city": "Acharketi", "lon": "41.4027778"}, {"lat": "42.6883333", "city": "Ach'igvara", "lon": "41.6361111"}, {"lat": "43.1416667", "city": "Achkatsa", "lon": "40.6711111"}, {"lat": "43.1702778", "city": "Adzgara", "lon": "41.6219444"}, {"lat": "43.2261111", "city": "Adzhakhu", "lon": "40.4347222"}, {"lat": "42.8797222", "city": "Adzhampazra", "lon": "41.6477778"}, {"lat": "43.1713889", "city": "Adzhimchigra", "lon": "40.6255556"}, {"lat": "43.2061111", "city": "Adzhkhakhara", "lon": "40.4844444"}, {"lat": "43.1288889", "city": "Adzhmatvara", "lon": "40.8338889"}, {"lat": "43.2038889", "city": "Adzibzhara", "lon": "40.9880556"}, {"lat": "43.0572222", "city": "Adzigezh", "lon": "40.9730556"}, {"lat": "43.0902778", "city": "Adzkhapsha", "lon": "40.7522222"}, {"lat": "42.7916667", "city": "Adzkhida", "lon": "41.6958333"}, {"lat": "42.7916667", "city": "Adzkhyda", "lon": "41.6958333"}, {"lat": "43.1561111", "city": "Adzlagara", "lon": "40.6263889"}, {"lat": "42.7916667", "city": "Adztkhida", "lon": "41.6958333"}, {"lat": "42.8430556", "city": "Adzubzha", "lon": "41.1752778"}, {"lat": "43.1861111", "city": "Adzusta", "lon": "40.8322222"}, {"lat": "42.8430556", "city": "Adzvibzha", "lon": "41.1752778"}, {"lat": "42.8525", "city": "Adzybzhara", "lon": "41.5077778"}, {"lat": "42.8430556", "city": "Adzyubzha", "lon": "41.1752778"}, {"lat": "42.9666667", "city": "Afyushra-Khu", "lon": "41.35"}, {"lat": "43.1872222", "city": "Agaraki", "lon": "40.4036111"}, {"lat": "43.11", "city": "Agbarkhuk", "lon": "40.7158333"}, {"lat": "43.065", "city": "Agdara", "lon": "40.9797222"}, {"lat": "43.0191667", "city": "Agishi", "lon": "41.2091667"}, {"lat": "42.7975", "city": "Aguaa", "lon": "41.5719444"}, {"lat": "42.7669444", "city": "Agubedia", "lon": "41.6755556"}, {"lat": "42.92", "city": "Agudzera", "lon": "41.0991667"}, {"lat": "42.92", "city": "Agudzery", "lon": "41.0991667"}, {"lat": "43.4111111", "city": "Agurip'st'a", "lon": "40.82"}, {"lat": "42.8722222", "city": "Agvavera", "lon": "41.5925"}, {"lat": "42.9288889", "city": "Aimara", "lon": "41.5038889"}, {"lat": "43.1713889", "city": "Ajimch'ighra", "lon": "40.6255556"}, {"lat": "43.0344444", "city": "Akapa", "lon": "41.1336111"}, {"lat": "42.8577778", "city": "Akarmara", "lon": "41.7786111"}, {"lat": "42.8369444", "city": "Akhaldaba", "lon": "41.1972222"}, {"lat": "43.0763889", "city": "Akhali-Afoni", "lon": "40.8102778"}, {"lat": "42.7961111", "city": "Akhali Akvaskia", "lon": "41.5469444"}, {"lat": "43.0763889", "city": "Akhali At'oni", "lon": "40.8102778"}, {"lat": "43.2877778", "city": "Akhali-Gagra", "lon": "40.2686111"}, {"lat": "42.7894444", "city": "Akhali Kindghi", "lon": "41.2902778"}, {"lat": "42.7894444", "city": "Akhali-Kindgi", "lon": "41.2902778"}, {"lat": "43.1163889", "city": "Akhalsheni", "lon": "41.0252778"}, {"lat": "43.0044444", "city": "Akhalsop'eli", "lon": "41.0988889"}, {"lat": "42.8166667", "city": "Akhuaa", "lon": "41.3"}, {"lat": "43.2394444", "city": "Akhuadzha", "lon": "40.4011111"}, {"lat": "42.9577778", "city": "Akhutsa", "lon": "41.3813889"}, {"lat": "43.1947222", "city": "Akhuts", "lon": "40.5861111"}, {"lat": "43.2394444", "city": "Akhvadzha", "lon": "40.4011111"}, {"lat": "42.8586111", "city": "Akhyvaa", "lon": "41.1958333"}, {"lat": "42.9066667", "city": "Ak'idra", "lon": "41.4847222"}, {"lat": "42.8369444", "city": "Akuarchapan", "lon": "41.6644444"}, {"lat": "43.1686111", "city": "Akuaskyamtsa", "lon": "40.5972222"}, {"lat": "43.1127778", "city": "Akvacha", "lon": "40.8355556"}, {"lat": "43.2063889", "city": "Akvacharkhu", "lon": "40.5666667"}, {"lat": "43.2419444", "city": "Akvara", "lon": "40.3986111"}, {"lat": "42.75", "city": "Akvarashi", "lon": "41.5666667"}, {"lat": "42.8369444", "city": "Akvarchapan", "lon": "41.6644444"}, {"lat": "42.8369444", "city": "Akvarchapani", "lon": "41.6644444"}, {"lat": "42.8177778", "city": "Akvaske", "lon": "41.5627778"}, {"lat": "43.1686111", "city": "Akvaskemtsa", "lon": "40.5972222"}, {"lat": "42.8177778", "city": "Akvaskia", "lon": "41.5627778"}, {"lat": "42.9066667", "city": "Akydra", "lon": "41.4847222"}, {"lat": "43.2147222", "city": "Alakhadze", "lon": "40.3061111"}, {"lat": "43.2147222", "city": "Alakhadzi", "lon": "40.3061111"}, {"lat": "43.2147222", "city": "Alakhadzy", "lon": "40.3061111"}, {"lat": "43.1677778", "city": "Alakhashakhu", "lon": "40.5808333"}, {"lat": "43.1677778", "city": "Alakhashkhu", "lon": "40.5808333"}, {"lat": "42.8986111", "city": "Alapankvara", "lon": "41.3333333"}, {"lat": "43.1272222", "city": "Aldzykh", "lon": "40.7430556"}, {"lat": "43.0363889", "city": "Aleksandrovka", "lon": "41.1586111"}, {"lat": "42.9980556", "city": "Alekseyevka", "lon": "41.0947222"}, {"lat": "43.1188889", "city": "Algit", "lon": "40.5780556"}, {"lat": "43.1188889", "city": "Algyt", "lon": "40.5780556"}, {"lat": "43.1188889", "city": "Algyti", "lon": "40.5780556"}, {"lat": "43.2958333", "city": "Alpiiskoe", "lon": "40.2797222"}, {"lat": "43.2958333", "city": "Al'piyskoye", "lon": "40.2797222"}, {"lat": "43.1133333", "city": "Alra", "lon": "40.7347222"}, {"lat": "42.9358333", "city": "Amastas'yevka", "lon": "41.2858333"}, {"lat": "43.0805556", "city": "Amba-Rykhutsa", "lon": "40.9680556"}, {"lat": "43.2213889", "city": "Amparaa", "lon": "40.4305556"}, {"lat": "43.2213889", "city": "Amparaarkhu", "lon": "40.4305556"}, {"lat": "43.0341667", "city": "Amtkel", "lon": "41.3244444"}, {"lat": "43.0341667", "city": "Amtkeli", "lon": "41.3244444"}, {"lat": "43.0341667", "city": "Amtkhel", "lon": "41.3244444"}, {"lat": "43.0341667", "city": "Amtkiali", "lon": "41.3244444"}, {"lat": "43.0341667", "city": "Amtqeli", "lon": "41.3244444"}, {"lat": "43.0172222", "city": "Amzara", "lon": "41.35"}, {"lat": "42.9316667", "city": "Anastasiyevka", "lon": "41.2794444"}, {"lat": "42.9358333", "city": "Anastas'yevka", "lon": "41.2858333"}, {"lat": "42.8905556", "city": "Andra", "lon": "41.4825"}, {"lat": "43.1163889", "city": "Andreyevka", "lon": "41.0252778"}, {"lat": "43.1163889", "city": "Andreyevskoye", "lon": "41.0252778"}, {"lat": "42.89", "city": "Androu", "lon": "41.5311111"}, {"lat": "43.2361111", "city": "Ankhashtuk", "lon": "40.4913889"}, {"lat": "43.1191667", "city": "Ankhva", "lon": "40.8341667"}, {"lat": "43.1191667", "city": "Anukhua", "lon": "40.8341667"}, {"lat": "43.1191667", "city": "Anukhva", "lon": "40.8341667"}, {"lat": "43.1169444", "city": "Anukhva-Armyanskoye", "lon": "40.7805556"}, {"lat": "43.1991667", "city": "Aosyrkhva", "lon": "40.7125"}, {"lat": "43.0066667", "city": "Apiancha Nizhniy", "lon": "41.2516667"}, {"lat": "42.9666667", "city": "Apiancha Verkhniy", "lon": "41.25"}, {"lat": "43.0947222", "city": "Apianda", "lon": "41.0530556"}, {"lat": "43.185", "city": "Apshankhvara", "lon": "40.5841667"}, {"lat": "43.1725", "city": "Aptskhva", "lon": "40.4880556"}, {"lat": "43.0744444", "city": "Apushta", "lon": "41.3272222"}, {"lat": "42.8369444", "city": "Aqvarch'ap'ani", "lon": "41.6644444"}, {"lat": "42.75", "city": "Aradu", "lon": "41.7333333"}, {"lat": "42.75", "city": "Aradukva", "lon": "41.7333333"}, {"lat": "42.8441667", "city": "Aragich", "lon": "41.2538889"}, {"lat": "42.8441667", "city": "Arakich", "lon": "41.2538889"}, {"lat": "42.8441667", "city": "Arakich'i", "lon": "41.2538889"}, {"lat": "42.8836111", "city": "Arasadzikh", "lon": "41.6005556"}, {"lat": "42.8836111", "city": "Arasadzikhi", "lon": "41.6005556"}, {"lat": "43.2327778", "city": "Arasadzykh", "lon": "40.3394444"}, {"lat": "42.8797222", "city": "Arasadzykh-Dzhampazar", "lon": "41.6477778"}, {"lat": "43.0919444", "city": "Arasara", "lon": "41.2480556"}, {"lat": "43.1825", "city": "Arashakhu", "lon": "40.5208333"}, {"lat": "42.8422222", "city": "Arazhpara", "lon": "41.5108333"}, {"lat": "43.0525", "city": "Argunia", "lon": "41.4858333"}, {"lat": "43.0525", "city": "Argunna", "lon": "41.4858333"}, {"lat": "43.2419444", "city": "Aripsta", "lon": "40.4269444"}, {"lat": "43.2344444", "city": "Arkha", "lon": "40.5794444"}, {"lat": "43.2344444", "city": "Arkhva", "lon": "40.5794444"}, {"lat": "43.1033333", "city": "Armianskoye Ushelie", "lon": "40.8036111"}, {"lat": "43.1191667", "city": "Armyanskoye Anukhua", "lon": "40.8341667"}, {"lat": "42.9388889", "city": "Armyanskoye Naa", "lon": "41.2988889"}, {"lat": "43.1119444", "city": "Armyanskoye Ushchel'ye", "lon": "40.79"}, {"lat": "43.1794444", "city": "Aruta", "lon": "40.6697222"}, {"lat": "43.1794444", "city": "Aryuta", "lon": "40.6697222"}, {"lat": "43.1861111", "city": "Ashir-Khobla", "lon": "40.6402778"}, {"lat": "43.2188889", "city": "Aspa", "lon": "40.3269444"}, {"lat": "43.0172222", "city": "Asterovka", "lon": "41.35"}, {"lat": "42.9216667", "city": "Atap-Tsarakhmul", "lon": "41.5452778"}, {"lat": "42.9191667", "city": "At'ara Armianskoe", "lon": "41.2975"}, {"lat": "42.9191667", "city": "Atara-Armyanskaya", "lon": "41.2975"}, {"lat": "42.9191667", "city": "Atara-Armyanskoye", "lon": "41.2975"}, {"lat": "42.8719444", "city": "At'ara", "lon": "41.2713889"}, {"lat": "42.8783333", "city": "Atarba", "lon": "41.3088889"}, {"lat": "42.8783333", "city": "Atarba-Ikhusta", "lon": "41.3088889"}, {"lat": "42.96", "city": "Atarbekovka", "lon": "41.2147222"}, {"lat": "43.2227778", "city": "At'idzt'a", "lon": "40.3633333"}, {"lat": "42.8511111", "city": "Atishadu", "lon": "41.6469444"}, {"lat": "43.1702778", "city": "Atsgara", "lon": "41.6219444"}, {"lat": "43.2008333", "city": "Atsydzhkva", "lon": "40.3386111"}, {"lat": "43.215", "city": "Atvarkhu", "lon": "40.6125"}, {"lat": "43.2247222", "city": "Atydzta", "lon": "40.3838889"}, {"lat": "42.8494444", "city": "Atyshadu", "lon": "41.6325"}, {"lat": "43.1783333", "city": "Aualitsa", "lon": "40.7019444"}, {"lat": "43.1186111", "city": "Audzkha", "lon": "40.8466667"}, {"lat": "43.1783333", "city": "Aulitsa", "lon": "40.7019444"}, {"lat": "43.1991667", "city": "Ausirkhua", "lon": "40.7125"}, {"lat": "43.5133333", "city": "Avadzhara", "lon": "40.6647222"}, {"lat": "42.9288889", "city": "Aymara", "lon": "41.5038889"}, {"lat": "43.0897222", "city": "Azant'a", "lon": "41.2861111"}, {"lat": "43.15", "city": "Azhamsa", "lon": "40.8111111"}, {"lat": "43.1119444", "city": "Azhara", "lon": "41.7613889"}, {"lat": "42.805", "city": "Azhgerian", "lon": "41.5966667"}, {"lat": "43.1869444", "city": "Azhgydyrkhva", "lon": "40.6991667"}, {"lat": "43.2061111", "city": "Azhkhakhara", "lon": "40.4844444"}, {"lat": "42.8430556", "city": "Azyubzha", "lon": "41.1752778"}, {"lat": "43.1666667", "city": "Baalarkhua", "lon": "40.55"}, {"lat": "43.1666667", "city": "Baalarkhva", "lon": "40.55"}, {"lat": "42.8677778", "city": "Babushara", "lon": "41.1305556"}, {"lat": "42.8677778", "city": "Babushera", "lon": "41.1305556"}, {"lat": "42.8677778", "city": "Babusheri", "lon": "41.1305556"}, {"lat": "43.2036111", "city": "Bacha", "lon": "40.5283333"}, {"lat": "42.9113889", "city": "Bagaviashta", "lon": "41.1244444"}, {"lat": "42.9113889", "city": "Bagazhiashta", "lon": "41.1244444"}, {"lat": "43.0258333", "city": "Bagbaran", "lon": "41.1527778"}, {"lat": "43.0258333", "city": "Baghmarani", "lon": "41.1527778"}, {"lat": "43.1386111", "city": "Bagikita", "lon": "40.7063889"}, {"lat": "43.1386111", "city": "Bagikyta", "lon": "40.7063889"}, {"lat": "42.8241667", "city": "Baglani", "lon": "41.1705556"}, {"lat": "43.0258333", "city": "Bagmarani", "lon": "41.1527778"}, {"lat": "42.8822222", "city": "Bagnasheni", "lon": "41.2036111"}, {"lat": "43.1269444", "city": "Baklanovka", "lon": "40.7388889"}, {"lat": "42.8044444", "city": "Balak", "lon": "41.2355556"}, {"lat": "43.0333333", "city": "Bali", "lon": "41.3666667"}, {"lat": "43.0938889", "city": "Bambora", "lon": "40.6044444"}, {"lat": "43.1963889", "city": "Baramysh", "lon": "40.5166667"}, {"lat": "42.5516667", "city": "Bargepi", "lon": "41.6144444"}, {"lat": "43.1963889", "city": "Barmishi", "lon": "40.5166667"}, {"lat": "43.1963889", "city": "Barmysh", "lon": "40.5166667"}, {"lat": "43.0938889", "city": "Barnitsats", "lon": "40.6983333"}, {"lat": "43.0994444", "city": "Barumba", "lon": "41.7152778"}, {"lat": "43.0169444", "city": "Baslata", "lon": "41.0452778"}, {"lat": "42.7333333", "city": "Bedia", "lon": "41.65"}, {"lat": "42.7425", "city": "Bediya", "lon": "41.6575"}, {"lat": "42.95", "city": "Bekhkan", "lon": "41.4"}, {"lat": "42.75", "city": "Beslachuba", "lon": "41.5197222"}, {"lat": "42.75", "city": "Beslakhuba", "lon": "41.5197222"}, {"lat": "43.0169444", "city": "Beslet'i", "lon": "41.0452778"}, {"lat": "43.2", "city": "Bgardvany", "lon": "40.5986111"}, {"lat": "43.1569444", "city": "Bichvint'a", "lon": "40.35"}, {"lat": "43.1422222", "city": "Bint'kha", "lon": "40.7461111"}, {"lat": "43.3738889", "city": "Bitaga", "lon": "40.8352778"}, {"lat": "43.2183333", "city": "Blaburkhva", "lon": "40.4825"}, {"lat": "42.9113889", "city": "Bogoposhta", "lon": "41.1244444"}, {"lat": "43.0938889", "city": "Bombara", "lon": "40.6044444"}, {"lat": "43.0938889", "city": "Bombora", "lon": "40.6044444"}, {"lat": "43.0938889", "city": "Bombori", "lon": "40.6044444"}, {"lat": "43.0938889", "city": "Bombory", "lon": "40.6044444"}, {"lat": "42.9116667", "city": "Bramba", "lon": "41.5563889"}, {"lat": "43.0141667", "city": "Buduki", "lon": "41.3780556"}, {"lat": "43.1011111", "city": "Budzgur", "lon": "41.6919444"}, {"lat": "43.1011111", "city": "Budzigir", "lon": "41.6919444"}, {"lat": "43.1011111", "city": "Budzuguri", "lon": "41.6919444"}, {"lat": "42.7", "city": "Bulishkhindzhi", "lon": "41.6166667"}, {"lat": "42.7", "city": "Buliskhindzhi", "lon": "41.6166667"}, {"lat": "43.1422222", "city": "Byntkha", "lon": "40.7461111"}, {"lat": "43.0586111", "city": "Byrdzha", "lon": "41.1430556"}, {"lat": "43.0227778", "city": "Byrtskh", "lon": "41.0475"}, {"lat": "42.8166667", "city": "Bzana", "lon": "41.3833333"}, {"lat": "42.8166667", "city": "Bzanakit", "lon": "41.3833333"}, {"lat": "43.2275", "city": "Bzip'i", "lon": "40.3847222"}, {"lat": "43.2275", "city": "Bzyb'", "lon": "40.3847222"}, {"lat": "43.2452778", "city": "Bzybta", "lon": "40.3644444"}, {"lat": "43.2861111", "city": "Bzybta Pyatyy Kilometr", "lon": "40.3988889"}, {"lat": "43.2677778", "city": "Bzybta Tretyy Kilometr", "lon": "40.3944444"}, {"lat": "43.2861111", "city": "Bzypiskhevi", "lon": "40.3988889"}, {"lat": "43.1063889", "city": "Chabanlug", "lon": "40.7916667"}, {"lat": "42.9241667", "city": "Chala", "lon": "41.2638889"}, {"lat": "43.05", "city": "Chali", "lon": "41.35"}, {"lat": "42.8663889", "city": "Chatsakyt", "lon": "41.6275"}, {"lat": "42.9666667", "city": "Chegem", "lon": "41.3166667"}, {"lat": "43.2327778", "city": "Cherkev-Ikhu", "lon": "40.4661111"}, {"lat": "43.2327778", "city": "Cherkezikhu", "lon": "40.4661111"}, {"lat": "42.9483333", "city": "Chernigovka", "lon": "41.265"}, {"lat": "42.8772222", "city": "Chilou", "lon": "41.4908333"}, {"lat": "42.9288889", "city": "Chilov-Aimara", "lon": "41.5038889"}, {"lat": "42.8772222", "city": "Chilov", "lon": "41.4908333"}, {"lat": "43.0444444", "city": "Chin-Chal-Bil", "lon": "41.3422222"}, {"lat": "43.1383333", "city": "Chirut'a", "lon": "40.7919444"}, {"lat": "43.1383333", "city": "Chiryuta", "lon": "40.7919444"}, {"lat": "43.0966667", "city": "Chkalta", "lon": "41.6733333"}, {"lat": "43.0966667", "city": "Ch'khalt'a", "lon": "41.6733333"}, {"lat": "42.7633333", "city": "Ch'khort'oli", "lon": "41.7425"}, {"lat": "42.7633333", "city": "Chkhortoli Nizhniye", "lon": "41.7425"}, {"lat": "42.7833333", "city": "Chkhortoli Verkhniye", "lon": "41.7333333"}, {"lat": "42.7633333", "city": "Chkortoli", "lon": "41.7425"}, {"lat": "42.8772222", "city": "Chlou", "lon": "41.4908333"}, {"lat": "43.1063889", "city": "Chobanluk", "lon": "40.7916667"}, {"lat": "42.5802778", "city": "Chuburis-Khindzhi", "lon": "41.8180556"}, {"lat": "42.5802778", "city": "Chuburkhindzhi", "lon": "41.8180556"}, {"lat": "42.5802778", "city": "Chuburkhinji", "lon": "41.8180556"}, {"lat": "42.8280556", "city": "Dacha", "lon": "41.2061111"}, {"lat": "43.0833333", "city": "Dedukepta", "lon": "41.5833333"}, {"lat": "42.9105556", "city": "Depegindze", "lon": "41.3116667"}, {"lat": "42.8947222", "city": "Dgamishi", "lon": "41.4230556"}, {"lat": "42.8947222", "city": "Dgamsh", "lon": "41.4230556"}, {"lat": "42.8947222", "city": "Dgamshi", "lon": "41.4230556"}, {"lat": "42.8441667", "city": "Didi-Agaraki", "lon": "41.2538889"}, {"lat": "43.0158333", "city": "Didi Krayevich", "lon": "41.3213889"}, {"lat": "42.48", "city": "Dikhagudzba", "lon": "41.5666667"}, {"lat": "42.48", "city": "Dikhagudzuba", "lon": "41.5666667"}, {"lat": "42.6183333", "city": "Dikhazurga", "lon": "41.8441667"}, {"lat": "43.0833333", "city": "Dmitriyevka", "lon": "41.0"}, {"lat": "42.7333333", "city": "Dodlani", "lon": "41.5166667"}, {"lat": "42.8644444", "city": "Dopoukyt", "lon": "41.2111111"}, {"lat": "42.8644444", "city": "Dopuakiti", "lon": "41.2111111"}, {"lat": "42.8644444", "city": "Dopuakyti", "lon": "41.2111111"}, {"lat": "42.8716667", "city": "Dranda", "lon": "41.1533333"}, {"lat": "42.8716667", "city": "Drandi", "lon": "41.1533333"}, {"lat": "42.8716667", "city": "Drandy", "lon": "41.1533333"}, {"lat": "42.95", "city": "Duab", "lon": "41.4833333"}, {"lat": "43.2016667", "city": "Duripsh", "lon": "40.6425"}, {"lat": "43.2016667", "city": "Durip'shi", "lon": "40.6425"}, {"lat": "42.8408333", "city": "Dzhal-Apsua", "lon": "41.5802778"}, {"lat": "42.8361111", "city": "Dzhal", "lon": "41.5216667"}, {"lat": "42.8361111", "city": "Dzhali", "lon": "41.5216667"}, {"lat": "43.0444444", "city": "Dzhampal", "lon": "41.3422222"}, {"lat": "43.0444444", "city": "Dzhampali", "lon": "41.3422222"}, {"lat": "42.85", "city": "Dzhentukha", "lon": "41.7833333"}, {"lat": "42.9172222", "city": "Dzhgerda", "lon": "41.355"}, {"lat": "42.9172222", "city": "Dzhgerde", "lon": "41.355"}, {"lat": "42.8166667", "city": "Dzhgeriani", "lon": "41.6166667"}, {"lat": "43.1869444", "city": "Dzhgydyrkhva", "lon": "40.6991667"}, {"lat": "42.8886111", "city": "Dzhirgul", "lon": "41.3805556"}, {"lat": "42.8886111", "city": "Dzhirguli", "lon": "41.3805556"}, {"lat": "43.1902778", "city": "Dzhirkhva", "lon": "40.5572222"}, {"lat": "43.1902778", "city": "Dzhirkhveto", "lon": "40.5572222"}, {"lat": "43.0061111", "city": "Dziguta", "lon": "41.0711111"}, {"lat": "43.2527778", "city": "Dzikhcha", "lon": "40.36"}, {"lat": "43.1902778", "city": "Dzirkha", "lon": "40.5572222"}, {"lat": "43.2047222", "city": "Dzybzyr", "lon": "40.6830556"}, {"lat": "43.0297222", "city": "Eshera", "lon": "40.9269444"}, {"lat": "43.0297222", "city": "Esheri", "lon": "40.9269444"}, {"lat": "43.0297222", "city": "Eshiri", "lon": "40.9269444"}, {"lat": "43.0297222", "city": "Eshiry", "lon": "40.9269444"}, {"lat": "42.8477778", "city": "Eshkit", "lon": "41.5955556"}, {"lat": "42.75", "city": "Eshkiti", "lon": "41.7"}, {"lat": "42.8822222", "city": "Estonka", "lon": "41.2036111"}, {"lat": "42.8822222", "city": "Estonskoye", "lon": "41.2036111"}, {"lat": "42.7369444", "city": "Etseri", "lon": "41.5455556"}, {"lat": "42.4930556", "city": "Gagida", "lon": "41.5786111"}, {"lat": "43.3222222", "city": "Gagra", "lon": "40.2436111"}, {"lat": "43.2727778", "city": "Gagrapsta", "lon": "40.2991667"}, {"lat": "43.3222222", "city": "Gagri", "lon": "40.2436111"}, {"lat": "43.3222222", "city": "Gagry", "lon": "40.2436111"}, {"lat": "42.6405556", "city": "Gali", "lon": "41.7372222"}, {"lat": "42.5272222", "city": "Ganakhleba", "lon": "41.6427778"}, {"lat": "43.2402778", "city": "Garp", "lon": "40.5563889"}, {"lat": "43.2402778", "city": "Garpi", "lon": "40.5563889"}, {"lat": "43.05", "city": "Gavra", "lon": "41.85"}, {"lat": "43.0986111", "city": "Genikey", "lon": "41.2397222"}, {"lat": "43.1052778", "city": "Gentsvish", "lon": "41.7927778"}, {"lat": "43.0633333", "city": "Georgiyevsk", "lon": "41.3641667"}, {"lat": "43.0633333", "city": "Georgiyevskoye", "lon": "41.3641667"}, {"lat": "42.9844444", "city": "Gerdzauli", "lon": "41.2163889"}, {"lat": "43.0858333", "city": "Gergemishi", "lon": "41.2525"}, {"lat": "43.0858333", "city": "Gergemysh", "lon": "41.2525"}, {"lat": "42.9011111", "city": "Ghvada", "lon": "41.4297222"}, {"lat": "43.0613889", "city": "Gorana", "lon": "41.0147222"}, {"lat": "43.0708333", "city": "Goriana", "lon": "41.2777778"}, {"lat": "42.8611111", "city": "Gornyatskiy", "lon": "41.7919444"}, {"lat": "43.1333333", "city": "Grecheskoye", "lon": "40.8333333"}, {"lat": "43.245", "city": "Gruzinskoye Ushchel'ye", "lon": "40.3"}, {"lat": "42.9011111", "city": "Guada", "lon": "41.4297222"}, {"lat": "43.1133333", "city": "Guandra", "lon": "41.835"}, {"lat": "42.9316667", "city": "Guba-santy", "lon": "41.2794444"}, {"lat": "43.0938889", "city": "Gudaut'a", "lon": "40.6327778"}, {"lat": "43.0938889", "city": "Gudauti", "lon": "40.6327778"}, {"lat": "43.0938889", "city": "Gudauty", "lon": "40.6327778"}, {"lat": "42.6305556", "city": "Gudava", "lon": "41.5269444"}, {"lat": "42.6711111", "city": "Gudava Verkhnyaya", "lon": "41.6016667"}, {"lat": "42.6305556", "city": "Gudavsli", "lon": "41.5269444"}, {"lat": "43.1922222", "city": "Gugunirkhua", "lon": "40.5122222"}, {"lat": "43.1922222", "city": "Gugunyrkhva", "lon": "40.5122222"}, {"lat": "42.9269444", "city": "Gulrifsh", "lon": "41.0938889"}, {"lat": "42.9269444", "city": "Gul'ripsh", "lon": "41.0938889"}, {"lat": "42.9269444", "city": "Gul'ripshi", "lon": "41.0938889"}, {"lat": "42.9269444", "city": "Gulrip'shi", "lon": "41.0938889"}, {"lat": "42.9491667", "city": "Gulripsh Verkhniy", "lon": "41.1322222"}, {"lat": "43.1277778", "city": "Guma", "lon": "41.0358333"}, {"lat": "43.0272222", "city": "Gumist'a", "lon": "40.9813889"}, {"lat": "42.7", "city": "Gumurishi", "lon": "41.7833333"}, {"lat": "42.89", "city": "Gup'agu", "lon": "41.5911111"}, {"lat": "42.8477778", "city": "Gup-Eshkiti", "lon": "41.5955556"}, {"lat": "42.8477778", "city": "Gup", "lon": "41.5955556"}, {"lat": "42.8477778", "city": "Gup'i", "lon": "41.5955556"}, {"lat": "42.8569444", "city": "Gup-Padlu", "lon": "41.6052778"}, {"lat": "42.9241667", "city": "Gurchkh", "lon": "41.3780556"}, {"lat": "42.9241667", "city": "Gurchkhi", "lon": "41.3780556"}, {"lat": "42.9844444", "city": "Gurzauli", "lon": "41.2163889"}, {"lat": "42.9844444", "city": "Gurzuli", "lon": "41.2163889"}, {"lat": "42.9011111", "city": "Gvada", "lon": "41.4297222"}, {"lat": "43.1133333", "city": "Gvandra", "lon": "41.835"}, {"lat": "43.0388889", "city": "Gvarda", "lon": "41.0916667"}, {"lat": "42.6469444", "city": "Gvashigberdi", "lon": "41.9477778"}, {"lat": "43.1733333", "city": "Idzaava", "lon": "40.3761111"}, {"lat": "42.9333333", "city": "Ilich", "lon": "41.0833333"}, {"lat": "42.7166667", "city": "Ilorgani", "lon": "41.55"}, {"lat": "42.6919444", "city": "Ilori", "lon": "41.5030556"}, {"lat": "42.9333333", "city": "Imeni Il'icha", "lon": "41.0833333"}, {"lat": "43.1222222", "city": "Imeni Ordzhonikidze", "lon": "40.5566667"}, {"lat": "43.1752778", "city": "Inkit", "lon": "40.3013889"}, {"lat": "43.2319444", "city": "Ipnari", "lon": "40.3216667"}, {"lat": "42.9444444", "city": "Ivano-Alekseyevka", "lon": "41.1675"}, {"lat": "42.9172222", "city": "Jgerda", "lon": "41.355"}, {"lat": "43.1902778", "city": "Jirkhva", "lon": "40.5572222"}, {"lat": "42.7358333", "city": "Juqmuri", "lon": "41.4538889"}, {"lat": "42.9333333", "city": "Kada", "lon": "41.4833333"}, {"lat": "43.0225", "city": "Kadari", "lon": "41.4947222"}, {"lat": "43.0333333", "city": "Kagubovka", "lon": "41.4666667"}, {"lat": "43.2280556", "city": "Kaldakhiara", "lon": "40.4563889"}, {"lat": "43.2280556", "city": "Kaldakhvara", "lon": "40.4563889"}, {"lat": "43.0533333", "city": "Kaman", "lon": "41.0438889"}, {"lat": "42.95", "city": "Kapitanovka", "lon": "41.1"}, {"lat": "42.75", "city": "Katsikhabla", "lon": "41.55"}, {"lat": "43.0525", "city": "Kavakluk", "lon": "41.2761111"}, {"lat": "42.9786111", "city": "Kelasuri", "lon": "41.0630556"}, {"lat": "42.8819444", "city": "Kerekeni", "lon": "41.4391667"}, {"lat": "42.8819444", "city": "Kerken", "lon": "41.4391667"}, {"lat": "43.1980556", "city": "Khabiua", "lon": "40.7794444"}, {"lat": "43.1980556", "city": "Khabiu", "lon": "40.7794444"}, {"lat": "43.1980556", "city": "Khabua", "lon": "40.7794444"}, {"lat": "43.1980556", "city": "Khabyu", "lon": "40.7794444"}, {"lat": "43.1319444", "city": "Khapshira", "lon": "40.6316667"}, {"lat": "43.1316667", "city": "Khetskuara", "lon": "41.7480556"}, {"lat": "43.1316667", "city": "Khetskvara", "lon": "41.7480556"}, {"lat": "43.0333333", "city": "Khevi", "lon": "41.3166667"}, {"lat": "43.0272222", "city": "Khizarukha", "lon": "41.4180556"}, {"lat": "42.6186111", "city": "Khole", "lon": "41.8475"}, {"lat": "43.215", "city": "Khop'i", "lon": "40.6125"}, {"lat": "43.1316667", "city": "Khotskvara", "lon": "41.7480556"}, {"lat": "43.215", "city": "Khuap", "lon": "40.6125"}, {"lat": "43.1902778", "city": "Khudaara", "lon": "40.5572222"}, {"lat": "42.6186111", "city": "Khumeni-Natopuri", "lon": "41.6011111"}, {"lat": "42.5941667", "city": "Khumushk'uri", "lon": "41.6644444"}, {"lat": "42.5983333", "city": "Khumushkuri", "lon": "41.6625"}, {"lat": "43.1161111", "city": "Khutia", "lon": "41.8088889"}, {"lat": "43.1161111", "city": "Khutiya", "lon": "41.8088889"}, {"lat": "42.8252778", "city": "Kindghi", "lon": "41.3158333"}, {"lat": "42.8252778", "city": "Kindgi", "lon": "41.3158333"}, {"lat": "42.8886111", "city": "Kirguli", "lon": "41.3805556"}, {"lat": "42.8575", "city": "K'och'ara", "lon": "41.4436111"}, {"lat": "42.8916667", "city": "Kodori", "lon": "41.2377778"}, {"lat": "42.6925", "city": "Kokhora", "lon": "41.7025"}, {"lat": "43.2280556", "city": "Koldakhvara", "lon": "40.4563889"}, {"lat": "43.245", "city": "Kolkhida", "lon": "40.3"}, {"lat": "43.245", "city": "Kolkhide", "lon": "40.3"}, {"lat": "43.1", "city": "Komani", "lon": "40.9833333"}, {"lat": "42.7805556", "city": "Kopiti", "lon": "41.7141667"}, {"lat": "42.8575", "city": "Korasi", "lon": "41.1436111"}, {"lat": "42.9841667", "city": "Krasnyy Mayak", "lon": "40.9719444"}, {"lat": "43.015", "city": "Krayevich", "lon": "41.3016667"}, {"lat": "42.9316667", "city": "Kubasan", "lon": "41.2794444"}, {"lat": "42.9316667", "city": "Kubasanti", "lon": "41.2794444"}, {"lat": "43.1158333", "city": "Kulanurkhva", "lon": "40.6841667"}, {"lat": "43.1158333", "city": "Kulanyrkhva", "lon": "40.6841667"}, {"lat": "43.1811111", "city": "Kutidzra", "lon": "40.7444444"}, {"lat": "42.8508333", "city": "Kutoli", "lon": "41.3911111"}, {"lat": "42.8455556", "city": "Kutol", "lon": "41.3702778"}, {"lat": "43.0244444", "city": "Kutyshkha", "lon": "40.9477778"}, {"lat": "43.0730556", "city": "Kvabchara", "lon": "41.6122222"}, {"lat": "43.1947222", "city": "Kvabryuta", "lon": "40.7283333"}, {"lat": "43.0730556", "city": "Kvachkara", "lon": "41.6122222"}, {"lat": "43.1238889", "city": "Kvadani", "lon": "41.0966667"}, {"lat": "43.1930556", "city": "Kvanapa", "lon": "40.5741667"}, {"lat": "43.1055556", "city": "K'vemo Azhara", "lon": "41.7091667"}, {"lat": "42.5516667", "city": "Kvemo-Bargebi", "lon": "41.6144444"}, {"lat": "42.5516667", "city": "K'vemo Barghebi", "lon": "41.6144444"}, {"lat": "43.035", "city": "Kvemo-Bebutovka", "lon": "41.3983333"}, {"lat": "43.0227778", "city": "K'vemo Birts'kha", "lon": "41.0475"}, {"lat": "43.1", "city": "Kvemo-Fundukluk", "lon": "41.25"}, {"lat": "43.1", "city": "Kvemo-Funduklyk", "lon": "41.25"}, {"lat": "42.9269444", "city": "Kvemo-Gul'ripshi", "lon": "41.0938889"}, {"lat": "42.9269444", "city": "Kvemo-Gul'ripsh", "lon": "41.0938889"}, {"lat": "43.245", "city": "Kvemo-Kolkhida", "lon": "40.3"}, {"lat": "43.0305556", "city": "Kvemo Lemsa", "lon": "41.2683333"}, {"lat": "43.0547222", "city": "K'vemo Linda", "lon": "41.0888889"}, {"lat": "42.9547222", "city": "K'vemo Merkheuli", "lon": "41.0797222"}, {"lat": "42.8855556", "city": "K'vemo P'shap'i", "lon": "41.1302778"}, {"lat": "43.0305556", "city": "Kvemo-Tskaro", "lon": "41.2683333"}, {"lat": "43.0305556", "city": "K'vemo Tsqaro", "lon": "41.2683333"}, {"lat": "43.0861111", "city": "K'vemo Zima", "lon": "41.6516667"}, {"lat": "43.035", "city": "Kvenbani", "lon": "41.3983333"}, {"lat": "43.035", "city": "Kvenobani", "lon": "41.3983333"}, {"lat": "43.3666667", "city": "Kveto-Bytaga", "lon": "40.8166667"}, {"lat": "42.8333333", "city": "Kvitouli", "lon": "41.3666667"}, {"lat": "42.8105556", "city": "Labra", "lon": "41.3955556"}, {"lat": "43.0819444", "city": "Lakoba", "lon": "40.9155556"}, {"lat": "43.0363889", "city": "Lat'a", "lon": "41.4719444"}, {"lat": "43.05", "city": "Lati Nizhreye", "lon": "41.45"}, {"lat": "43.0333333", "city": "Latyverkhnie", "lon": "41.4833333"}, {"lat": "43.1733333", "city": "Ldzaava", "lon": "40.3761111"}, {"lat": "42.6622222", "city": "Lecharaya", "lon": "41.9091667"}, {"lat": "42.6622222", "city": "Lechariye", "lon": "41.9091667"}, {"lat": "43.0036111", "city": "Lech'k'op'i", "lon": "40.9569444"}, {"lat": "43.0036111", "city": "Lechkop", "lon": "40.9569444"}, {"lat": "43.1733333", "city": "Ledzava", "lon": "40.3761111"}, {"lat": "42.6716667", "city": "Lekukhona", "lon": "41.9283333"}, {"lat": "43.1166667", "city": "Lenin", "lon": "41.0333333"}, {"lat": "43.1166667", "city": "Lenino", "lon": "41.0333333"}, {"lat": "43.1702778", "city": "Levaya Atsgara", "lon": "41.6219444"}, {"lat": "43.1008333", "city": "Levyy Gentsvish", "lon": "41.8227778"}, {"lat": "43.1394444", "city": "Levyy Ptysh", "lon": "41.6863889"}, {"lat": "43.1733333", "city": "Lidzaa", "lon": "40.3761111"}, {"lat": "43.1733333", "city": "Lidzava", "lon": "40.3761111"}, {"lat": "43.1369444", "city": "Likhni", "lon": "40.6352778"}, {"lat": "43.1369444", "city": "Loukhoumi", "lon": "40.6352778"}, {"lat": "43.1369444", "city": "Luikhni", "lon": "40.6352778"}, {"lat": "43.1369444", "city": "Lukhny", "lon": "40.6352778"}, {"lat": "43.1369444", "city": "Lykhni", "lon": "40.6352778"}, {"lat": "43.1369444", "city": "Lykhny", "lon": "40.6352778"}, {"lat": "42.9452778", "city": "Machara", "lon": "41.0908333"}, {"lat": "42.9452778", "city": "Madzhara", "lon": "41.0908333"}, {"lat": "42.9452778", "city": "Madzharka", "lon": "41.0908333"}, {"lat": "42.6122222", "city": "Makhundzhia", "lon": "41.7611111"}, {"lat": "42.6241667", "city": "Makhunjia", "lon": "41.7494444"}, {"lat": "43.1905556", "city": "Mamidzhirkhua", "lon": "40.5380556"}, {"lat": "43.1905556", "city": "Mamidzhirtskha", "lon": "40.5380556"}, {"lat": "43.1905556", "city": "Mamydzhirkhva", "lon": "40.5380556"}, {"lat": "43.0316667", "city": "Marani", "lon": "41.2133333"}, {"lat": "43.0280556", "city": "Mardakhuch", "lon": "41.4727778"}, {"lat": "43.1052778", "city": "Mardzhvena-Gentsvishi", "lon": "41.7927778"}, {"lat": "43.1291667", "city": "Mardzhvena-Ptishi", "lon": "41.6716667"}, {"lat": "43.1052778", "city": "Marjvena Gentsvishi", "lon": "41.7927778"}, {"lat": "43.1291667", "city": "Marjvena Ptishi", "lon": "41.6716667"}, {"lat": "43.1008333", "city": "Marts'khena Gentsvishi", "lon": "41.8227778"}, {"lat": "43.1394444", "city": "Marts'khena Ptishi", "lon": "41.6863889"}, {"lat": "43.1738889", "city": "Maydros-Aylya", "lon": "40.8125"}, {"lat": "43.2313889", "city": "Mazikhua", "lon": "40.4780556"}, {"lat": "43.2313889", "city": "Mazikhva", "lon": "40.4780556"}, {"lat": "43.0491667", "city": "Megrelovka", "lon": "41.2316667"}, {"lat": "42.5963889", "city": "Meore Akvaga", "lon": "41.7913889"}, {"lat": "43.1191667", "city": "Meore Anukhva", "lon": "40.8341667"}, {"lat": "42.7333333", "city": "Meore-Bedia", "lon": "41.65"}, {"lat": "42.6305556", "city": "Meore Gudava", "lon": "41.5269444"}, {"lat": "42.7805556", "city": "Meore Kopiti", "lon": "41.7141667"}, {"lat": "42.6491667", "city": "Meore Shesheleti", "lon": "41.6333333"}, {"lat": "42.9788889", "city": "Merkheuli", "lon": "41.13"}, {"lat": "42.7586111", "city": "Merkula", "lon": "41.4972222"}, {"lat": "43.0491667", "city": "Metelevka", "lon": "41.2316667"}, {"lat": "43.1427778", "city": "Mguzurkhva", "lon": "40.5236111"}, {"lat": "43.0491667", "city": "Migrel'skoye", "lon": "41.2316667"}, {"lat": "43.0858333", "city": "Mikhaylovka", "lon": "41.0344444"}, {"lat": "43.0858333", "city": "Mikhaylovskoye", "lon": "41.0344444"}, {"lat": "42.7666667", "city": "Mishveli", "lon": "41.65"}, {"lat": "43.1677778", "city": "Miusera", "lon": "40.4722222"}, {"lat": "42.8313889", "city": "Mok'vi", "lon": "41.4977778"}, {"lat": "42.9116667", "city": "Mramba", "lon": "41.5563889"}, {"lat": "43.1280556", "city": "Mtiskalta", "lon": "41.0475"}, {"lat": "43.1066667", "city": "Mtisubani", "lon": "41.0886111"}, {"lat": "43.1383333", "city": "Mtsara", "lon": "40.7919444"}, {"lat": "43.1427778", "city": "Mugudzirkhua", "lon": "40.5236111"}, {"lat": "43.1427778", "city": "Mugudzirkhva", "lon": "40.5236111"}, {"lat": "43.1427778", "city": "Mugudzyrkhva", "lon": "40.5236111"}, {"lat": "43.1427778", "city": "Muguzyrkhva", "lon": "40.5236111"}, {"lat": "42.6941667", "city": "Mukhuri", "lon": "41.7147222"}, {"lat": "43.0341667", "city": "Myasinovka", "lon": "41.4241667"}, {"lat": "43.1575", "city": "Myussera", "lon": "40.4797222"}, {"lat": "43.1427778", "city": "Myuzurkhya", "lon": "40.5236111"}, {"lat": "43.1361111", "city": "Mzakhva", "lon": "40.5763889"}, {"lat": "43.0269444", "city": "Mziseuli", "lon": "41.2913889"}, {"lat": "42.6194444", "city": "Mziuri", "lon": "41.7344444"}, {"lat": "42.9388889", "city": "Naa-Armyanskoye", "lon": "41.2988889"}, {"lat": "42.9388889", "city": "Naa", "lon": "41.2988889"}, {"lat": "42.9611111", "city": "Naa Verkhneye", "lon": "41.2819444"}, {"lat": "42.5016667", "city": "Nabakevi", "lon": "41.6747222"}, {"lat": "42.8833333", "city": "Nabzhou", "lon": "41.25"}, {"lat": "42.4427778", "city": "Nachkadu", "lon": "41.5791667"}, {"lat": "42.6611111", "city": "Nadzhikhuri", "lon": "41.8958333"}, {"lat": "42.6413889", "city": "Nagvalou", "lon": "41.4975"}, {"lat": "43.0044444", "city": "Naidorf", "lon": "41.0988889"}, {"lat": "43.1141667", "city": "Nakhar", "lon": "41.7113889"}, {"lat": "43.1075", "city": "Nakhshira", "lon": "41.0983333"}, {"lat": "42.8638889", "city": "Nakhurzou", "lon": "41.2877778"}, {"lat": "42.8638889", "city": "Nalchurcou", "lon": "41.2877778"}, {"lat": "42.7783333", "city": "Navach", "lon": "41.3425"}, {"lat": "43.0763889", "city": "New Athen", "lon": "40.8102778"}, {"lat": "42.9241667", "city": "Nikolayevka", "lon": "41.2638889"}, {"lat": "42.9241667", "city": "Nikolo-Anastas'evka", "lon": "41.2638889"}, {"lat": "42.8855556", "city": "Nizhne-Pshapskoye", "lon": "41.1302778"}, {"lat": "43.0830556", "city": "Nizhneye Armyanskoye Ushchel'ye", "lon": "40.7938889"}, {"lat": "43.0066667", "city": "Nizhniy Apiancha", "lon": "41.2516667"}, {"lat": "42.9269444", "city": "Nizhniye Gul'ripsh", "lon": "41.0938889"}, {"lat": "42.8333333", "city": "Nizhniye Kvitouli", "lon": "41.3666667"}, {"lat": "43.05", "city": "Nizhniye Lati", "lon": "41.45"}, {"lat": "43.05", "city": "Nizhniye Laty", "lon": "41.45"}, {"lat": "42.9269444", "city": "Nizhniy Gul'ripsh", "lon": "41.0938889"}, {"lat": "42.8597222", "city": "Nizhniy Istochnik", "lon": "41.7663889"}, {"lat": "42.8855556", "city": "Nizhniy Pshap", "lon": "41.1302778"}, {"lat": "43.0066667", "city": "Nizhnyaya Apiancha", "lon": "41.2516667"}, {"lat": "43.1319444", "city": "Nizhnyaya Mtsara", "lon": "40.7558333"}, {"lat": "43.0263889", "city": "Nizhnyaya-Yashkhtva", "lon": "41.0108333"}, {"lat": "43.05", "city": "Nizhnyy Laty", "lon": "41.45"}, {"lat": "42.8158333", "city": "Nodzhikhevi", "lon": "41.6991667"}, {"lat": "42.75", "city": "Novaya Beslakhuba", "lon": "41.5166667"}, {"lat": "43.0763889", "city": "Novyy Afon", "lon": "40.8102778"}, {"lat": "42.7961111", "city": "Novyye Akvaske", "lon": "41.5469444"}, {"lat": "43.2877778", "city": "Novyye Gagra", "lon": "40.2686111"}, {"lat": "43.2877778", "city": "Novyye Gagry", "lon": "40.2686111"}, {"lat": "42.7894444", "city": "Novyye Kindgi", "lon": "41.2902778"}, {"lat": "42.7733333", "city": "Novyye Tamishi", "lon": "41.4652778"}, {"lat": "43.0763889", "city": "Nowyi Afton", "lon": "40.8102778"}, {"lat": "42.6966667", "city": "Ochamchira", "lon": "41.4783333"}, {"lat": "42.6966667", "city": "Och'amch'ire", "lon": "41.4783333"}, {"lat": "42.6966667", "city": "Ochemchiri", "lon": "41.4783333"}, {"lat": "42.6966667", "city": "Ochemchiry", "lon": "41.4783333"}, {"lat": "42.6966667", "city": "Ochemechiri", "lon": "41.4783333"}, {"lat": "43.12", "city": "Ochubure", "lon": "40.9816667"}, {"lat": "43.0772222", "city": "Odishi", "lon": "41.0975"}, {"lat": "43.1788889", "city": "Odonurkhava", "lon": "40.5191667"}, {"lat": "42.6580556", "city": "Okhurei", "lon": "41.5183333"}, {"lat": "42.6580556", "city": "Okhurey", "lon": "41.5183333"}, {"lat": "43.2097222", "city": "Okthara", "lon": "40.5566667"}, {"lat": "43.0305556", "city": "Ok'tomberi", "lon": "41.2327778"}, {"lat": "43.0902778", "city": "Oktomberi", "lon": "40.8455556"}, {"lat": "42.715", "city": "Ok'umi", "lon": "41.7622222"}, {"lat": "42.5122222", "city": "Okvinore", "lon": "41.5955556"}, {"lat": "43.0305556", "city": "Ol'ginskoye", "lon": "41.2327778"}, {"lat": "43.0952778", "city": "Omarishara", "lon": "41.8608333"}, {"lat": "43.1066667", "city": "Omarisharo", "lon": "41.8352778"}, {"lat": "43.1788889", "city": "Ondanyrkhva", "lon": "40.5191667"}, {"lat": "42.9444444", "city": "Ordu-Kuchuk", "lon": "41.1675"}, {"lat": "42.9216667", "city": "Otap'i", "lon": "41.5452778"}, {"lat": "42.9216667", "city": "Otap", "lon": "41.5452778"}, {"lat": "43.2097222", "city": "Ot'khara", "lon": "40.5566667"}, {"lat": "43.2097222", "city": "Otkhari", "lon": "40.5566667"}, {"lat": "42.4830556", "city": "Otobaiya", "lon": "41.6277778"}, {"lat": "42.4830556", "city": "Otobaya", "lon": "41.6277778"}, {"lat": "42.9688889", "city": "Otorondzhia", "lon": "41.3072222"}, {"lat": "43.2697222", "city": "Otradnoe", "lon": "40.2733333"}, {"lat": "43.2741667", "city": "Otradnoye", "lon": "40.2772222"}, {"lat": "42.5930556", "city": "Otsartse", "lon": "41.85"}, {"lat": "42.6966667", "city": "Otschemtschiri", "lon": "41.4783333"}, {"lat": "42.8569444", "city": "Padgu", "lon": "41.6052778"}, {"lat": "42.8569444", "city": "Padlu", "lon": "41.6052778"}, {"lat": "43.0230556", "city": "Panta", "lon": "41.3347222"}, {"lat": "43.1597222", "city": "Papcha", "lon": "40.5141667"}, {"lat": "43.2013889", "city": "Paptsa", "lon": "40.5030556"}, {"lat": "43.2013889", "city": "Paptsva", "lon": "40.5030556"}, {"lat": "42.9444444", "city": "P'arnaut'i", "lon": "41.1675"}, {"lat": "42.9444444", "city": "Parnaut", "lon": "41.1675"}, {"lat": "42.6463889", "city": "Partonokhovi", "lon": "41.8672222"}, {"lat": "43.1872222", "city": "Patara Agaraki", "lon": "40.4036111"}, {"lat": "43.015", "city": "Patara Krayevichi", "lon": "41.3016667"}, {"lat": "42.5875", "city": "Patrakhutsa", "lon": "41.7113889"}, {"lat": "43.0663889", "city": "Pavlovka", "lon": "41.1161111"}, {"lat": "43.0663889", "city": "Pavlovskoe", "lon": "41.1161111"}, {"lat": "43.0663889", "city": "Pavlovskoye", "lon": "41.1161111"}, {"lat": "43.0766667", "city": "Petrovskoye", "lon": "41.1430556"}, {"lat": "42.4480556", "city": "P'ich'ori", "lon": "41.5588889"}, {"lat": "42.8836111", "city": "Pirazadzikhi", "lon": "41.6005556"}, {"lat": "42.6008333", "city": "Pirveli Akvaga", "lon": "41.7786111"}, {"lat": "42.6113889", "city": "Pirveli Akvagha", "lon": "41.7655556"}, {"lat": "42.6563889", "city": "Pirveli-Gudava", "lon": "41.5775"}, {"lat": "42.7308333", "city": "Pirveli Okhurei", "lon": "41.5880556"}, {"lat": "42.7308333", "city": "Pirveli Okhurey", "lon": "41.5880556"}, {"lat": "42.4830556", "city": "Pirveli Otobaia", "lon": "41.6277778"}, {"lat": "42.4830556", "city": "Pirveli Otobaiya", "lon": "41.6277778"}, {"lat": "42.4830556", "city": "Pirveli Otobaya", "lon": "41.6277778"}, {"lat": "42.4830556", "city": "Pirveli Otoboya", "lon": "41.6277778"}, {"lat": "42.66", "city": "Pirveli-Shesheleti", "lon": "41.6761111"}, {"lat": "42.5327778", "city": "Pitsargali", "lon": "41.5830556"}, {"lat": "42.5302778", "city": "P'its'arghali", "lon": "41.5852778"}, {"lat": "43.1569444", "city": "Pitsunda", "lon": "40.35"}, {"lat": "43.1569444", "city": "Pitsundo", "lon": "40.35"}, {"lat": "43.1569444", "city": "Pitsundskiy", "lon": "40.35"}, {"lat": "42.7697222", "city": "Pokeshi", "lon": "41.5547222"}, {"lat": "42.7975", "city": "P'ok'veshi", "lon": "41.5719444"}, {"lat": "42.7975", "city": "Pokvesh", "lon": "41.5719444"}, {"lat": "43.0472222", "city": "Poltava-Aleksandrovskoye", "lon": "41.1547222"}, {"lat": "43.0472222", "city": "Poltava", "lon": "41.1547222"}, {"lat": "43.0472222", "city": "Poltavskoye", "lon": "41.1547222"}, {"lat": "43.0938889", "city": "Pos\u00eblok Bombory", "lon": "40.6044444"}, {"lat": "43.1622222", "city": "Pravaya Atsgara", "lon": "41.6252778"}, {"lat": "43.1052778", "city": "Pravyy Gentsvish", "lon": "41.7927778"}, {"lat": "43.1291667", "city": "Pravyy Ptysh", "lon": "41.6716667"}, {"lat": "43.0933333", "city": "Primorskoe", "lon": "40.7108333"}, {"lat": "43.0933333", "city": "Primorskoye", "lon": "40.7108333"}, {"lat": "42.5947222", "city": "Primorsk", "lon": "41.5197222"}, {"lat": "43.0763889", "city": "Psereti", "lon": "40.8102778"}, {"lat": "42.8855556", "city": "Pshapi Nizhniye", "lon": "41.1302778"}, {"lat": "42.8852778", "city": "P'shap'i", "lon": "41.0972222"}, {"lat": "42.8797222", "city": "Pshapi Verkhniye", "lon": "41.1441667"}, {"lat": "42.8852778", "city": "Pshap", "lon": "41.0972222"}, {"lat": "43.3938889", "city": "Pshu", "lon": "40.8252778"}, {"lat": "43.0763889", "city": "Psirtkha", "lon": "40.8102778"}, {"lat": "43.0763889", "city": "Psirtskha", "lon": "40.8102778"}, {"lat": "43.0847222", "city": "P'sirts'kha", "lon": "40.85"}, {"lat": "42.8936111", "city": "Pskal", "lon": "41.2819444"}, {"lat": "43.3938889", "city": "P'skhu", "lon": "40.8252778"}, {"lat": "43.0763889", "city": "Pssyrzcha", "lon": "40.8102778"}, {"lat": "43.0763889", "city": "Psyrtskha", "lon": "40.8102778"}, {"lat": "43.1291667", "city": "Ptish", "lon": "41.6716667"}, {"lat": "43.1291667", "city": "Ptysh Levyy", "lon": "41.6716667"}, {"lat": "43.1158333", "city": "Qulanurkhva", "lon": "40.6841667"}, {"lat": "43.1816667", "city": "Rapytsa", "lon": "40.3433333"}, {"lat": "42.6669444", "city": "Rech'khi", "lon": "41.7533333"}, {"lat": "42.7652778", "city": "Reka", "lon": "41.6472222"}, {"lat": "43.15", "city": "Rekva", "lon": "41.65"}, {"lat": "42.6325", "city": "Repi-Etseri", "lon": "41.6702778"}, {"lat": "42.6325", "city": "Repi", "lon": "41.6702778"}, {"lat": "42.6325", "city": "Rep'o-Etseri", "lon": "41.6702778"}, {"lat": "42.6325", "city": "Repo", "lon": "41.6702778"}, {"lat": "43.3277778", "city": "Reshevie", "lon": "40.8777778"}, {"lat": "43.3241667", "city": "Resheviye", "lon": "40.8694444"}, {"lat": "43.2072222", "city": "Riapshi", "lon": "40.4391667"}, {"lat": "43.2072222", "city": "Riapsh", "lon": "40.4391667"}, {"lat": "43.3908333", "city": "Rikza", "lon": "40.7883333"}, {"lat": "43.2072222", "city": "Ryapsh", "lon": "40.4391667"}, {"lat": "42.5469444", "city": "Sabchot'a Ch'ai", "lon": "41.6341667"}, {"lat": "42.5372222", "city": "Sabchota-Chay", "lon": "41.6430556"}, {"lat": "42.6527778", "city": "Saberio", "lon": "41.935"}, {"lat": "42.5713889", "city": "Sabutbaio", "lon": "41.6444444"}, {"lat": "42.8322222", "city": "Sachachkhala", "lon": "41.585"}, {"lat": "42.8322222", "city": "Sachachkhalia", "lon": "41.585"}, {"lat": "42.7833333", "city": "Sachino", "lon": "41.6333333"}, {"lat": "42.7666667", "city": "Sagartskio", "lon": "41.6666667"}, {"lat": "43.245", "city": "Sakartvelos Kheoba", "lon": "40.3"}, {"lat": "42.75", "city": "Sakhakhubio", "lon": "41.65"}, {"lat": "42.5830556", "city": "Salkhino", "lon": "41.7858333"}, {"lat": "42.6294444", "city": "Samarkvali", "lon": "41.8916667"}, {"lat": "42.6294444", "city": "Samarkvalo", "lon": "41.8916667"}, {"lat": "42.6461111", "city": "Samkuari", "lon": "41.7277778"}, {"lat": "42.6461111", "city": "Samk'vari", "lon": "41.7277778"}, {"lat": "42.6461111", "city": "Samokvara", "lon": "41.7277778"}, {"lat": "43.4116667", "city": "Sanch'ara", "lon": "40.8658333"}, {"lat": "43.4116667", "city": "Sancharo", "lon": "40.8658333"}, {"lat": "42.5775", "city": "Sashamugio", "lon": "41.6733333"}, {"lat": "43.1527778", "city": "Satave", "lon": "41.0286111"}, {"lat": "43.1", "city": "Semenli", "lon": "41.1166667"}, {"lat": "43.3686111", "city": "Serebrianoe", "lon": "40.8241667"}, {"lat": "43.3686111", "city": "Serebryannoye", "lon": "40.8241667"}, {"lat": "43.3283333", "city": "Serebryanoye", "lon": "40.8538889"}, {"lat": "43.3686111", "city": "Serebryanyy", "lon": "40.8241667"}, {"lat": "43.0852778", "city": "Shabatkvara", "lon": "41.6677778"}, {"lat": "42.6180556", "city": "Shashikvara", "lon": "41.7169444"}, {"lat": "42.9083333", "city": "Shaumyanovka", "lon": "41.2052778"}, {"lat": "43.1538889", "city": "Shaumyan", "lon": "40.7830556"}, {"lat": "42.6491667", "city": "Shesheleti", "lon": "41.6333333"}, {"lat": "42.6491667", "city": "Sheshleti", "lon": "41.6333333"}, {"lat": "43.0580556", "city": "Shitskvara", "lon": "40.9116667"}, {"lat": "42.6538889", "city": "Shkashikhuki", "lon": "41.935"}, {"lat": "42.6538889", "city": "Shkashisuki", "lon": "41.935"}, {"lat": "43.2219444", "city": "Shkvana", "lon": "40.6222222"}, {"lat": "43.2136111", "city": "Shlara", "lon": "40.4725"}, {"lat": "42.9141667", "city": "Shmati", "lon": "41.2322222"}, {"lat": "43.0858333", "city": "Shroma", "lon": "41.0344444"}, {"lat": "43.0158333", "city": "Shuamta", "lon": "41.3213889"}, {"lat": "43.1383333", "city": "Shua-Mta", "lon": "40.7919444"}, {"lat": "43.1383333", "city": "Shua-Mtsara", "lon": "40.7919444"}, {"lat": "42.5644444", "city": "Sida", "lon": "41.7186111"}, {"lat": "42.8033333", "city": "Skurdzhinskiy", "lon": "41.2025"}, {"lat": "43.0033333", "city": "Sokhumi", "lon": "41.0152778"}, {"lat": "42.85", "city": "Soua-Kvara", "lon": "41.75"},