{"GG": {"00": [{"lat": "49.469444", "city": "Alb\u00e8cq", "lon": "-2.601667"}, {"lat": "49.463611", "city": "Amherst", "lon": "-2.543611"}, {"lat": "49.449167", "city": "Bailiffs Cross", "lon": "-2.563333"}, {"lat": "49.489444", "city": "Bailloterie", "lon": "-2.531944"}, {"lat": "49.481944", "city": "Baubigny", "lon": "-2.543056"}, {"lat": "49.490833", "city": "Baugy", "lon": "-2.525556"}, {"lat": "49.462222", "city": "Beaucamps", "lon": "-2.580278"}, {"lat": "49.463889", "city": "Beaucamps de Bas", "lon": "-2.580833"}, {"lat": "49.430278", "city": "Beauregard", "lon": "-2.369444"}, {"lat": "49.469167", "city": "Blanches Rocques", "lon": "-2.591111"}, {"lat": "49.489722", "city": "Bordeaux", "lon": "-2.509444"}, {"lat": "49.468056", "city": "Bouet", "lon": "-2.541111"}, {"lat": "49.485833", "city": "Braeside", "lon": "-2.544444"}, {"lat": "49.466667", "city": "Braye", "lon": "-2.55"}, {"lat": "49.466667", "city": "Braye du Val", "lon": "-2.55"}, {"lat": "49.487222", "city": "Braye du Valle", "lon": "-2.535278"}, {"lat": "49.7175", "city": "Butes", "lon": "-2.2025"}, {"lat": "49.433611", "city": "Calais", "lon": "-2.539722"}, {"lat": "49.476667", "city": "Camp du Roi", "lon": "-2.561667"}, {"lat": "49.448889", "city": "Camptr\u00e9hard", "lon": "-2.58"}, {"lat": "49.44", "city": "Carmel", "lon": "-2.559722"}, {"lat": "49.455556", "city": "Choisi", "lon": "-2.548056"}, {"lat": "49.456111", "city": "Claire Mare", "lon": "-2.646111"}, {"lat": "49.496667", "city": "Clos du Valle", "lon": "-2.518056"}, {"lat": "49.496111", "city": "Closios", "lon": "-2.534167"}, {"lat": "49.472778", "city": "C\u00f4bo", "lon": "-2.591944"}, {"lat": "49.492222", "city": "Cocagne", "lon": "-2.508611"}, {"lat": "49.431111", "city": "Courtes Fallaizes", "lon": "-2.5425"}, {"lat": "49.471667", "city": "Coutanchez", "lon": "-2.549167"}, {"lat": "49.720833", "city": "Crabby", "lon": "-2.204444"}, {"lat": "49.450278", "city": "Durand", "lon": "-2.549167"}, {"lat": "49.413889", "city": "Duval", "lon": "-2.377222"}, {"lat": "49.449167", "city": "Fauxquets", "lon": "-2.5925"}, {"lat": "49.501667", "city": "Fontenelle", "lon": "-2.515"}, {"lat": "49.488889", "city": "Fortebrie", "lon": "-2.514722"}, {"lat": "49.446389", "city": "Fort George", "lon": "-2.54"}, {"lat": "49.445833", "city": "Four Cabot", "lon": "-2.573889"}, {"lat": "49.429722", "city": "Fregond\u00e9e", "lon": "-2.37"}, {"lat": "49.429722", "city": "Fregondie", "lon": "-2.37"}, {"lat": "49.451389", "city": "Frie Baton", "lon": "-2.630278"}, {"lat": "49.490833", "city": "Friquet", "lon": "-2.531389"}, {"lat": "49.454444", "city": "Girouette", "lon": "-2.633611"}, {"lat": "49.484167", "city": "Goubeys", "lon": "-2.572778"}, {"lat": "49.483889", "city": "Grande Roque", "lon": "-2.583333"}, {"lat": "49.479167", "city": "Grandes Capelles", "lon": "-2.5525"}, {"lat": "49.483333", "city": "Grandes Mielles", "lon": "-2.576389"}, {"lat": "49.483889", "city": "Grandes Rocques", "lon": "-2.583333"}, {"lat": "49.484167", "city": "Grand Fort", "lon": "-2.544444"}, {"lat": "49.483889", "city": "Grand Rocq", "lon": "-2.583333"}, {"lat": "49.483889", "city": "Grand Roques", "lon": "-2.583333"}, {"lat": "49.456667", "city": "Groign\u00eat", "lon": "-2.595556"}, {"lat": "49.458889", "city": "Hall", "lon": "-2.611389"}, {"lat": "49.434167", "city": "Hatnez", "lon": "-2.578611"}, {"lat": "49.433333", "city": "Hautnez", "lon": "-2.6"}, {"lat": "49.476667", "city": "Hommet", "lon": "-2.574722"}, {"lat": "49.476667", "city": "Hommets", "lon": "-2.574722"}, {"lat": "49.428611", "city": "Hougue Anthan", "lon": "-2.651389"}, {"lat": "49.493056", "city": "Hougue Moulin", "lon": "-2.514444"}, {"lat": "49.476944", "city": "Hougue Nicolle", "lon": "-2.546667"}, {"lat": "49.481389", "city": "Hougues Magues", "lon": "-2.549167"}, {"lat": "49.476667", "city": "Houmet", "lon": "-2.574722"}, {"lat": "49.476667", "city": "Houmets", "lon": "-2.574722"}, {"lat": "49.421944", "city": "Icart", "lon": "-2.560833"}, {"lat": "49.492778", "city": "Ivy Gate", "lon": "-2.536944"}, {"lat": "49.424722", "city": "Jerbourg", "lon": "-2.533611"}, {"lat": "49.457778", "city": "King's Mills", "lon": "-2.603056"}, {"lat": "49.4375", "city": "La Beilleuse", "lon": "-2.555"}, {"lat": "49.428889", "city": "La Bouv\u00e9e", "lon": "-2.536944"}, {"lat": "49.457222", "city": "La Chaumi\u00e8re", "lon": "-2.573056"}, {"lat": "49.431667", "city": "La Collinette", "lon": "-2.353333"}, {"lat": "49.446111", "city": "La Colombelle", "lon": "-2.5475"}, {"lat": "49.424167", "city": "La Corbi\u00e8re", "lon": "-2.6125"}, {"lat": "49.428889", "city": "La Croix", "lon": "-2.614444"}, {"lat": "49.413333", "city": "La Donnellerie", "lon": "-2.376111"}, {"lat": "49.429167", "city": "La Forge", "lon": "-2.350833"}, {"lat": "49.429722", "city": "La Fosse", "lon": "-2.554722"}, {"lat": "49.429722", "city": "La Fregond\u00e9e", "lon": "-2.37"}, {"lat": "49.494444", "city": "La Garenne", "lon": "-2.54"}, {"lat": "49.439444", "city": "La G\u00e9n\u00e9ti\u00e8re", "lon": "-2.3575"}, {"lat": "49.493333", "city": "La Gr\u00e8ve", "lon": "-2.533611"}, {"lat": "49.436389", "city": "La Hougue Falle", "lon": "-2.633889"}, {"lat": "49.45", "city": "La Houguette", "lon": "-2.639167"}, {"lat": "49.433611", "city": "La Lague", "lon": "-2.659722"}, {"lat": "49.503056", "city": "La Lande", "lon": "-2.508333"}, {"lat": "49.498889", "city": "La Miellette", "lon": "-2.504444"}, {"lat": "49.452778", "city": "La Monnaie", "lon": "-2.571667"}, {"lat": "49.499722", "city": "La Moye", "lon": "-2.513889"}, {"lat": "49.498056", "city": "L'Ancresse", "lon": "-2.526111"}, {"lat": "49.491667", "city": "La Pass\u00e8e", "lon": "-2.568333"}, {"lat": "49.431111", "city": "La Planque", "lon": "-2.600556"}, {"lat": "49.447222", "city": "La Pomare", "lon": "-2.644722"}, {"lat": "49.459444", "city": "La Porte", "lon": "-2.597222"}, {"lat": "49.471389", "city": "La Ram\u00e9e", "lon": "-2.556111"}, {"lat": "49.423611", "city": "La Roberge", "lon": "-2.603889"}, {"lat": "49.481111", "city": "La Robergerie", "lon": "-2.526389"}, {"lat": "49.499444", "city": "La Rochelle", "lon": "-2.508889"}, {"lat": "49.459722", "city": "La Rocque", "lon": "-2.646389"}, {"lat": "49.446389", "city": "La Saline", "lon": "-2.648611"}, {"lat": "49.437778", "city": "La Seigneurie", "lon": "-2.3625"}, {"lat": "49.465833", "city": "La Sergentee", "lon": "-2.573889"}, {"lat": "49.474167", "city": "La Tonelle", "lon": "-2.530556"}, {"lat": "49.433056", "city": "La Tourgie", "lon": "-2.588611"}, {"lat": "49.441667", "city": "La Tour", "lon": "-2.359722"}, {"lat": "49.494167", "city": "La Turquie", "lon": "-2.505556"}, {"lat": "49.463333", "city": "L'Aumone", "lon": "-2.57"}, {"lat": "49.430833", "city": "La Vaurocque", "lon": "-2.365"}, {"lat": "49.437222", "city": "La Ville Roussel", "lon": "-2.355278"}, {"lat": "49.431389", "city": "La Villette", "lon": "-2.568333"}, {"lat": "49.427222", "city": "La Villiaze", "lon": "-2.605833"}, {"lat": "49.424722", "city": "La Vrangue", "lon": "-2.600556"}, {"lat": "49.424722", "city": "Le Bigard", "lon": "-2.605278"}, {"lat": "49.428611", "city": "Le Bordage", "lon": "-2.589444"}, {"lat": "49.441389", "city": "Le Bouillon", "lon": "-2.590833"}, {"lat": "49.431389", "city": "Le Bourg", "lon": "-2.5925"}, {"lat": "49.441667", "city": "Le C\u00e2tillion", "lon": "-2.65"}, {"lat": "49.457778", "city": "Le Catioroc", "lon": "-2.641111"}, {"lat": "49.432222", "city": "Le Ch\u00e9ne", "lon": "-2.585833"}, {"lat": "49.442778", "city": "L'Eclet", "lon": "-2.631944"}, {"lat": "49.424722", "city": "Le Clos Bourel", "lon": "-2.363056"}, {"lat": "49.436667", "city": "Le Coudr\u00e9", "lon": "-2.643333"}, {"lat": "49.425833", "city": "Le Dos d'Ane", "lon": "-2.365833"}, {"lat": "49.443889", "city": "Le Douit", "lon": "-2.640556"}, {"lat": "49.442222", "city": "Le Fort", "lon": "-2.358333"}, {"lat": "49.458889", "city": "Le Foulon", "lon": "-2.557222"}, {"lat": "49.460556", "city": "Le Gele", "lon": "-2.612778"}, {"lat": "49.421389", "city": "Le Gouffre", "lon": "-2.595556"}, {"lat": "49.441389", "city": "Le Grand Fort", "lon": "-2.359167"}, {"lat": "49.438889", "city": "Le Gron", "lon": "-2.608611"}, {"lat": "49.4925", "city": "Le Houmet", "lon": "-2.553889"}, {"lat": "49.495", "city": "Le Hurel", "lon": "-2.529722"}, {"lat": "49.429722", "city": "Le Landes", "lon": "-2.598611"}, {"lat": "49.426111", "city": "Le Manoir", "lon": "-2.610833"}, {"lat": "49.46", "city": "Le Marais", "lon": "-2.622222"}, {"lat": "49.450278", "city": "Le Mont Durand", "lon": "-2.549167"}, {"lat": "49.491389", "city": "Le Picquerel", "lon": "-2.549444"}, {"lat": "49.426111", "city": "L'Epinel", "lon": "-2.601944"}, {"lat": "49.427778", "city": "Le Planel", "lon": "-2.632222"}, {"lat": "49.433333", "city": "Le Pont", "lon": "-2.626389"}, {"lat": "49.458056", "city": "Le Preel", "lon": "-2.581667"}, {"lat": "49.454167", "city": "L'Eree", "lon": "-2.651667"}, {"lat": "49.436111", "city": "Le Roussel", "lon": "-2.585556"}, {"lat": "49.453611", "city": "Les Adams", "lon": "-2.646111"}, {"lat": "49.478889", "city": "Les Annevilles", "lon": "-2.562222"}, {"lat": "49.4425", "city": "Les Arquets", "lon": "-2.643333"}, {"lat": "49.466944", "city": "Les Baissieres", "lon": "-2.563056"}, {"lat": "49.439444", "city": "Les Bas Courtils", "lon": "-2.601944"}, {"lat": "49.435556", "city": "Les Brehauts", "lon": "-2.621667"}, {"lat": "49.425", "city": "Les Bruliaux", "lon": "-2.616111"}, {"lat": "49.435278", "city": "Les Buttes", "lon": "-2.626944"}, {"lat": "49.433611", "city": "Les Camps du Moulin", "lon": "-2.55"}, {"lat": "49.48", "city": "Les Capelles", "lon": "-2.5575"}, {"lat": "49.436111", "city": "Les Clercs", "lon": "-2.65"}, {"lat": "49.4475", "city": "Les Clos Landais", "lon": "-2.630556"}, {"lat": "49.494444", "city": "Les Dicas", "lon": "-2.555556"}, {"lat": "49.432778", "city": "Les Falles", "lon": "-2.631111"}, {"lat": "49.430833", "city": "Les Fontaines", "lon": "-2.658056"}, {"lat": "49.423611", "city": "Les Fontenelles", "lon": "-2.591389"}, {"lat": "49.431389", "city": "Les Galliennes", "lon": "-2.651111"}, {"lat": "49.4775", "city": "Les Gen\u00e2ts", "lon": "-2.58"}, {"lat": "49.4825", "city": "Les Gigands", "lon": "-2.540833"}, {"lat": "49.441667", "city": "Les Gouies", "lon": "-2.575556"}, {"lat": "49.451667", "city": "Les Grantez", "lon": "-2.598333"}, {"lat": "49.494444", "city": "Les Hautgards", "lon": "-2.525"}, {"lat": "49.43", "city": "Les Heches", "lon": "-2.617222"}, {"lat": "49.421667", "city": "Les Houards", "lon": "-2.594444"}, {"lat": "49.442222", "city": "Les Hubits", "lon": "-2.548333"}, {"lat": "49.443889", "city": "Les Hurlaux", "lon": "-2.561944"}, {"lat": "49.44", "city": "Les Islets", "lon": "-2.628333"}, {"lat": "49.448889", "city": "Les Jaonnets", "lon": "-2.596667"}, {"lat": "49.430278", "city": "Les Jehans", "lon": "-2.633889"}, {"lat": "49.495833", "city": "Les Laudes", "lon": "-2.52"}, {"lat": "49.425278", "city": "Les Laurens", "lon": "-2.625278"}, {"lat": "49.448889", "city": "Les Lohiers", "lon": "-2.610833"}, {"lat": "49.483333", "city": "Les Maingys", "lon": "-2.57"}, {"lat": "49.450833", "city": "Les Marais", "lon": "-2.646111"}, {"lat": "49.428056", "city": "Les Marchez", "lon": "-2.6175"}, {"lat": "49.429722", "city": "Les Martins", "lon": "-2.626667"}, {"lat": "49.498889", "city": "Les Mielles", "lon": "-2.520278"}, {"lat": "49.483333", "city": "Les Monmains", "lon": "-2.514167"}, {"lat": "49.469722", "city": "Les Mourains", "lon": "-2.5825"}, {"lat": "49.451111", "city": "Les Niaux", "lon": "-2.581944"}, {"lat": "49.430556", "city": "Les Nicolles", "lon": "-2.581389"}, {"lat": "49.431111", "city": "Les Nouettes", "lon": "-2.606111"}, {"lat": "49.4475", "city": "Les Padins", "lon": "-2.624167"}, {"lat": "49.4325", "city": "Les Pages", "lon": "-2.571944"}, {"lat": "49.446111", "city": "Les Paysans", "lon": "-2.635833"}, {"lat": "49.433333", "city": "Les Pieces", "lon": "-2.583056"}, {"lat": "49.473056", "city": "Les Quartiers", "lon": "-2.551667"}, {"lat": "49.438333", "city": "Les Reveaux", "lon": "-2.631667"}, {"lat": "49.481944", "city": "Les Rouvets", "lon": "-2.565278"}, {"lat": "49.434167", "city": "Les Sages", "lon": "-2.639444"}, {"lat": "49.485", "city": "Les Salines", "lon": "-2.556111"}, {"lat": "49.483611", "city": "Les Sauvagees", "lon": "-2.535556"}, {"lat": "49.4275", "city": "Les Simons", "lon": "-2.638611"}, {"lat": "49.449722", "city": "Les Terres", "lon": "-2.536667"}, {"lat": "49.456944", "city": "Les Touillets", "lon": "-2.577778"}, {"lat": "49.494167", "city": "Les Vardes", "lon": "-2.563056"}, {"lat": "49.461944", "city": "Les Varendes", "lon": "-2.566667"}, {"lat": "49.442222", "city": "Les Vauxbelets", "lon": "-2.5875"}, {"lat": "49.424722", "city": "Les Villets", "lon": "-2.596667"}, {"lat": "49.441111", "city": "Les Vinaires", "lon": "-2.634722"}, {"lat": "49.468889", "city": "Le Tertre", "lon": "-2.593889"}, {"lat": "49.430278", "city": "Le Vallon", "lon": "-2.545"}, {"lat": "49.426944", "city": "Le Variouf", "lon": "-2.587778"}, {"lat": "49.490556", "city": "Le Vaugrat", "lon": "-2.561111"}, {"lat": "49.468056", "city": "Le Villocq", "lon": "-2.575833"}, {"lat": "49.487778", "city": "L'Islet", "lon": "-2.545"}, {"lat": "49.465", "city": "Longstore", "lon": "-2.536667"}, {"lat": "49.490278", "city": "Maraitaine", "lon": "-2.526944"}, {"lat": "49.481389", "city": "Mare de Carteret", "lon": "-2.581111"}, {"lat": "49.486944", "city": "Maresquet", "lon": "-2.515278"}, {"lat": "49.4675", "city": "Mont Plaisant", "lon": "-2.589167"}, {"lat": "49.430278", "city": "Mont Plaisir", "lon": "-2.603611"}, {"lat": "49.456944", "city": "Mont Saint", "lon": "-2.623611"}, {"lat": "49.436667", "city": "Mouilpied", "lon": "-2.568056"}, {"lat": "49.448889", "city": "Neuf Chemin", "lon": "-2.615278"}, {"lat": "49.719167", "city": "Newtown", "lon": "-2.199722"}, {"lat": "49.430556", "city": "Nicolles", "lon": "-2.581389"}, {"lat": "49.485278", "city": "North Side", "lon": "-2.516111"}, {"lat": "49.5", "city": "Paradise", "lon": "-2.516667"}, {"lat": "49.5", "city": "Paradis", "lon": "-2.516667"}, {"lat": "49.458056", "city": "Perelle", "lon": "-2.635833"}, {"lat": "49.486111", "city": "Pleinheaume", "lon": "-2.563611"}, {"lat": "49.431944", "city": "Pleinmont", "lon": "-2.667222"}, {"lat": "49.495278", "city": "Pulais", "lon": "-2.568056"}, {"lat": "49.457778", "city": "Queux Kings Mill", "lon": "-2.603056"}, {"lat": "49.471389", "city": "Ramee", "lon": "-2.556111"}, {"lat": "49.462222", "city": "Richmond", "lon": "-2.628056"}, {"lat": "49.450833", "city": "Rocque Poisson", "lon": "-2.649722"}, {"lat": "49.459167", "city": "Rohais Manor", "lon": "-2.563056"}, {"lat": "49.459167", "city": "Rohais", "lon": "-2.563056"}, {"lat": "49.716667", "city": "Roque Tourgis", "lon": "-2.216667"}, {"lat": "49.437222", "city": "Roselle", "lon": "-2.355278"}, {"lat": "49.496944", "city": "Rousse", "lon": "-2.555"}, {"lat": "49.450833", "city": "Rozel", "lon": "-2.541667"}, {"lat": "49.443889", "city": "Saint Andrew", "lon": "-2.578889"}, {"lat": "49.715", "city": "Saint Anne", "lon": "-2.204167"}, {"lat": "49.715", "city": "Saint Annes", "lon": "-2.204167"}, {"lat": "49.465556", "city": "Saint George", "lon": "-2.589444"}, {"lat": "49.4675", "city": "Saint Germain", "lon": "-2.595833"}, {"lat": "49.465", "city": "Saint Johns", "lon": "-2.54"}, {"lat": "49.456111", "city": "Saint Peter Port", "lon": "-2.540833"}, {"lat": "49.433333", "city": "Saint Phillipe de Torteval", "lon": "-2.65"}, {"lat": "49.483889", "city": "Saint Sampson", "lon": "-2.523333"}, {"lat": "49.483889", "city": "Saint Sampson's", "lon": "-2.523333"}, {"lat": "49.456944", "city": "Saint Saviour", "lon": "-2.635833"}, {"lat": "49.461667", "city": "Salerie", "lon": "-2.534167"}, {"lat": "49.466667", "city": "Saumarez", "lon": "-2.6"}, {"lat": "49.444167", "city": "Sous l'Eglise", "lon": "-2.616667"}, {"lat": "49.481667", "city": "South Side", "lon": "-2.515833"}, {"lat": "49.443889", "city": "St. Andrew", "lon": "-2.578889"}, {"lat": "49.715", "city": "St. Anne", "lon": "-2.204167"}, {"lat": "49.465556", "city": "St. George", "lon": "-2.589444"}, {"lat": "49.4675", "city": "St. Germain", "lon": "-2.595833"}, {"lat": "49.465", "city": "St. Johns", "lon": "-2.54"}, {"lat": "49.456944", "city": "St. Saviour", "lon": "-2.635833"}, {"lat": "49.483056", "city": "The Bridge", "lon": "-2.521667"}, {"lat": "49.433333", "city": "Torteval Church", "lon": "-2.65"}, {"lat": "49.433333", "city": "Torteval", "lon": "-2.65"}, {"lat": "49.426111", "city": "Val au Bourg", "lon": "-2.558056"}, {"lat": "49.462778", "city": "Vazon", "lon": "-2.6125"}, {"lat": "49.438333", "city": "Village de Putron", "lon": "-2.542778"}, {"lat": "49.446389", "city": "Ville au Roi", "lon": "-2.553889"}, {"lat": "49.479444", "city": "Vingtaine de l'Epine", "lon": "-2.571111"}, {"lat": "49.457778", "city": "Woodlands", "lon": "-2.5875"}]}}