{"GM": {"02": [{"lat": "13.4333333", "city": "Baba", "lon": "-15.45"}, {"lat": "13.4", "city": "Badume", "lon": "-15.3666667"}, {"lat": "13.5833333", "city": "Bahen", "lon": "-15.4166667"}, {"lat": "13.45", "city": "Bai Tenda", "lon": "-15.4166667"}, {"lat": "13.3666667", "city": "Bajon Koto", "lon": "-15.6166667"}, {"lat": "13.4833333", "city": "Balingho", "lon": "-15.6166667"}, {"lat": "13.4833333", "city": "Balingo", "lon": "-15.6166667"}, {"lat": "13.5833333", "city": "Balo Ibra", "lon": "-15.4166667"}, {"lat": "13.5833333", "city": "Balo Omar", "lon": "-15.4333333"}, {"lat": "13.4833333", "city": "Bambale", "lon": "-15.3333333"}, {"lat": "13.4833333", "city": "Bambali", "lon": "-15.3333333"}, {"lat": "13.5166667", "city": "Bambatenda", "lon": "-15.5833333"}, {"lat": "13.2966667", "city": "Bankulling", "lon": "-16.0725"}, {"lat": "13.3213889", "city": "Bantasu", "lon": "-16.1"}, {"lat": "13.55", "city": "Banta Su", "lon": "-15.5166667"}, {"lat": "13.5333333", "city": "Bassik", "lon": "-15.5"}, {"lat": "13.55", "city": "Beretto", "lon": "-15.5833333"}, {"lat": "13.65", "city": "Biram Yacin", "lon": "-15.4333333"}, {"lat": "13.4166667", "city": "Biranoya", "lon": "-15.5333333"}, {"lat": "13.3266667", "city": "Birong", "lon": "-16.1794444"}, {"lat": "13.4833333", "city": "Bombale", "lon": "-15.3333333"}, {"lat": "13.4333333", "city": "Buiba", "lon": "-15.45"}, {"lat": "13.4333333", "city": "Buiba Jalo Kunda", "lon": "-15.45"}, {"lat": "13.4333333", "city": "Buiba Mandinka", "lon": "-15.45"}, {"lat": "13.4333333", "city": "Buiba Musa Njadoh", "lon": "-15.45"}, {"lat": "13.45", "city": "Buiba Musa Sallah", "lon": "-15.45"}, {"lat": "13.55", "city": "Buniadu", "lon": "-15.3333333"}, {"lat": "13.3266667", "city": "Burrong", "lon": "-16.1794444"}, {"lat": "13.5833333", "city": "Checken", "lon": "-15.45"}, {"lat": "13.6", "city": "Dafa", "lon": "-15.4"}, {"lat": "13.5166667", "city": "Dankadanka", "lon": "-15.6333333"}, {"lat": "13.4", "city": "Daru Fatiho", "lon": "-15.3833333"}, {"lat": "13.5666667", "city": "Dasilami", "lon": "-15.55"}, {"lat": "13.3666667", "city": "Digante", "lon": "-15.4333333"}, {"lat": "13.3666667", "city": "Diganteh", "lon": "-15.4333333"}, {"lat": "13.5666667", "city": "Dipa Kunda", "lon": "-15.4666667"}, {"lat": "13.5666667", "city": "Dipa Kunda Wollof", "lon": "-15.4666667"}, {"lat": "13.5666667", "city": "Dutabulu", "lon": "-15.6166667"}, {"lat": "13.5666667", "city": "Dutta Bullu", "lon": "-15.6166667"}, {"lat": "13.5666667", "city": "Farafenni", "lon": "-15.6"}, {"lat": "13.55", "city": "Farato", "lon": "-15.4333333"}, {"lat": "13.4", "city": "Faro Ya", "lon": "-15.45"}, {"lat": "13.5833333", "city": "Fass", "lon": "-15.6166667"}, {"lat": "13.3833333", "city": "Fonkoi Kunda", "lon": "-15.5666667"}, {"lat": "13.4", "city": "Forlolor", "lon": "-15.4"}, {"lat": "13.4166667", "city": "Genieri", "lon": "-15.6166667"}, {"lat": "13.4166667", "city": "Giffin", "lon": "-15.5833333"}, {"lat": "13.4833333", "city": "Ginoi", "lon": "-15.5666667"}, {"lat": "13.3108333", "city": "Gissay", "lon": "-16.0883333"}, {"lat": "13.3833333", "city": "Hamdalai", "lon": "-15.3666667"}, {"lat": "13.5", "city": "Jabbi Kunda", "lon": "-15.6166667"}, {"lat": "13.4666667", "city": "Jabisa", "lon": "-15.4666667"}, {"lat": "13.4666667", "city": "Jabis", "lon": "-15.4666667"}, {"lat": "13.4166667", "city": "Jafini", "lon": "-15.4166667"}, {"lat": "13.4", "city": "Jaidina", "lon": "-15.5166667"}, {"lat": "13.3833333", "city": "Jalaba", "lon": "-15.3666667"}, {"lat": "13.3833333", "city": "Jalangbereh", "lon": "-15.4"}, {"lat": "13.35", "city": "Jali", "lon": "-15.9666667"}, {"lat": "13.35", "city": "Jallow Kunda", "lon": "-15.3833333"}, {"lat": "13.5666667", "city": "Jamagen", "lon": "-15.45"}, {"lat": "13.5833333", "city": "Jamal Mballo", "lon": "-15.5166667"}, {"lat": "13.5333333", "city": "Jambanya", "lon": "-15.5166667"}, {"lat": "13.3802778", "city": "Janna Kunda", "lon": "-16.1383333"}, {"lat": "13.3802778", "city": "Janneh Kunda", "lon": "-16.1383333"}, {"lat": "13.4166667", "city": "Jappeni", "lon": "-15.4166667"}, {"lat": "13.4666667", "city": "Jasobo", "lon": "-15.6666667"}, {"lat": "13.4833333", "city": "Jenoi", "lon": "-15.5666667"}, {"lat": "13.4166667", "city": "Jiffin", "lon": "-15.5833333"}, {"lat": "13.5666667", "city": "Jigimar", "lon": "-15.6"}, {"lat": "13.4166667", "city": "Jobe Kunda", "lon": "-15.4166667"}, {"lat": "13.4333333", "city": "Jomarr", "lon": "-15.6666667"}, {"lat": "13.3305556", "city": "Jula Kunda", "lon": "-16.1769444"}, {"lat": "13.4005556", "city": "Juoli", "lon": "-16.0955556"}, {"lat": "13.4", "city": "Kaiaf", "lon": "-15.6166667"}, {"lat": "13.55", "city": "Kalataba", "lon": "-15.6166667"}, {"lat": "13.45", "city": "Kani Kunda", "lon": "-15.5166667"}, {"lat": "13.55", "city": "Kani Kunda Wharf Town", "lon": "-15.3833333"}, {"lat": "13.4166667", "city": "Kanuma", "lon": "-15.4"}, {"lat": "13.3525", "city": "Karantaba", "lon": "-16.1544444"}, {"lat": "13.55", "city": "Kataba", "lon": "-15.5166667"}, {"lat": "13.55", "city": "Kataba Mandinka", "lon": "-15.5333333"}, {"lat": "13.55", "city": "Kataba Mbap", "lon": "-15.5166667"}, {"lat": "13.55", "city": "Katabatata", "lon": "-15.5166667"}, {"lat": "13.4325", "city": "Kemoto", "lon": "-16.1475"}, {"lat": "13.3288889", "city": "Keneba", "lon": "-16.015"}, {"lat": "13.3538889", "city": "Kenniang", "lon": "-16.07"}, {"lat": "13.3288889", "city": "Kenniba", "lon": "-16.015"}, {"lat": "13.2891667", "city": "Keno Koto", "lon": "-16.0822222"}, {"lat": "13.5833333", "city": "Ker Ali", "lon": "-15.6166667"}, {"lat": "13.55", "city": "Ker Bamba Lowe", "lon": "-15.4166667"}, {"lat": "13.55", "city": "Ker Bambo Lowe", "lon": "-15.4166667"}, {"lat": "13.65", "city": "Ker Biram Yassin", "lon": "-15.4333333"}, {"lat": "13.65", "city": "Ker Biran Yassin", "lon": "-15.4333333"}, {"lat": "13.5833333", "city": "Ker Halli", "lon": "-15.6166667"}, {"lat": "13.5333333", "city": "Ker Njugar Ndure", "lon": "-15.3333333"}, {"lat": "13.3666667", "city": "Ker Pateh", "lon": "-15.3833333"}, {"lat": "13.55", "city": "Ker Yoro Sowe", "lon": "-15.3333333"}, {"lat": "13.4", "city": "Kohel", "lon": "-15.55"}, {"lat": "13.4166667", "city": "Kolior", "lon": "-15.6666667"}, {"lat": "13.5333333", "city": "Kubendar", "lon": "-15.6333333"}, {"lat": "13.5333333", "city": "Kumbijae", "lon": "-15.4333333"}, {"lat": "13.5333333", "city": "Kumbija", "lon": "-15.4333333"}, {"lat": "13.5", "city": "Kunjetta", "lon": "-15.4"}, {"lat": "13.5666667", "city": "Kunjung", "lon": "-15.5833333"}, {"lat": "13.3013889", "city": "Kurang Kotor", "lon": "-16.1875"}, {"lat": "13.3166667", "city": "Kurong Kortor", "lon": "-16.1"}, {"lat": "13.3013889", "city": "Kurong Kotor", "lon": "-16.1875"}, {"lat": "13.5666667", "city": "Kusassa", "lon": "-15.5833333"}, {"lat": "13.3336111", "city": "Kuyang", "lon": "-16.1025"}, {"lat": "13.5833333", "city": "Lang Sarr", "lon": "-15.6333333"}, {"lat": "13.5666667", "city": "Lumen", "lon": "-15.4166667"}, {"lat": "13.3577778", "city": "Madina", "lon": "-16.1716667"}, {"lat": "13.5833333", "city": "Maka Farafenni", "lon": "-15.6333333"}, {"lat": "13.3586111", "city": "Manar", "lon": "-16.1522222"}, {"lat": "13.3577778", "city": "Mandina", "lon": "-16.1716667"}, {"lat": "13.3538889", "city": "Mandua", "lon": "-16.07"}, {"lat": "13.3538889", "city": "Manduar", "lon": "-16.07"}, {"lat": "13.4666667", "city": "Mansa Konko", "lon": "-15.55"}, {"lat": "13.5833333", "city": "Marka Farafenni", "lon": "-15.6333333"}, {"lat": "13.4166667", "city": "Massembe", "lon": "-15.6333333"}, {"lat": "13.5333333", "city": "Mbaien", "lon": "-15.6166667"}, {"lat": "13.5833333", "city": "Mbange Ndarra", "lon": "-15.55"}, {"lat": "13.5833333", "city": "Mbap Ba", "lon": "-15.4833333"}, {"lat": "13.5833333", "city": "Mbap Marigay", "lon": "-15.4833333"}, {"lat": "13.5833333", "city": "Mbye Niake", "lon": "-15.4166667"}, {"lat": "13.55", "city": "Mina", "lon": "-15.4833333"}, {"lat": "13.3833333", "city": "Misira", "lon": "-15.5333333"}, {"lat": "13.3013889", "city": "Missira Tenda", "lon": "-16.1875"}, {"lat": "13.5666667", "city": "M'Palen", "lon": "-15.4333333"}, {"lat": "13.3833333", "city": "Munku Talla", "lon": "-15.6"}, {"lat": "13.4", "city": "Naneko", "lon": "-15.3666667"}, {"lat": "13.55", "city": "N'Daharr", "lon": "-15.4666667"}, {"lat": "13.5166667", "city": "Ndanka Ndanka", "lon": "-15.6333333"}, {"lat": "13.5666667", "city": "Ndowen", "lon": "-15.4166667"}, {"lat": "13.4166667", "city": "Nema", "lon": "-15.4"}, {"lat": "13.5333333", "city": "Nettebiri", "lon": "-15.6166667"}, {"lat": "13.55", "city": "Ngaien Beretto", "lon": "-15.5833333"}, {"lat": "13.5833333", "city": "N'Geyen Fula", "lon": "-15.4333333"}, {"lat": "13.6", "city": "N'Geyen Sabach", "lon": "-15.45"}, {"lat": "13.5833333", "city": "N'Geyen Sanjal", "lon": "-15.4333333"}, {"lat": "13.55", "city": "N'Gien Beretto", "lon": "-15.5833333"}, {"lat": "13.5666667", "city": "N'Gien", "lon": "-15.5333333"}, {"lat": "13.55", "city": "Ngooka", "lon": "-15.4666667"}, {"lat": "13.5833333", "city": "Ngueur", "lon": "-15.65"}, {"lat": "13.55", "city": "Njabo", "lon": "-15.4166667"}, {"lat": "13.55", "city": "N'Jaien", "lon": "-15.4166667"}, {"lat": "13.5", "city": "Njamburr", "lon": "-15.6166667"}, {"lat": "13.5833333", "city": "Njangen", "lon": "-15.55"}, {"lat": "13.5333333", "city": "N'Jenghen", "lon": "-15.5166667"}, {"lat": "13.5333333", "city": "Njenghen Njie Kunda", "lon": "-15.5166667"}, {"lat": "13.5333333", "city": "N'Jie Kunda", "lon": "-15.5166667"}, {"lat": "13.5333333", "city": "Njugar Kunda", "lon": "-15.3333333"}, {"lat": "13.5833333", "city": "Numu Kunda", "lon": "-15.55"}, {"lat": "13.5333333", "city": "N'Yang Kunda", "lon": "-15.4833333"}, {"lat": "13.55", "city": "Pakala", "lon": "-15.6666667"}, {"lat": "13.4666667", "city": "Pakali Nding", "lon": "-15.55"}, {"lat": "13.4666667", "city": "Pakuba", "lon": "-15.4833333"}, {"lat": "13.5666667", "city": "Palen Fula", "lon": "-15.4333333"}, {"lat": "13.5666667", "city": "Palen Sanjal", "lon": "-15.4333333"}, {"lat": "13.5666667", "city": "Palen Wollof", "lon": "-15.4333333"}, {"lat": "13.5666667", "city": "Passi Mut", "lon": "-15.5"}, {"lat": "13.4666667", "city": "Pokalle Ding", "lon": "-15.55"}, {"lat": "13.55", "city": "Polga", "lon": "-15.4666667"}, {"lat": "13.6166667", "city": "Polodi", "lon": "-15.4"}, {"lat": "13.5666667", "city": "Sabach Ngaien", "lon": "-15.5333333"}, {"lat": "13.5333333", "city": "Sambang", "lon": "-15.3333333"}, {"lat": "13.5166667", "city": "Sambang Tenda", "lon": "-15.35"}, {"lat": "13.55", "city": "Sambang Wolloff", "lon": "-15.3333333"}, {"lat": "13.6", "city": "Samba Sotor", "lon": "-15.4"}, {"lat": "13.3666667", "city": "Samba Ya Nding", "lon": "-15.6"}, {"lat": "13.3666667", "city": "Samba Ya", "lon": "-15.5833333"}, {"lat": "13.6", "city": "Sancha Madina", "lon": "-15.4166667"}, {"lat": "13.5333333", "city": "Sancha Palen", "lon": "-15.4166667"}, {"lat": "13.5833333", "city": "Sankalang", "lon": "-15.55"}, {"lat": "13.4666667", "city": "Sankuia", "lon": "-15.5166667"}, {"lat": "13.4666667", "city": "Sankwia", "lon": "-15.5166667"}, {"lat": "13.4833333", "city": "Sankwia Tenda", "lon": "-15.5166667"}, {"lat": "13.3166667", "city": "Santamba", "lon": "-16.1333333"}, {"lat": "13.2961111", "city": "Santamba Wharf", "lon": "-16.1333333"}, {"lat": "13.3166667", "city": "Santang Ba", "lon": "-16.1333333"}, {"lat": "13.2961111", "city": "Santang Ba Wharf", "lon": "-16.1333333"}, {"lat": "13.5333333", "city": "Sara Kunda", "lon": "-15.4166667"}, {"lat": "13.4", "city": "Sare Babu", "lon": "-15.65"}, {"lat": "13.3833333", "city": "Sare Fonkoi", "lon": "-15.5666667"}, {"lat": "13.3666667", "city": "Sare Hamady", "lon": "-15.6166667"}, {"lat": "13.5833333", "city": "Sare Jam Gido", "lon": "-15.55"}, {"lat": "13.3666667", "city": "Sare Pateh", "lon": "-15.3833333"}, {"lat": "13.3666667", "city": "Sare Saidy", "lon": "-15.5666667"}, {"lat": "13.5333333", "city": "Sarra Kunda", "lon": "-15.4166667"}, {"lat": "13.4", "city": "Sasita", "lon": "-15.45"}, {"lat": "13.4", "city": "Seno Bajonki", "lon": "-15.5166667"}, {"lat": "13.4", "city": "Seno Ba", "lon": "-15.5166667"}, {"lat": "13.4333333", "city": "Si Kunda", "lon": "-15.5666667"}, {"lat": "13.5333333", "city": "Sinchu Medina", "lon": "-15.45"}, {"lat": "13.4166667", "city": "Sitafuma", "lon": "-15.4"}, {"lat": "13.4333333", "city": "Soma", "lon": "-15.5333333"}, {"lat": "13.3833333", "city": "Subundu", "lon": "-15.5333333"}, {"lat": "13.5666667", "city": "Sukoto Fula", "lon": "-15.55"}, {"lat": "13.5666667", "city": "Sukotto", "lon": "-15.5333333"}, {"lat": "13.3833333", "city": "Sumbundu", "lon": "-15.5333333"}, {"lat": "13.3225", "city": "Taba Woro", "lon": "-16.1794444"}, {"lat": "13.3225", "city": "Taburo Koto", "lon": "-16.1794444"}, {"lat": "13.55", "city": "Taiba", "lon": "-15.5333333"}, {"lat": "13.5166667", "city": "Taindaitor", "lon": "-15.4166667"}, {"lat": "13.5333333", "city": "Tamba Koto", "lon": "-15.5166667"}, {"lat": "13.5333333", "city": "Tankanto", "lon": "-15.6666667"}, {"lat": "13.4177778", "city": "Tankular", "lon": "-16.0369444"}, {"lat": "13.4177778", "city": "Tankural", "lon": "-16.0369444"}, {"lat": "13.3225", "city": "Tarburung Kotor", "lon": "-16.1794444"}, {"lat": "13.4166667", "city": "Tembetto", "lon": "-15.4166667"}, {"lat": "13.5166667", "city": "Tendaito", "lon": "-15.4166667"}, {"lat": "13.3013889", "city": "Tenda", "lon": "-16.1875"}, {"lat": "13.5166667", "city": "Tendito", "lon": "-15.4166667"}, {"lat": "13.5333333", "city": "Tomba Koto", "lon": "-15.5166667"}, {"lat": "13.4333333", "city": "Toniataba", "lon": "-15.5833333"}, {"lat": "13.4333333", "city": "Tonitaba", "lon": "-15.5833333"}, {"lat": "13.4", "city": "Toranka Bantang", "lon": "-15.6666667"}, {"lat": "13.4", "city": "Toranko Bantang", "lon": "-15.6666667"}, {"lat": "13.55", "city": "Tuba Wollof", "lon": "-15.3333333"}, {"lat": "13.4166667", "city": "Wellingara Ba", "lon": "-15.4"}, {"lat": "13.45", "city": "Wellingara Nding", "lon": "-15.45"}, {"lat": "13.3833333", "city": "Willingara", "lon": "-15.55"}, {"lat": "13.5833333", "city": "Yallal Ba", "lon": "-15.5666667"}, {"lat": "13.4", "city": "Yallal", "lon": "-15.55"}, {"lat": "13.5833333", "city": "Yallol Ba", "lon": "-15.5666667"}, {"lat": "13.5166667", "city": "Yelitenda", "lon": "-15.5666667"}, {"lat": "13.4166667", "city": "Yora Jula", "lon": "-15.6666667"}], "03": [{"lat": "13.3666667", "city": "Abeokuta", "lon": "-14.6166667"}, {"lat": "13.4666667", "city": "Ahalulie", "lon": "-14.9166667"}, {"lat": "13.4666667", "city": "Alhaji Dembo", "lon": "-14.8833333"}, {"lat": "13.4666667", "city": "Alimaka", "lon": "-14.4833333"}, {"lat": "13.45", "city": "Alla Tenta", "lon": "-14.6666667"}, {"lat": "13.4666667", "city": "Anulie", "lon": "-14.9166667"}, {"lat": "13.5", "city": "Baiaba", "lon": "-14.5"}, {"lat": "13.5", "city": "Bai Ba", "lon": "-14.5"}, {"lat": "13.5", "city": "Bai N'Ding", "lon": "-14.5"}, {"lat": "13.7166667", "city": "Bakadagy", "lon": "-15.0166667"}, {"lat": "13.65", "city": "Bakadaji", "lon": "-14.8333333"}, {"lat": "13.65", "city": "Bakadaji Kunda", "lon": "-14.8333333"}, {"lat": "13.5166667", "city": "Bani", "lon": "-14.6"}, {"lat": "13.4333333", "city": "Banicuba Yoroyel", "lon": "-14.5333333"}, {"lat": "13.4333333", "city": "Bankuba Samboido", "lon": "-14.5333333"}, {"lat": "13.55", "city": "Banni", "lon": "-14.7333333"}, {"lat": "13.4333333", "city": "Bansang", "lon": "-14.65"}, {"lat": "13.4333333", "city": "Bansang Tenda", "lon": "-14.65"}, {"lat": "13.55", "city": "Bantango Koto", "lon": "-14.55"}, {"lat": "13.4166667", "city": "Bantanto", "lon": "-14.65"}, {"lat": "13.4666667", "city": "Bantan Yima", "lon": "-14.9"}, {"lat": "13.6", "city": "Barajali", "lon": "-14.95"}, {"lat": "13.5833333", "city": "Barajali Tenda", "lon": "-14.95"}, {"lat": "13.6", "city": "Barrajalli", "lon": "-14.95"}, {"lat": "13.4333333", "city": "Barsangsang", "lon": "-14.65"}, {"lat": "13.3666667", "city": "Belal", "lon": "-14.65"}, {"lat": "13.5166667", "city": "Boraba", "lon": "-14.7333333"}, {"lat": "13.5166667", "city": "Boroba", "lon": "-14.7333333"}, {"lat": "13.6333333", "city": "Borong Kunda", "lon": "-14.6"}, {"lat": "13.4833333", "city": "Bowe", "lon": "-14.9166667"}, {"lat": "13.5333333", "city": "Brekana", "lon": "-14.9333333"}, {"lat": "13.5333333", "city": "Brikama Ba", "lon": "-14.9333333"}, {"lat": "13.5333333", "city": "Brikama", "lon": "-14.9333333"}, {"lat": "13.5333333", "city": "Brikama Nding", "lon": "-14.9333333"}, {"lat": "13.5", "city": "Bukari Kunda", "lon": "-14.7166667"}, {"lat": "13.4833333", "city": "Buruku", "lon": "-14.7"}, {"lat": "13.6333333", "city": "Busura", "lon": "-15.0833333"}, {"lat": "13.3833333", "city": "Cha Kunda", "lon": "-14.5333333"}, {"lat": "13.7833333", "city": "Chalen", "lon": "-15.0"}, {"lat": "13.7833333", "city": "Chalen Ker Bakari Salla", "lon": "-15.0"}, {"lat": "13.7833333", "city": "Chalen Ker Bakary Salla", "lon": "-15.0"}, {"lat": "13.5833333", "city": "Changai", "lon": "-14.6666667"}, {"lat": "13.35", "city": "Charen", "lon": "-14.6666667"}, {"lat": "13.45", "city": "Chargel", "lon": "-14.55"}, {"lat": "13.45", "city": "Charjel", "lon": "-14.55"}, {"lat": "13.4166667", "city": "Charno Musa", "lon": "-14.65"}, {"lat": "13.6", "city": "Cheken", "lon": "-15.05"}, {"lat": "13.4166667", "city": "Cherna Musa", "lon": "-14.65"}, {"lat": "13.3666667", "city": "Daru", "lon": "-14.6166667"}, {"lat": "13.7", "city": "Darusalameh", "lon": "-14.9"}, {"lat": "13.5333333", "city": "Dasilame", "lon": "-14.9333333"}, {"lat": "13.5833333", "city": "Demba Kale", "lon": "-14.65"}, {"lat": "13.5833333", "city": "Demba Kali", "lon": "-14.65"}, {"lat": "13.6166667", "city": "Demba Kunda", "lon": "-14.6666667"}, {"lat": "13.45", "city": "Dembaso", "lon": "-14.5333333"}, {"lat": "13.5", "city": "Demba Waddu", "lon": "-14.4666667"}, {"lat": "13.5", "city": "Demba Wanda", "lon": "-14.4666667"}, {"lat": "13.6166667", "city": "Demfai", "lon": "-14.65"}, {"lat": "13.6333333", "city": "Demfai Karim", "lon": "-14.65"}, {"lat": "13.6166667", "city": "Demfai Njaga", "lon": "-14.65"}, {"lat": "13.5", "city": "Denton", "lon": "-14.9333333"}, {"lat": "13.7666667", "city": "Dingarai", "lon": "-14.9166667"}, {"lat": "13.75", "city": "Dingirie", "lon": "-14.9166667"}, {"lat": "13.4166667", "city": "Dobang Kunda", "lon": "-14.6333333"}, {"lat": "13.4666667", "city": "Dobbo", "lon": "-14.6333333"}, {"lat": "13.4666667", "city": "Dobo", "lon": "-14.6333333"}, {"lat": "13.7166667", "city": "Doke Alla", "lon": "-14.9"}, {"lat": "13.7166667", "city": "Doki Alla", "lon": "-14.9"}, {"lat": "13.5", "city": "Dungal", "lon": "-14.8333333"}, {"lat": "13.4", "city": "Ebadong", "lon": "-14.6"}, {"lat": "13.6", "city": "Fadia Kunda", "lon": "-15.0333333"}, {"lat": "13.5333333", "city": "Faraba", "lon": "-14.8166667"}, {"lat": "13.3833333", "city": "Faranabe", "lon": "-14.5666667"}, {"lat": "13.3333333", "city": "Farato", "lon": "-14.55"}, {"lat": "13.4666667", "city": "Fas Abdou", "lon": "-14.9166667"}, {"lat": "13.4666667", "city": "Fas", "lon": "-14.9166667"}, {"lat": "13.6", "city": "Fas Maundeh", "lon": "-14.85"}, {"lat": "13.3666667", "city": "Fass", "lon": "-14.65"}, {"lat": "13.7833333", "city": "Firdausy", "lon": "-14.9333333"}, {"lat": "13.6", "city": "Fitu", "lon": "-14.7"}, {"lat": "13.5833333", "city": "Fitu Fula", "lon": "-14.7"}, {"lat": "13.6", "city": "Fitu Wollof", "lon": "-14.7"}, {"lat": "13.35", "city": "Fori", "lon": "-14.6666667"}, {"lat": "13.4666667", "city": "Fuka", "lon": "-14.7"}, {"lat": "13.5", "city": "Fula Bantang", "lon": "-14.8333333"}, {"lat": "13.5833333", "city": "Fula Kunda", "lon": "-14.8333333"}, {"lat": "13.4333333", "city": "Futa Yel", "lon": "-14.7"}, {"lat": "13.4333333", "city": "Galleh Jolloff", "lon": "-14.8"}, {"lat": "13.4333333", "city": "Galleh Jollof", "lon": "-14.8"}, {"lat": "13.4333333", "city": "Galleh Manda", "lon": "-14.7833333"}, {"lat": "13.4333333", "city": "Galleh Wollof", "lon": "-14.8"}, {"lat": "13.35", "city": "Gayen Pate Gaie", "lon": "-14.6833333"}, {"lat": "13.5333333", "city": "Georgetown", "lon": "-14.7666667"}, {"lat": "13.4666667", "city": "Gidda", "lon": "-14.8833333"}, {"lat": "13.4666667", "city": "Guidi Musa", "lon": "-14.8333333"}, {"lat": "13.7166667", "city": "Gungorong", "lon": "-14.8666667"}, {"lat": "13.6666667", "city": "Gunjur", "lon": "-15.0333333"}, {"lat": "13.65", "city": "Hai-Rewan", "lon": "-15.0833333"}, {"lat": "13.5", "city": "Hamdalae", "lon": "-14.95"}, {"lat": "13.7166667", "city": "Hamdalai", "lon": "-15.0166667"}, {"lat": "13.7833333", "city": "Hamdalie", "lon": "-14.8666667"}, {"lat": "13.8", "city": "Hosnan", "lon": "-15.0166667"}, {"lat": "13.6666667", "city": "Ida", "lon": "-14.9333333"}, {"lat": "13.4", "city": "Jabel Kunda", "lon": "-14.65"}, {"lat": "13.6666667", "city": "Jafai", "lon": "-15.0833333"}, {"lat": "13.7166667", "city": "Jailan", "lon": "-15.0166667"}, {"lat": "13.65", "city": "Jakaba", "lon": "-14.8833333"}, {"lat": "13.55", "city": "Jakhaly", "lon": "-14.9666667"}, {"lat": "13.55", "city": "Jala Koto", "lon": "-14.6666667"}, {"lat": "13.6166667", "city": "Jallal", "lon": "-14.5"}, {"lat": "13.7666667", "city": "Jalo Kunda Abdu Secka", "lon": "-14.9833333"}, {"lat": "13.75", "city": "Jalo Kunda Bakari Sabali", "lon": "-14.9666667"}, {"lat": "13.7666667", "city": "Jalo Kunda Demba Sira", "lon": "-14.9666667"}, {"lat": "13.75", "city": "Jalo Kunda Fula", "lon": "-14.9666667"}, {"lat": "13.7833333", "city": "Jalo Kunda", "lon": "-15.0"}, {"lat": "13.75", "city": "Jalo Kunda Malick N'Yang", "lon": "-14.9666667"}, {"lat": "13.7666667", "city": "Jalo Kunda Mat Mbye", "lon": "-14.9833333"}, {"lat": "13.75", "city": "Jalo Kunda Sering Ceesay", "lon": "-14.9833333"}, {"lat": "13.5833333", "city": "Jaluby", "lon": "-14.5833333"}, {"lat": "13.6", "city": "Jaluby Koto", "lon": "-14.6166667"}, {"lat": "13.55", "city": "Jaluby Tukulor", "lon": "-14.55"}, {"lat": "13.7666667", "city": "Jamagain", "lon": "-15.0166667"}, {"lat": "13.4833333", "city": "Jamagen", "lon": "-14.8166667"}, {"lat": "13.65", "city": "Jama Gen", "lon": "-14.65"}, {"lat": "13.7166667", "city": "Jamagen", "lon": "-14.8166667"}, {"lat": "13.5666667", "city": "Jamali Babou", "lon": "-14.7666667"}, {"lat": "13.5833333", "city": "Jamali Bere Jallow", "lon": "-14.7666667"}, {"lat": "13.5666667", "city": "Jamali Ganiado Njie", "lon": "-14.75"}, {"lat": "13.5833333", "city": "Jamali Momodou Kuta", "lon": "-14.75"}, {"lat": "13.5833333", "city": "Jamali Tamsin Musa", "lon": "-14.7666667"}, {"lat": "13.5666667", "city": "Jamali Tamsir Secka", "lon": "-14.7666667"}, {"lat": "13.5833333", "city": "Jamaly", "lon": "-14.75"}, {"lat": "13.5833333", "city": "Jamari", "lon": "-14.75"}, {"lat": "13.5833333", "city": "Jamarli", "lon": "-14.75"}, {"lat": "13.3833333", "city": "Jamu", "lon": "-14.7333333"}, {"lat": "13.65", "city": "Janeh Kunda", "lon": "-14.6166667"}, {"lat": "13.5833333", "city": "Jarrume Koto", "lon": "-14.7833333"}, {"lat": "13.5666667", "city": "Jarrume Kuta", "lon": "-14.8666667"}, {"lat": "13.5833333", "city": "Jarume Koto", "lon": "-14.7833333"}, {"lat": "13.5666667", "city": "Jarume Kuta", "lon": "-14.8666667"}, {"lat": "13.6166667", "city": "Jataly", "lon": "-14.7166667"}, {"lat": "13.4166667", "city": "Jawbe", "lon": "-14.7166667"}, {"lat": "13.6666667", "city": "Jda", "lon": "-14.9333333"}, {"lat": "13.7166667", "city": "Jingory Manga", "lon": "-14.8666667"}, {"lat": "13.7333333", "city": "Jingory Mustapha", "lon": "-14.8666667"}, {"lat": "13.5166667", "city": "Jogdu", "lon": "-14.6"}, {"lat": "13.7666667", "city": "Jokul", "lon": "-14.9833333"}, {"lat": "13.7833333", "city": "Jokul Ndowen", "lon": "-14.9"}, {"lat": "13.6166667", "city": "Joli Kah", "lon": "-14.6666667"}, {"lat": "13.4166667", "city": "Junku", "lon": "-14.6666667"}, {"lat": "13.5833333", "city": "Ka-ai", "lon": "-14.8833333"}, {"lat": "13.5", "city": "Kahan", "lon": "-14.8166667"}, {"lat": "13.7166667", "city": "Kahone", "lon": "-15.0166667"}, {"lat": "13.4833333", "city": "Kahow", "lon": "-14.8166667"}, {"lat": "13.5833333", "city": "Kai Hai Fula Kunda", "lon": "-14.8666667"}, {"lat": "13.5833333", "city": "Kai Hai", "lon": "-14.8833333"}, {"lat": "13.5833333", "city": "Kalem Pol", "lon": "-14.65"}, {"lat": "13.4666667", "city": "Kali Kunda", "lon": "-14.5833333"}, {"lat": "13.7166667", "city": "Kambi", "lon": "-14.8"}, {"lat": "13.5666667", "city": "Kaolang", "lon": "-15.0666667"}, {"lat": "13.5833333", "city": "Kara", "lon": "-14.75"}, {"lat": "13.5833333", "city": "Karantaba Dutu Koto", "lon": "-14.5666667"}, {"lat": "13.55", "city": "Karantaba", "lon": "-14.5666667"}, {"lat": "13.5666667", "city": "Karantaba Tabokoto", "lon": "-14.5666667"}, {"lat": "13.55", "city": "Karantaba Tenda", "lon": "-14.5666667"}, {"lat": "13.55", "city": "Karantaba Tukulor", "lon": "-14.5666667"}, {"lat": "13.5666667", "city": "Karantaba Wolloff", "lon": "-14.5666667"}, {"lat": "13.5666667", "city": "Karantaba Woloff", "lon": "-14.5666667"}, {"lat": "13.7833333", "city": "Kas Malal Bah", "lon": "-14.9333333"}, {"lat": "13.7666667", "city": "Kas N'Jaibal", "lon": "-14.9333333"}, {"lat": "13.7833333", "city": "Kass", "lon": "-14.9333333"}, {"lat": "13.7833333", "city": "Kass Malal Bah", "lon": "-14.9333333"}, {"lat": "13.7666667", "city": "Kass N'Jaibal", "lon": "-14.9333333"}, {"lat": "13.7833333", "city": "Kass Perom", "lon": "-14.9333333"}, {"lat": "13.7833333", "city": "Kass Wollof", "lon": "-14.9333333"}, {"lat": "13.7833333", "city": "Kass Yallal", "lon": "-14.9"}, {"lat": "13.7833333", "city": "Kas Yallal", "lon": "-14.9"}, {"lat": "13.6833333", "city": "Kataba", "lon": "-14.8166667"}, {"lat": "13.6833333", "city": "Kataba Omar Ndow", "lon": "-14.8166667"}, {"lat": "13.6666667", "city": "Kataba Sering Kah", "lon": "-14.8"}, {"lat": "13.6833333", "city": "Kattaba", "lon": "-14.8166667"}, {"lat": "13.6", "city": "Kayainding", "lon": "-14.85"}, {"lat": "13.4833333", "city": "Ker Abdu", "lon": "-14.7"}, {"lat": "13.4666667", "city": "Keralima", "lon": "-14.4833333"}, {"lat": "13.8", "city": "Ker Bakary Salla", "lon": "-15.0"}, {"lat": "13.5833333", "city": "Kerewan Duto Koto", "lon": "-14.5666667"}, {"lat": "13.4", "city": "Kerewan", "lon": "-14.6"}, {"lat": "13.5166667", "city": "Kerewan Samba Sira", "lon": "-14.9"}, {"lat": "13.6333333", "city": "Ker N'Gaien", "lon": "-14.9166667"}, {"lat": "13.7166667", "city": "Ker Ngaien", "lon": "-14.9166667"}, {"lat": "13.7333333", "city": "Ker Niada", "lon": "-14.8166667"}, {"lat": "13.6166667", "city": "Ker Omar Dahor", "lon": "-15.0666667"}, {"lat": "13.6666667", "city": "Kerr Sait Maram", "lon": "-14.85"}, {"lat": "13.6166667", "city": "Ker Sait Maram", "lon": "-14.8333333"}, {"lat": "13.75", "city": "Ker Samba", "lon": "-15.05"}, {"lat": "13.7166667", "city": "Ker Samba Sowe", "lon": "-15.0166667"}, {"lat": "13.5166667", "city": "Kesereh", "lon": "-14.7333333"}, {"lat": "13.45", "city": "Kewal", "lon": "-14.7"}, {"lat": "13.45", "city": "Kewel", "lon": "-14.7"}, {"lat": "13.5166667", "city": "Khewal", "lon": "-14.8333333"}, {"lat": "13.6166667", "city": "Kiberi", "lon": "-14.7166667"}, {"lat": "13.4666667", "city": "Koli Kunda", "lon": "-14.5833333"}, {"lat": "13.5333333", "city": "Konko Fulla", "lon": "-14.8"}, {"lat": "13.55", "city": "Konkohdoma", "lon": "-14.7166667"}, {"lat": "13.7166667", "city": "Konko Koto", "lon": "-14.9166667"}, {"lat": "13.5833333", "city": "Kora", "lon": "-14.75"}, {"lat": "13.7666667", "city": "Kucha", "lon": "-15.0166667"}, {"lat": "13.6666667", "city": "Kudang", "lon": "-15.0666667"}, {"lat": "13.6666667", "city": "Kuiran", "lon": "-14.8333333"}, {"lat": "13.55", "city": "Kujew", "lon": "-14.7"}, {"lat": "13.6666667", "city": "Kulibanta", "lon": "-15.0"}, {"lat": "13.65", "city": "Kuntaur Fula Kunda", "lon": "-14.8666667"}, {"lat": "13.65", "city": "Kuntaur", "lon": "-14.8666667"}, {"lat": "13.5333333", "city": "Kunting", "lon": "-14.6666667"}, {"lat": "13.6666667", "city": "Kununku", "lon": "-15.0"}, {"lat": "13.4833333", "city": "Kur Kur Yoro Mballow", "lon": "-14.8833333"}, {"lat": "13.5", "city": "Kurop", "lon": "-14.7166667"}, {"lat": "13.5", "city": "Kurup", "lon": "-14.7166667"}, {"lat": "13.45", "city": "Kusalang", "lon": "-14.8666667"}, {"lat": "13.7666667", "city": "Kutcha", "lon": "-15.0166667"}, {"lat": "13.6666667", "city": "Kuyarang", "lon": "-14.8333333"}, {"lat": "13.4833333", "city": "Lama", "lon": "-14.8"}, {"lat": "13.55", "city": "Lamin Koto", "lon": "-14.7666667"}, {"lat": "13.55", "city": "Lamin", "lon": "-14.7666667"}, {"lat": "13.4333333", "city": "Lamoi", "lon": "-14.5833333"}, {"lat": "13.4166667", "city": "Larlagoi", "lon": "-14.5833333"}, {"lat": "13.3833333", "city": "Logo Moji", "lon": "-14.55"}, {"lat": "13.4166667", "city": "Mabali Kotor", "lon": "-14.6666667"}, {"lat": "13.4", "city": "Mabali Kuta", "lon": "-14.6666667"}, {"lat": "13.4833333", "city": "Madiana", "lon": "-14.5"}, {"lat": "13.4833333", "city": "Madina Alpha", "lon": "-14.8833333"}, {"lat": "13.4333333", "city": "Madina Demba", "lon": "-14.75"}, {"lat": "13.4", "city": "Madina Fula Balde", "lon": "-14.6333333"}, {"lat": "13.4833333", "city": "Madina Jawbeh", "lon": "-14.8666667"}, {"lat": "13.3666667", "city": "Madina", "lon": "-14.5333333"}, {"lat": "13.75", "city": "Madina N'Jaien", "lon": "-14.8833333"}, {"lat": "13.75", "city": "Madina Njaine", "lon": "-14.8833333"}, {"lat": "13.75", "city": "Madina N'Yang-en", "lon": "-14.9166667"}, {"lat": "13.5", "city": "Madina Sinchu Yoro", "lon": "-14.8666667"}, {"lat": "13.4333333", "city": "Madina Tujeng", "lon": "-14.75"}, {"lat": "13.4333333", "city": "Madina Tunjang", "lon": "-14.75"}, {"lat": "13.5333333", "city": "Madina Umfally", "lon": "-14.95"}, {"lat": "13.6", "city": "Madina Yoro Sowe", "lon": "-15.0166667"}, {"lat": "13.75", "city": "Maka Gui", "lon": "-14.9"}, {"lat": "13.7", "city": "Maka", "lon": "-14.8833333"}, {"lat": "13.4333333", "city": "Manda", "lon": "-14.7833333"}, {"lat": "13.5333333", "city": "Mandingo", "lon": "-14.55"}, {"lat": "13.7166667", "city": "Mangiumba", "lon": "-14.9333333"}, {"lat": "13.5", "city": "Mankajang", "lon": "-14.8666667"}, {"lat": "13.5333333", "city": "Manna", "lon": "-14.95"}, {"lat": "13.5166667", "city": "Mara Magai", "lon": "-14.9166667"}, {"lat": "13.4333333", "city": "Massembe Chandere", "lon": "-14.7666667"}, {"lat": "13.6333333", "city": "Maundeh Kunda", "lon": "-15.0333333"}, {"lat": "13.7166667", "city": "M'Baien Fulla", "lon": "-14.8166667"}, {"lat": "13.7333333", "city": "Mbaien Sara Kumba Kah", "lon": "-14.8"}, {"lat": "13.7333333", "city": "Mbaien Wollof", "lon": "-14.8166667"}, {"lat": "13.4833333", "city": "Mban", "lon": "-14.75"}, {"lat": "13.75", "city": "Mbaro", "lon": "-15.0166667"}, {"lat": "13.5833333", "city": "M'Bawarr", "lon": "-14.6"}, {"lat": "13.6166667", "city": "Mbol Bouk", "lon": "-14.8"}, {"lat": "13.45", "city": "Mbul Manda", "lon": "-14.8"}, {"lat": "13.45", "city": "Medina", "lon": "-14.4833333"}, {"lat": "13.45", "city": "Mesaith Sayan", "lon": "-14.5833333"}, {"lat": "13.4", "city": "Misera", "lon": "-14.6666667"}, {"lat": "13.55", "city": "Misira", "lon": "-14.95"}, {"lat": "13.6166667", "city": "Misira Toben", "lon": "-15.0666667"}, {"lat": "13.5333333", "city": "Missira Mbaien", "lon": "-14.9166667"}, {"lat": "13.6166667", "city": "Missira Ngain Tanu", "lon": "-14.7666667"}, {"lat": "13.3666667", "city": "Mundong", "lon": "-14.5666667"}, {"lat": "13.4833333", "city": "Muritabeh", "lon": "-14.8166667"}, {"lat": "13.7166667", "city": "N'Baien", "lon": "-14.8166667"}, {"lat": "13.3833333", "city": "N'Dorna", "lon": "-14.55"}, {"lat": "13.6666667", "city": "N'Dorrna", "lon": "-14.9666667"}, {"lat": "13.65", "city": "Nema Kunda", "lon": "-14.8333333"}, {"lat": "13.5333333", "city": "Nema", "lon": "-14.8166667"}, {"lat": "13.4166667", "city": "Nemataba", "lon": "-14.5833333"}, {"lat": "13.7666667", "city": "N'Gaien", "lon": "-15.0333333"}, {"lat": "13.45", "city": "N'Gale Kunda", "lon": "-14.55"}, {"lat": "13.4", "city": "Ngayene", "lon": "-14.7333333"}, {"lat": "13.4", "city": "N'Gayen", "lon": "-14.7333333"}, {"lat": "13.6166667", "city": "Niahen", "lon": "-14.8"}, {"lat": "13.75", "city": "Niakoi", "lon": "-14.9"}, {"lat": "13.7833333", "city": "Nianga", "lon": "-15.0166667"}, {"lat": "13.7833333", "city": "Nianha", "lon": "-15.0166667"}, {"lat": "13.5", "city": "Niani Baia", "lon": "-14.5"}, {"lat": "13.7833333", "city": "Niani Bantang", "lon": "-15.0166667"}, {"lat": "13.7", "city": "Niani Marigo", "lon": "-15.0"}, {"lat": "13.7", "city": "Niani Maro", "lon": "-15.0"}, {"lat": "13.7", "city": "Niani Maru", "lon": "-15.0"}, {"lat": "13.4333333", "city": "Nibras", "lon": "-14.6"}, {"lat": "13.7833333", "city": "Nioro Demba Njie", "lon": "-15.0333333"}, {"lat": "13.4833333", "city": "Njai Kunda", "lon": "-14.8"}, {"lat": "13.6166667", "city": "N'Jalal", "lon": "-14.5"}, {"lat": "13.6166667", "city": "N'Jalal Pole", "lon": "-14.5333333"}, {"lat": "13.6", "city": "Njalal Tukulor", "lon": "-14.55"}, {"lat": "13.6166667", "city": "Njallal", "lon": "-14.5"}, {"lat": "13.4333333", "city": "N'Jameng Kunda", "lon": "-14.5833333"}, {"lat": "13.4333333", "city": "N'Jareng Kunda", "lon": "-14.5833333"}, {"lat": "13.45", "city": "Njie Kunda", "lon": "-14.4833333"}, {"lat": "13.7833333", "city": "N'Joben Fula", "lon": "-14.9666667"}, {"lat": "13.35", "city": "N'Joben", "lon": "-14.6833333"}, {"lat": "13.4833333", "city": "Njoben", "lon": "-14.95"}, {"lat": "13.7833333", "city": "N'Joben", "lon": "-14.9666667"}, {"lat": "13.7833333", "city": "Njoben Tukulor", "lon": "-14.9666667"}, {"lat": "13.7833333", "city": "Njoben Wollof", "lon": "-14.9666667"}, {"lat": "13.35", "city": "N'Joren", "lon": "-14.6333333"}, {"lat": "13.7833333", "city": "Nyanga Bantang", "lon": "-15.0166667"}, {"lat": "13.7833333", "city": "Nyangan", "lon": "-14.9833333"}, {"lat": "13.7833333", "city": "N'Yang-en Baba N'Yang", "lon": "-14.9833333"}, {"lat": "13.7833333", "city": "N'Yang-en", "lon": "-14.9833333"}, {"lat": "13.5333333", "city": "Old Fort George", "lon": "-14.7666667"}, {"lat": "13.5", "city": "Pachari Konoh Ba", "lon": "-14.8333333"}, {"lat": "13.5", "city": "Pachari Sana", "lon": "-14.85"}, {"lat": "13.6666667", "city": "Pallan Mandinka", "lon": "-14.8666667"}, {"lat": "13.6666667", "city": "Pallan", "lon": "-14.8666667"}, {"lat": "13.6666667", "city": "Pallan Toranka", "lon": "-14.85"}, {"lat": "13.7666667", "city": "Pallol", "lon": "-14.8666667"}, {"lat": "13.7666667", "city": "Pallol Pol Ollof", "lon": "-14.8666667"}, {"lat": "13.5", "city": "Panchari Sana", "lon": "-14.85"}, {"lat": "13.5", "city": "Patchari", "lon": "-14.8333333"}, {"lat": "13.5", "city": "Patchari Sana", "lon": "-14.85"}, {"lat": "13.6166667", "city": "Pateh Sam", "lon": "-15.0666667"}, {"lat": "13.6166667", "city": "Pate", "lon": "-15.0666667"}, {"lat": "13.7666667", "city": "Ramatulai", "lon": "-14.9833333"}, {"lat": "13.7666667", "city": "Ramatulie", "lon": "-14.9833333"}, {"lat": "13.6333333", "city": "Renerru", "lon": "-14.55"}, {"lat": "13.6333333", "city": "Runeru", "lon": "-14.55"}, {"lat": "13.35", "city": "Sabari", "lon": "-14.5333333"}, {"lat": "13.5", "city": "Sabu Sirae", "lon": "-14.8833333"}, {"lat": "13.5", "city": "Sabu Sirde", "lon": "-14.8833333"}, {"lat": "13.7166667", "city": "Safalu", "lon": "-14.9833333"}, {"lat": "13.5833333", "city": "Salikeni", "lon": "-14.8333333"}, {"lat": "13.5166667", "city": "Sambai Kunda", "lon": "-14.6666667"}, {"lat": "13.7833333", "city": "Samba N'Yang", "lon": "-14.9333333"}, {"lat": "13.7166667", "city": "Samba So", "lon": "-15.0166667"}, {"lat": "13.5166667", "city": "Samba Tako", "lon": "-14.6"}, {"lat": "13.6666667", "city": "Sambel Kunda", "lon": "-14.9833333"}, {"lat": "13.5333333", "city": "Sam\u00e9", "lon": "-14.4666667"}, {"lat": "13.6166667", "city": "Sami Fati", "lon": "-14.6333333"}, {"lat": "13.55", "city": "Sami Madina", "lon": "-14.4833333"}, {"lat": "13.5333333", "city": "Sami Omar Jula", "lon": "-14.4666667"}, {"lat": "13.55", "city": "Sami Pachonki", "lon": "-14.5166667"}, {"lat": "13.5333333", "city": "Sami", "lon": "-14.4666667"}, {"lat": "13.55", "city": "Sami Surwa Kunda", "lon": "-14.4833333"}, {"lat": "13.5166667", "city": "Sami Wharf Town", "lon": "-14.4666667"}, {"lat": "13.45", "city": "Sam Ngaien", "lon": "-14.7833333"}, {"lat": "13.35", "city": "Sanchabari", "lon": "-14.6333333"}, {"lat": "13.6833333", "city": "Sanda", "lon": "-14.8"}, {"lat": "13.7166667", "city": "Sanguleh", "lon": "-14.9833333"}, {"lat": "13.5333333", "city": "Sankulejang", "lon": "-14.8"}, {"lat": "13.5166667", "city": "Sankuli Kunda", "lon": "-14.7666667"}, {"lat": "13.3666667", "city": "Santanto Bubu Tabanding", "lon": "-14.5666667"}, {"lat": "13.3666667", "city": "Santanto Jamuya Kande", "lon": "-14.55"}, {"lat": "13.3833333", "city": "Santanto-Koto", "lon": "-14.5333333"}, {"lat": "13.3833333", "city": "Santanto Kuta", "lon": "-14.5333333"}, {"lat": "13.3666667", "city": "Santanto Mawdo Bambe", "lon": "-14.5666667"}, {"lat": "13.3833333", "city": "Santanto Omar Kande", "lon": "-14.5666667"}, {"lat": "13.3833333", "city": "Santanto Serifu M'Balo", "lon": "-14.5333333"}, {"lat": "13.3666667", "city": "Santanto Yoba Jallow", "lon": "-14.5666667"}, {"lat": "13.55", "city": "Sapu", "lon": "-14.9"}, {"lat": "13.35", "city": "Sara Debo", "lon": "-14.65"}, {"lat": "13.5", "city": "Sare Abdou", "lon": "-14.9833333"}, {"lat": "13.45", "city": "Sare Adama", "lon": "-14.8833333"}, {"lat": "13.45", "city": "Sare Ali", "lon": "-14.55"}, {"lat": "13.3166667", "city": "Sare Amady Jabel", "lon": "-14.55"}, {"lat": "13.3166667", "city": "Sare Amady Jebel", "lon": "-14.55"}, {"lat": "13.4833333", "city": "Sare Babu Jimby", "lon": "-14.8833333"}, {"lat": "13.4", "city": "Sare Bakare Demba", "lon": "-14.6"}, {"lat": "13.4", "city": "Sare Bakary Demba", "lon": "-14.6"}, {"lat": "13.4666667", "city": "Sare Balla", "lon": "-14.85"}, {"lat": "13.4666667", "city": "Sare Boutie", "lon": "-14.9"}, {"lat": "13.35", "city": "Sare Dadi", "lon": "-14.6833333"}, {"lat": "13.35", "city": "Sare Debo", "lon": "-14.65"}, {"lat": "13.5333333", "city": "Sare Duto", "lon": "-14.5833333"}, {"lat": "13.4833333", "city": "Sare Fally", "lon": "-14.8166667"}, {"lat": "13.5", "city": "Sare Fosary", "lon": "-14.8166667"}, {"lat": "13.4833333", "city": "Sare Futa", "lon": "-14.8833333"}, {"lat": "13.4166667", "city": "Sare Goral Bah", "lon": "-14.5833333"}, {"lat": "13.3833333", "city": "Sare Jabel", "lon": "-14.7"}, {"lat": "13.4333333", "city": "Sare Jarje", "lon": "-14.5333333"}, {"lat": "13.55", "city": "Sare Jideh", "lon": "-14.7166667"}, {"lat": "13.3833333", "city": "Sare Jide", "lon": "-14.6333333"}, {"lat": "13.3666667", "city": "Sare Kanaman", "lon": "-14.7"}, {"lat": "13.4666667", "city": "Sare Kannen", "lon": "-14.85"}, {"lat": "13.3666667", "city": "Sare Kinte", "lon": "-14.6666667"}, {"lat": "13.5333333", "city": "Sare Louba", "lon": "-15.0333333"}, {"lat": "13.4", "city": "Sare Madi", "lon": "-14.6833333"}, {"lat": "13.55", "city": "Sare Malang", "lon": "-15.0166667"}, {"lat": "13.4166667", "city": "Sare Malik", "lon": "-14.7"}, {"lat": "13.45", "city": "Sare Maundeh", "lon": "-14.8666667"}, {"lat": "13.3833333", "city": "Sare M'Bunka", "lon": "-14.6833333"}, {"lat": "13.3833333", "city": "Sare Modu Bah", "lon": "-14.6"}, {"lat": "13.45", "city": "Sare Mowdeh", "lon": "-14.8666667"}, {"lat": "13.4833333", "city": "Sare Naba", "lon": "-14.8"}, {"lat": "13.4666667", "city": "Sare Ngai", "lon": "-14.8333333"}, {"lat": "13.5", "city": "Sare Njagga", "lon": "-14.8166667"}, {"lat": "13.3833333", "city": "Sare N'Jobo", "lon": "-14.6833333"}, {"lat": "13.6166667", "city": "Sare Nyagna", "lon": "-14.8"}, {"lat": "13.35", "city": "Sare Pate", "lon": "-14.6666667"}, {"lat": "13.5", "city": "Sare Ram", "lon": "-14.9333333"}, {"lat": "13.45", "city": "Sare Sabo", "lon": "-14.5666667"}, {"lat": "13.6166667", "city": "Sare Samba Kah", "lon": "-14.8"}, {"lat": "13.6166667", "city": "Sare Samba Ngai", "lon": "-14.55"}, {"lat": "13.45", "city": "Sare Sambaro", "lon": "-14.7833333"}, {"lat": "13.6", "city": "Sare Samba", "lon": "-15.0333333"}, {"lat": "13.6", "city": "Sare Samba Sumaleh", "lon": "-15.0333333"}, {"lat": "13.4166667", "city": "Sare Samba Taku", "lon": "-14.6"}, {"lat": "13.4833333", "city": "Sare Sambuldu", "lon": "-14.8"}, {"lat": "13.6333333", "city": "Sare Saoma", "lon": "-14.65"}, {"lat": "13.6333333", "city": "Sare Saouma", "lon": "-14.65"}, {"lat": "13.4166667", "city": "Sare Sofi", "lon": "-14.5166667"}, {"lat": "13.4833333", "city": "Sare Yewtu", "lon": "-14.8833333"}, {"lat": "13.5166667", "city": "Sare Yora Beri", "lon": "-14.7333333"}, {"lat": "13.5166667", "city": "Sare Yoro Beri", "lon": "-14.7333333"}, {"lat": "13.45", "city": "Sare Yoro Buka", "lon": "-14.85"}, {"lat": "13.3833333", "city": "Sare Yoro Egge", "lon": "-14.6333333"}, {"lat": "13.4", "city": "Sare Yoro Golori", "lon": "-14.6"}, {"lat": "13.4666667", "city": "Sare Yoro", "lon": "-14.8666667"}, {"lat": "13.4666667", "city": "Sare Yoro Taker", "lon": "-14.8666667"}, {"lat": "13.4666667", "city": "Sare Yoro Takor", "lon": "-14.8666667"}, {"lat": "13.4666667", "city": "Sare Yoro Tako", "lon": "-14.85"}, {"lat": "13.35", "city": "Sare Yoro Yeli", "lon": "-14.5333333"}, {"lat": "13.55", "city": "Saruja", "lon": "-14.9166667"}, {"lat": "13.45", "city": "Sawadi Kunda", "lon": "-14.55"}, {"lat": "13.4666667", "city": "Seleri Kunda", "lon": "-14.5833333"}, {"lat": "13.55", "city": "Sepu", "lon": "-14.9"}, {"lat": "13.45", "city": "Sering Sahor", "lon": "-14.8333333"}, {"lat": "13.45", "city": "Sering Saho", "lon": "-14.8333333"}, {"lat": "13.5333333", "city": "Sibanor", "lon": "-14.9166667"}, {"lat": "13.4666667", "city": "Sileria", "lon": "-14.5833333"}, {"lat": "13.4666667", "city": "Sileri Ba", "lon": "-14.5833333"}, {"lat": "13.6", "city": "Sinchu Alpha Saine", "lon": "-15.0333333"}, {"lat": "13.6", "city": "Sinchu Alpha Sain", "lon": "-15.0333333"}, {"lat": "13.4666667", "city": "Sinchu Bachi", "lon": "-14.8333333"}, {"lat": "13.6", "city": "Sinchu Balla", "lon": "-15.0333333"}, {"lat": "13.5333333", "city": "Sinchu Bamba", "lon": "-14.9166667"}, {"lat": "13.4833333", "city": "Sinchu Boggal", "lon": "-14.8333333"}, {"lat": "13.5", "city": "Sinchu Bora", "lon": "-14.8333333"}, {"lat": "13.45", "city": "Sinchu Chamalel", "lon": "-14.7666667"}, {"lat": "13.4666667", "city": "Sinchu Danku", "lon": "-14.8166667"}, {"lat": "13.5", "city": "Sinchu Dembel", "lon": "-14.8833333"}, {"lat": "13.7166667", "city": "Sinchu Dumbe", "lon": "-14.9833333"}, {"lat": "13.6666667", "city": "Sinchu Garba", "lon": "-14.8333333"}, {"lat": "13.6666667", "city": "Sinchu Garber", "lon": "-14.8333333"}, {"lat": "13.6666667", "city": "Sinchu Garrba", "lon": "-14.8333333"}, {"lat": "13.6166667", "city": "Sinchu Gundo", "lon": "-15.0333333"}, {"lat": "13.45", "city": "Sinchu Jajeh Sagnia", "lon": "-14.85"}, {"lat": "13.7", "city": "Sinchu Jenun Touray", "lon": "-14.9"}, {"lat": "13.45", "city": "Sinchu Kusalang", "lon": "-14.8666667"}, {"lat": "13.6333333", "city": "Sinchu Musa", "lon": "-14.65"}, {"lat": "13.45", "city": "Sinchu Omar See", "lon": "-14.85"}, {"lat": "13.6166667", "city": "Sinchu Ousman", "lon": "-14.55"}, {"lat": "13.45", "city": "Sinchu Samba Koumbel", "lon": "-14.8666667"}, {"lat": "13.6666667", "city": "Sintchi Kattaba", "lon": "-14.8166667"}, {"lat": "13.4166667", "city": "Sofi Kunda", "lon": "-14.5166667"}, {"lat": "13.45", "city": "Sololo", "lon": "-14.6666667"}, {"lat": "13.5333333", "city": "Sukur", "lon": "-14.95"}, {"lat": "13.5", "city": "Sukuta", "lon": "-14.6"}, {"lat": "13.6166667", "city": "Sukutta", "lon": "-14.9166667"}, {"lat": "13.45", "city": "Sulolor Fula Kunda", "lon": "-14.6833333"}, {"lat": "13.45", "city": "Sulolor", "lon": "-14.6666667"}, {"lat": "13.5333333", "city": "Taba Nani", "lon": "-14.8166667"}, {"lat": "13.6333333", "city": "Tabanani", "lon": "-14.5833333"}, {"lat": "13.4833333", "city": "Taba Nding", "lon": "-14.9333333"}, {"lat": "13.5333333", "city": "Tabba Nanna", "lon": "-14.8166667"}, {"lat": "13.5333333", "city": "Tabba Nanni", "lon": "-14.8166667"}, {"lat": "13.4666667", "city": "Taiba", "lon": "-14.9"}, {"lat": "13.75", "city": "Taibatu N'Yang-en", "lon": "-14.95"}, {"lat": "13.4666667", "city": "Taifa Amadou", "lon": "-14.9"}, {"lat": "13.5", "city": "Taifa Seekou", "lon": "-14.8833333"}, {"lat": "13.6333333", "city": "Taimang", "lon": "-15.0666667"}, {"lat": "13.4166667", "city": "Tamanso Kunda", "lon": "-14.6333333"}, {"lat": "13.5333333", "city": "Tandi Kunda", "lon": "-14.55"}, {"lat": "13.3666667", "city": "Tandi", "lon": "-14.6166667"}, {"lat": "13.5166667", "city": "Tandi Wolloff", "lon": "-14.55"}, {"lat": "13.5166667", "city": "Tandi Wollof", "lon": "-14.55"}, {"lat": "13.5", "city": "Tankong Kunda", "lon": "-14.65"}, {"lat": "13.5", "city": "Tankon Kunda", "lon": "-14.65"}, {"lat": "13.5666667", "city": "Tasali", "lon": "-14.6166667"}, {"lat": "13.5666667", "city": "Tasili", "lon": "-14.6166667"}, {"lat": "13.6", "city": "Temanto", "lon": "-15.0333333"}, {"lat": "13.5333333", "city": "Tende", "lon": "-14.55"}, {"lat": "13.6166667", "city": "Tenenfara", "lon": "-15.0166667"}, {"lat": "13.6166667", "city": "Teneng Fara", "lon": "-15.0166667"}, {"lat": "13.6166667", "city": "Timpa", "lon": "-14.6333333"}, {"lat": "13.75", "city": "Toben", "lon": "-14.85"}, {"lat": "13.6666667", "city": "Tuba Demba Sama", "lon": "-14.9833333"}, {"lat": "13.6333333", "city": "Tuba Koto", "lon": "-14.9"}, {"lat": "13.65", "city": "Tuba Kuta", "lon": "-14.8833333"}, {"lat": "13.4", "city": "Tuba Ousman Boye", "lon": "-14.75"}, {"lat": "13.4666667", "city": "Tuba", "lon": "-14.6833333"}, {"lat": "13.5333333", "city": "Tumani Fati", "lon": "-14.8"}, {"lat": "13.5333333", "city": "Wakilarr", "lon": "-14.55"}, {"lat": "13.5666667", "city": "Walli Kunda", "lon": "-14.9166667"}, {"lat": "13.6833333", "city": "Wassu", "lon": "-14.8833333"}, {"lat": "13.45", "city": "Wellingara Adama", "lon": "-14.8833333"}, {"lat": "13.45", "city": "Wellingara Galo", "lon": "-14.7833333"}, {"lat": "13.6333333", "city": "Wellingara", "lon": "-15.0333333"}, {"lat": "13.5", "city": "Wellingara Yoro", "lon": "-14.8"}, {"lat": "13.55", "city": "Willingara Kejaw", "lon": "-14.9333333"}, {"lat": "13.35", "city": "Willingara", "lon": "-14.65"}, {"lat": "13.7", "city": "Woi Buray", "lon": "-14.8166667"}, {"lat": "13.6666667", "city": "Yida", "lon": "-14.9333333"}, {"lat": "13.5333333", "city": "Yonah", "lon": "-14.6833333"}, {"lat": "13.5333333", "city": "Yona", "lon": "-14.6833333"}, {"lat": "13.5", "city": "Yoro Beri Kunda", "lon": "-14.75"}], "01": [{"lat": "13.4530556", "city": "Banjul", "lon": "-16.5775"}, {"lat": "13.4530556", "city": "Bathurst", "lon": "-16.5775"}], "07": [{"lat": "13.5333333", "city": "Alhaji Bajonkoto", "lon": "-15.8166667"}, {"lat": "13.5333333", "city": "Alicali Kunda", "lon": "-15.7333333"}, {"lat": "13.5333333", "city": "Alical Kunda", "lon": "-15.7333333"}, {"lat": "13.5666667", "city": "Baien", "lon": "-16.05"}, {"lat": "13.5044444", "city": "Bakang", "lon": "-16.1444444"}, {"lat": "13.5675", "city": "Bali", "lon": "-16.1172222"}, {"lat": "13.59", "city": "Bali Hali Hawah", "lon": "-16.1116667"}, {"lat": "13.59", "city": "Bali Hali Howeh", "lon": "-16.1116667"}, {"lat": "13.5675", "city": "Balli", "lon": "-16.1172222"}, {"lat": "13.5213889", "city": "Banni", "lon": "-16.0069444"}, {"lat": "13.5833333", "city": "Banta Killi", "lon": "-15.7"}, {"lat": "13.5833333", "city": "Bantang Killing", "lon": "-15.7"}, {"lat": "13.5333333", "city": "Baria", "lon": "-16.1333333"}, {"lat": "13.4827778", "city": "Barra", "lon": "-16.5455556"}, {"lat": "13.5333333", "city": "Barria", "lon": "-16.1333333"}, {"lat": "13.1738889", "city": "Bassen", "lon": "-16.2752778"}, {"lat": "13.2566667", "city": "Batending", "lon": "-16.3177778"}, {"lat": "13.2566667", "city": "Batending Kajara", "lon": "-16.3177778"}, {"lat": "13.2566667", "city": "Battending", "lon": "-16.3177778"}, {"lat": "13.1905556", "city": "Beeta", "lon": "-16.2875"}, {"lat": "13.1905556", "city": "Beeta Bukafungi", "lon": "-16.2875"}, {"lat": "13.1952778", "city": "Bessi", "lon": "-16.3619444"}, {"lat": "13.5833333", "city": "Biram Giddo Ya", "lon": "-15.85"}, {"lat": "13.5833333", "city": "Biram Kardo Ya", "lon": "-15.85"}, {"lat": "13.5833333", "city": "Biram Kunda", "lon": "-15.7833333"}, {"lat": "13.5833333", "city": "Birong Kunda", "lon": "-15.7833333"}, {"lat": "13.1905556", "city": "Bita", "lon": "-16.2875"}, {"lat": "13.2566667", "city": "Bottending", "lon": "-16.3177778"}, {"lat": "13.5833333", "city": "Brikama", "lon": "-15.8833333"}, {"lat": "13.2", "city": "Bukafungi", "lon": "-16.2833333"}, {"lat": "13.2666667", "city": "Bulangor", "lon": "-16.2666667"}, {"lat": "13.2666667", "city": "Bulanjor", "lon": "-16.2666667"}, {"lat": "13.5666667", "city": "Burang Ya", "lon": "-15.85"}, {"lat": "13.5833333", "city": "Chamaya", "lon": "-15.8333333"}, {"lat": "13.55", "city": "Chamen", "lon": "-15.6833333"}, {"lat": "13.5833333", "city": "Cheedi Laibe Ya", "lon": "-15.85"}, {"lat": "13.5833333", "city": "Cheedy Wollof", "lon": "-15.85"}, {"lat": "13.55", "city": "Dai", "lon": "-15.8166667"}, {"lat": "13.55", "city": "Dai Mandinka", "lon": "-15.8166667"}, {"lat": "13.5305556", "city": "Darsilami", "lon": "-16.1363889"}, {"lat": "13.5919444", "city": "Daru", "lon": "-16.0183333"}, {"lat": "13.55", "city": "Darule Barakatu", "lon": "-15.7166667"}, {"lat": "13.5936111", "city": "Daru Lohen", "lon": "-16.1322222"}, {"lat": "13.55", "city": "Daru Rilwan", "lon": "-15.9833333"}, {"lat": "13.5277778", "city": "Darusalam", "lon": "-16.0808333"}, {"lat": "13.5305556", "city": "Dasalami", "lon": "-16.1363889"}, {"lat": "13.5305556", "city": "Dasilami", "lon": "-16.1363889"}, {"lat": "13.2077778", "city": "Demban", "lon": "-16.3452778"}, {"lat": "13.55", "city": "Dobo", "lon": "-15.9666667"}, {"lat": "13.5652778", "city": "Drame Joka", "lon": "-16.1577778"}, {"lat": "13.5652778", "city": "Drame Joku", "lon": "-16.1577778"}, {"lat": "13.25", "city": "Eloi", "lon": "-16.2672222"}, {"lat": "13.25", "city": "Elol", "lon": "-16.2672222"}, {"lat": "13.4838889", "city": "Essau", "lon": "-16.5347222"}, {"lat": "13.55", "city": "Famori", "lon": "-16.0833333"}, {"lat": "13.5883333", "city": "Fody Biran", "lon": "-16.0091667"}, {"lat": "13.5833333", "city": "Gallo Ya", "lon": "-15.8"}, {"lat": "13.1827778", "city": "Gikis", "lon": "-16.2822222"}, {"lat": "13.5813889", "city": "Ginak Kajata", "lon": "-16.5275"}, {"lat": "13.5744444", "city": "Ginak Niji", "lon": "-16.525"}, {"lat": "13.5227778", "city": "Gunjur", "lon": "-16.0277778"}, {"lat": "13.5630556", "city": "Hamdalai", "lon": "-16.0225"}, {"lat": "13.5666667", "city": "Illiassa", "lon": "-15.75"}, {"lat": "13.5666667", "city": "India Baddibu", "lon": "-15.75"}, {"lat": "13.5666667", "city": "India", "lon": "-15.75"}, {"lat": "13.1916667", "city": "Jagel", "lon": "-16.3688889"}, {"lat": "13.5333333", "city": "Jago", "lon": "-16.2"}, {"lat": "13.5833333", "city": "Jahajan", "lon": "-15.75"}, {"lat": "13.5833333", "city": "Jahajari", "lon": "-15.75"}, {"lat": "13.5833333", "city": "Jakadia", "lon": "-15.75"}, {"lat": "13.2333333", "city": "Jakoi", "lon": "-16.3"}, {"lat": "13.2708333", "city": "Jakoi Sibrik", "lon": "-16.2922222"}, {"lat": "13.55", "city": "Jalaba", "lon": "-15.7"}, {"lat": "13.205", "city": "Jalakoto", "lon": "-16.2886111"}, {"lat": "13.5666667", "city": "Jali Kunda", "lon": "-15.85"}, {"lat": "13.55", "city": "Jally Kunda", "lon": "-15.75"}, {"lat": "13.5", "city": "Jammeh Kunda", "lon": "-16.0"}, {"lat": "13.5", "city": "Jammi Kunda", "lon": "-16.0"}, {"lat": "13.1677778", "city": "Jana Kuyel", "lon": "-16.2677778"}, {"lat": "13.1961111", "city": "Jarju Kunda", "lon": "-16.3444444"}, {"lat": "13.2308333", "city": "Jarlang", "lon": "-16.2783333"}, {"lat": "13.5833333", "city": "Jeriko", "lon": "-15.6666667"}, {"lat": "13.4847222", "city": "Jiffet", "lon": "-16.5013889"}, {"lat": "13.5813889", "city": "Jinak", "lon": "-16.5275"}, {"lat": "13.5333333", "city": "Jirong", "lon": "-15.7"}, {"lat": "13.5333333", "city": "Jirrong", "lon": "-15.7"}, {"lat": "13.5736111", "city": "Jissa", "lon": "-16.2088889"}, {"lat": "13.5766667", "city": "Jowara", "lon": "-16.08"}, {"lat": "13.5333333", "city": "Jumansari", "lon": "-15.75"}, {"lat": "13.5", "city": "Jumansari Korto", "lon": "-15.7333333"}, {"lat": "13.5", "city": "Jumansari Koto", "lon": "-15.7333333"}, {"lat": "13.2069444", "city": "Kabokor", "lon": "-16.2708333"}, {"lat": "13.2077778", "city": "Kaie", "lon": "-16.3452778"}, {"lat": "13.25", "city": "Kaijara", "lon": "-16.3166667"}, {"lat": "13.1702778", "city": "Kajabina", "lon": "-16.3225"}, {"lat": "13.5813889", "city": "Kajata", "lon": "-16.5275"}, {"lat": "13.245", "city": "Kandong", "lon": "-16.3136111"}, {"lat": "13.245", "city": "Kandonk", "lon": "-16.3136111"}, {"lat": "13.1702778", "city": "Kanjabina", "lon": "-16.3225"}, {"lat": "13.2305556", "city": "Kanuma", "lon": "-16.2733333"}, {"lat": "13.5038889", "city": "Karantaba", "lon": "-16.1486111"}, {"lat": "13.5", "city": "Kashan", "lon": "-15.75"}, {"lat": "13.2269444", "city": "Kasila", "lon": "-16.2752778"}, {"lat": "13.5", "city": "Katchang", "lon": "-15.75"}, {"lat": "13.4833333", "city": "Katchang Tenda", "lon": "-15.7666667"}, {"lat": "13.1780556", "city": "Kaur", "lon": "-16.3461111"}, {"lat": "13.5666667", "city": "Kekuta Kunda", "lon": "-15.85"}, {"lat": "13.5788889", "city": "Ker Ardo", "lon": "-16.0463889"}, {"lat": "13.5766667", "city": "Ker Banno", "lon": "-16.04"}, {"lat": "13.5833333", "city": "Ker Batram Yasin", "lon": "-16.0"}, {"lat": "13.5833333", "city": "Ker Biram Kardo", "lon": "-15.9"}, {"lat": "13.5833333", "city": "Ker Biram Yasin", "lon": "-16.0"}, {"lat": "13.5833333", "city": "Ker Biram Yassin", "lon": "-16.0"}, {"lat": "13.4894444", "city": "Kerevane", "lon": "-16.0911111"}, {"lat": "13.4894444", "city": "Kerewan", "lon": "-16.0911111"}, {"lat": "13.5666667", "city": "Ker Famara", "lon": "-16.0166667"}, {"lat": "13.5833333", "city": "Ker Geryado", "lon": "-16.1833333"}, {"lat": "13.5833333", "city": "Ker Gumalo", "lon": "-15.8666667"}, {"lat": "13.5788889", "city": "Ker Hardo", "lon": "-16.0463889"}, {"lat": "13.5833333", "city": "Ker Illo Buya", "lon": "-15.9"}, {"lat": "13.5388889", "city": "Ker Jarga", "lon": "-16.2044444"}, {"lat": "13.5833333", "city": "Ker Jawbe", "lon": "-15.9166667"}, {"lat": "13.5833333", "city": "Ker Kalim", "lon": "-15.8833333"}, {"lat": "13.5833333", "city": "Ker Katim", "lon": "-15.8833333"}, {"lat": "13.5833333", "city": "Ker Lelly", "lon": "-15.8"}, {"lat": "13.5794444", "city": "Ker Majojo", "lon": "-16.16"}, {"lat": "13.5833333", "city": "Ker Mari", "lon": "-15.9"}, {"lat": "13.5794444", "city": "Ker Marjow", "lon": "-16.16"}, {"lat": "13.5833333", "city": "Ker Mata Jeme", "lon": "-16.0"}, {"lat": "13.5833333", "city": "Ker Modi Teddy", "lon": "-15.9666667"}, {"lat": "13.5555556", "city": "Ker N'Gor", "lon": "-16.2422222"}, {"lat": "13.5788889", "city": "Ker Omar Saine", "lon": "-16.2238889"}, {"lat": "13.5833333", "city": "Ker Pate Kore", "lon": "-15.9666667"}, {"lat": "13.5833333", "city": "Ker Samba", "lon": "-15.9333333"}, {"lat": "13.5833333", "city": "Ker Samba Kumda", "lon": "-15.9"}, {"lat": "13.5833333", "city": "Ker Samba Sow", "lon": "-15.9"}, {"lat": "13.5666667", "city": "Ker Shikh Taal", "lon": "-15.9833333"}, {"lat": "13.5333333", "city": "Ker Silla", "lon": "-15.9833333"}, {"lat": "13.5666667", "city": "Ket Kuli", "lon": "-15.8833333"}, {"lat": "13.5833333", "city": "Kidi Kunda", "lon": "-15.85"}, {"lat": "13.5072222", "city": "Kinteh Kunda", "lon": "-16.0672222"}, {"lat": "13.5072222", "city": "Kinti Kunda", "lon": "-16.0672222"}, {"lat": "13.5666667", "city": "Konti Kunda", "lon": "-15.8"}, {"lat": "13.5666667", "city": "Konti Kunda Niji", "lon": "-15.7833333"}, {"lat": "13.5666667", "city": "Konti Kunda Sukoto", "lon": "-15.8"}, {"lat": "13.5227778", "city": "Kungeru", "lon": "-16.0277778"}, {"lat": "13.5363889", "city": "Kuntair", "lon": "-16.2244444"}, {"lat": "13.5833333", "city": "Laliya", "lon": "-15.8666667"}, {"lat": "13.1833333", "city": "Lumang", "lon": "-16.25"}, {"lat": "13.5833333", "city": "Madi", "lon": "-15.8833333"}, {"lat": "13.25", "city": "Madina", "lon": "-16.3166667"}, {"lat": "13.5833333", "city": "Maidi", "lon": "-15.95"}, {"lat": "13.1916667", "city": "Maimeh", "lon": "-16.3458333"}, {"lat": "13.5666667", "city": "Majama Kunda", "lon": "-15.85"}, {"lat": "13.5", "city": "Mandori", "lon": "-15.9333333"}, {"lat": "13.5333333", "city": "Marrong Kunda", "lon": "-15.9166667"}, {"lat": "13.4941667", "city": "Mayamba", "lon": "-16.5169444"}, {"lat": "13.5816667", "city": "Mbamori Kunda", "lon": "-16.0036111"}, {"lat": "13.5441667", "city": "MBangkama", "lon": "-16.5055556"}, {"lat": "13.5441667", "city": "M'Bengkama", "lon": "-16.5055556"}, {"lat": "13.5166667", "city": "M'Bolett", "lon": "-16.5"}, {"lat": "13.5166667", "city": "Mbollet Bah", "lon": "-16.5"}, {"lat": "13.5166667", "city": "M'Bollet", "lon": "-16.5"}, {"lat": "13.4927778", "city": "Medina Kanuma", "lon": "-16.5233333"}, {"lat": "13.5197222", "city": "Memmeh", "lon": "-16.2311111"}, {"lat": "13.5197222", "city": "Memme", "lon": "-16.2311111"}, {"lat": "13.5666667", "city": "Minti Kunda", "lon": "-15.8666667"}, {"lat": "13.5886111", "city": "Misira Alhaji", "lon": "-16.1913889"}, {"lat": "13.5666667", "city": "Misira", "lon": "-15.6666667"}, {"lat": "13.5302778", "city": "Munya Gen", "lon": "-16.1788889"}, {"lat": "13.4941667", "city": "Myamba", "lon": "-16.5169444"}, {"lat": "13.2077778", "city": "Ndemban Ba", "lon": "-16.3452778"}, {"lat": "13.2019444", "city": "Ndemban Chapechum", "lon": "-16.3436111"}, {"lat": "13.5833333", "city": "N'Demba N'Ding", "lon": "-15.6833333"}, {"lat": "13.1852778", "city": "Ndemban Jola", "lon": "-16.3461111"}, {"lat": "13.2077778", "city": "N'Demban", "lon": "-16.3452778"}, {"lat": "13.5666667", "city": "Nduren", "lon": "-15.95"}, {"lat": "13.55", "city": "Nema", "lon": "-15.6833333"}, {"lat": "13.5833333", "city": "Nghato Norr", "lon": "-15.9666667"}, {"lat": "13.1711111", "city": "Niambalon", "lon": "-16.2533333"}, {"lat": "13.1711111", "city": "Niambolon", "lon": "-16.2533333"}, {"lat": "13.5666667", "city": "Niji", "lon": "-15.7833333"}, {"lat": "13.5833333", "city": "Nirabaya", "lon": "-15.8666667"}, {"lat": "13.55", "city": "N'jaba Kunda", "lon": "-15.9166667"}, {"lat": "13.55", "city": "Njabba Kunda", "lon": "-15.9166667"}, {"lat": "13.55", "city": "Nja Kunda", "lon": "-15.9166667"}, {"lat": "13.55", "city": "N'Ja Kunda", "lon": "-15.9166667"}, {"lat": "13.5666667", "city": "N'Jie Kunda", "lon": "-15.85"}, {"lat": "13.5511111", "city": "Njie Kundaring", "lon": "-16.0702778"}, {"lat": "13.5833333", "city": "Njohnen", "lon": "-15.95"}, {"lat": "13.5833333", "city": "No Kunda Fula", "lon": "-15.8333333"}, {"lat": "13.5666667", "city": "No Kunda", "lon": "-15.8333333"}, {"lat": "13.5833333", "city": "Nowleru", "lon": "-15.9333333"}, {"lat": "13.5625", "city": "N'Toro Alasan", "lon": "-16.1958333"}, {"lat": "13.5580556", "city": "N'Toro Baien", "lon": "-16.0705556"}, {"lat": "13.5616667", "city": "N'Toro Taim", "lon": "-16.0483333"}, {"lat": "13.5616667", "city": "N'Toro Tem", "lon": "-16.0483333"}, {"lat": "13.2397222", "city": "Nyangit", "lon": "-16.2911111"}, {"lat": "13.5833333", "city": "Nyirba", "lon": "-15.8666667"}, {"lat": "13.25", "city": "Paima", "lon": "-16.3"}, {"lat": "13.55", "city": "Palen", "lon": "-16.0333333"}, {"lat": "13.5863889", "city": "Panne Ba", "lon": "-16.0705556"}, {"lat": "13.5863889", "city": "Panne", "lon": "-16.0705556"}, {"lat": "13.2666667", "city": "Payama", "lon": "-16.3166667"}, {"lat": "13.5163889", "city": "Saba", "lon": "-16.0491667"}, {"lat": "13.4833333", "city": "Salekaine", "lon": "-15.9666667"}, {"lat": "13.4833333", "city": "Salekini", "lon": "-15.9666667"}, {"lat": "13.4833333", "city": "Salikene", "lon": "-15.9666667"}, {"lat": "13.4833333", "city": "Salikeni", "lon": "-15.9666667"}, {"lat": "13.5908333", "city": "Samba Musa", "lon": "-16.0583333"}, {"lat": "13.5908333", "city": "Samba Musu", "lon": "-16.0583333"}, {"lat": "13.1777778", "city": "Sandehmunku", "lon": "-16.2547222"}, {"lat": "13.2166667", "city": "Saniang Kunda", "lon": "-16.3"}, {"lat": "13.55", "city": "Sita Bantang", "lon": "-15.8166667"}, {"lat": "13.2166667", "city": "Somita Saniang Kunda", "lon": "-16.3"}, {"lat": "13.2166667", "city": "Somita Selelew", "lon": "-16.3"}, {"lat": "13.2058333", "city": "Somita", "lon": "-16.3055556"}, {"lat": "13.5069444", "city": "Suara Kunda", "lon": "-16.0822222"}, {"lat": "13.5069444", "city": "Suarra Kunda", "lon": "-16.0822222"}, {"lat": "13.4813889", "city": "Taiba", "lon": "-16.5125"}, {"lat": "13.5833333", "city": "Talen Pol", "lon": "-15.9833333"}, {"lat": "13.5833333", "city": "Talen Wollof", "lon": "-15.9833333"}, {"lat": "13.5786111", "city": "Tallen", "lon": "-16.1761111"}, {"lat": "13.5833333", "city": "Tally Ya", "lon": "-15.7166667"}, {"lat": "13.5052778", "city": "Tambana", "lon": "-16.1744444"}, {"lat": "13.2186111", "city": "Tampoto Koto", "lon": "-16.2738889"}, {"lat": "13.2036111", "city": "Tampoto", "lon": "-16.2511111"}, {"lat": "13.5936111", "city": "Tawa Kaltu", "lon": "-16.0416667"}, {"lat": "13.5938889", "city": "Tiaba", "lon": "-16.0488889"}, {"lat": "13.5833333", "city": "Timbing Kortor", "lon": "-15.8666667"}, {"lat": "13.5580556", "city": "Toro Mbaien", "lon": "-16.0705556"}, {"lat": "13.5616667", "city": "Toro Tayem", "lon": "-16.0483333"}, {"lat": "13.5608333", "city": "Tuba Gumbuya", "lon": "-16.1275"}, {"lat": "13.25", "city": "Tubakuta", "lon": "-16.2833333"}, {"lat": "13.27", "city": "Tuba Kuta", "lon": "-16.2666667"}, {"lat": "13.1986111", "city": "Tuba", "lon": "-16.3558333"}, {"lat": "13.5833333", "city": "Turan", "lon": "-15.7166667"}, {"lat": "13.5833333", "city": "Walalan", "lon": "-15.6833333"}, {"lat": "13.5666667", "city": "Wayahon", "lon": "-15.95"}, {"lat": "13.5833333", "city": "Wellingara", "lon": "-15.9166667"}, {"lat": "13.5666667", "city": "Yallal Bah Ker De Kumba", "lon": "-16.0"}, {"lat": "13.55", "city": "Yallal", "lon": "-15.7"}, {"lat": "13.55", "city": "Yallol", "lon": "-15.7"}, {"lat": "13.5833333", "city": "Yuma", "lon": "-15.7"}, {"lat": "13.5833333", "city": "Yuna", "lon": "-15.7"}], "04": [{"lat": "13.3166667", "city": "Alohungari", "lon": "-14.2333333"}, {"lat": "13.2666667", "city": "Alohungari Banta", "lon": "-14.1333333"}, {"lat": "13.3333333", "city": "Badari", "lon": "-14.1"}, {"lat": "13.4666667", "city": "Badja Kunda", "lon": "-14.05"}, {"lat": "13.2666667", "city": "Bahwa", "lon": "-14.2833333"}, {"lat": "13.3833333", "city": "Bajankoto", "lon": "-14.25"}, {"lat": "13.3", "city": "Bakadagy", "lon": "-14.3833333"}, {"lat": "13.3", "city": "Bakadaji", "lon": "-14.3833333"}, {"lat": "13.45", "city": "Bala Silla", "lon": "-14.1333333"}, {"lat": "13.3833333", "city": "Banatenda", "lon": "-14.4833333"}, {"lat": "13.2833333", "city": "Banenko", "lon": "-14.1333333"}, {"lat": "13.2833333", "city": "Banenko Simaila", "lon": "-14.1333333"}, {"lat": "13.2666667", "city": "Bangasiya Fali", "lon": "-14.1333333"}, {"lat": "13.3833333", "city": "Bani", "lon": "-13.8666667"}, {"lat": "13.2666667", "city": "Baniko", "lon": "-14.4333333"}, {"lat": "13.2666667", "city": "Banja", "lon": "-14.2833333"}, {"lat": "13.4833333", "city": "Bankuwule", "lon": "-14.1333333"}, {"lat": "13.3833333", "city": "Banna Tenda", "lon": "-14.4833333"}, {"lat": "13.3166667", "city": "Bantang Kotor", "lon": "-14.2166667"}, {"lat": "13.4666667", "city": "Banto Nding", "lon": "-14.0833333"}, {"lat": "13.3833333", "city": "Banu Kunda", "lon": "-14.0166667"}, {"lat": "13.4", "city": "Barajali Kunda", "lon": "-14.0"}, {"lat": "13.4", "city": "Baraji Kunda", "lon": "-14.0"}, {"lat": "13.4833333", "city": "Baro Kunda", "lon": "-14.1166667"}, {"lat": "13.4833333", "city": "Barrakunda", "lon": "-14.1166667"}, {"lat": "13.55", "city": "Barra Kunda", "lon": "-13.8"}, {"lat": "13.45", "city": "Barry Narbeh", "lon": "-14.3833333"}, {"lat": "13.3", "city": "Base Nding", "lon": "-14.2"}, {"lat": "13.3166667", "city": "Basse", "lon": "-14.2166667"}, {"lat": "13.3166667", "city": "Basse Santa Su", "lon": "-14.2166667"}, {"lat": "13.45", "city": "Berry Narbeh", "lon": "-14.3833333"}, {"lat": "13.4666667", "city": "Bia Hamady", "lon": "-14.4333333"}, {"lat": "13.2666667", "city": "Birom", "lon": "-14.4333333"}, {"lat": "13.3", "city": "Bisandugu", "lon": "-14.0833333"}, {"lat": "13.5666667", "city": "Bolum", "lon": "-13.9333333"}, {"lat": "13.4166667", "city": "Boro Kandakase", "lon": "-14.0333333"}, {"lat": "13.4166667", "city": "Boro Majang Kunda", "lon": "-14.0333333"}, {"lat": "13.4166667", "city": "Boro Manjang Kunda", "lon": "-14.0333333"}, {"lat": "13.4333333", "city": "Boro Modi Bane", "lon": "-14.0333333"}, {"lat": "13.4166667", "city": "Boro Sambakabaya", "lon": "-14.0333333"}, {"lat": "13.4166667", "city": "Boro Sambaya", "lon": "-14.0333333"}, {"lat": "13.3333333", "city": "Brefet", "lon": "-14.2666667"}, {"lat": "13.5", "city": "Brifu", "lon": "-13.9333333"}, {"lat": "13.3166667", "city": "Busura", "lon": "-14.5"}, {"lat": "13.3166667", "city": "Busure", "lon": "-14.5"}, {"lat": "13.3166667", "city": "Chamoi", "lon": "-14.1666667"}, {"lat": "13.35", "city": "Changally", "lon": "-14.3333333"}, {"lat": "13.3666667", "city": "Changally Chewdu", "lon": "-14.3333333"}, {"lat": "13.35", "city": "Changally Lankadi", "lon": "-14.3333333"}, {"lat": "13.4166667", "city": "Charnum", "lon": "-13.95"}, {"lat": "13.3666667", "city": "Chewal Bessell", "lon": "-14.4666667"}, {"lat": "13.3166667", "city": "Daba Kunda", "lon": "-14.3"}, {"lat": "13.3333333", "city": "Damfa Kunda", "lon": "-14.1833333"}, {"lat": "13.2833333", "city": "Dandugu", "lon": "-14.1333333"}, {"lat": "13.3333333", "city": "Darsilame", "lon": "-14.0666667"}, {"lat": "13.2666667", "city": "Darsilame Ker Koro", "lon": "-14.15"}, {"lat": "13.2666667", "city": "Darsilame Key Koro", "lon": "-14.15"}, {"lat": "13.4", "city": "Darsilami", "lon": "-14.2666667"}, {"lat": "13.3666667", "city": "Darsilami Jimara", "lon": "-14.45"}, {"lat": "13.3666667", "city": "Darsilami Tenda", "lon": "-14.2833333"}, {"lat": "13.2666667", "city": "Darsilane Ker Koro", "lon": "-14.15"}, {"lat": "13.4833333", "city": "Dasilami", "lon": "-13.9333333"}, {"lat": "13.4666667", "city": "Demba Koumbel", "lon": "-13.85"}, {"lat": "13.4666667", "city": "Demba Kumbale", "lon": "-13.85"}, {"lat": "13.25", "city": "Demba Kunda", "lon": "-14.2666667"}, {"lat": "13.45", "city": "Demba Wendu", "lon": "-14.3333333"}, {"lat": "13.3166667", "city": "Dembel Jawor", "lon": "-14.4"}, {"lat": "13.4666667", "city": "Dembo Kumbel", "lon": "-13.85"}, {"lat": "13.3333333", "city": "Diabugu Basilla", "lon": "-13.95"}, {"lat": "13.3666667", "city": "Diabugu", "lon": "-13.9833333"}, {"lat": "13.3833333", "city": "Diabugu Tenda", "lon": "-14.4166667"}, {"lat": "13.2833333", "city": "Dinguiri", "lon": "-14.0666667"}, {"lat": "13.2833333", "city": "Dinguirin", "lon": "-14.0666667"}, {"lat": "13.3833333", "city": "Dirboko", "lon": "-14.4"}, {"lat": "13.4166667", "city": "Djan Counda", "lon": "-13.8666667"}, {"lat": "13.3166667", "city": "Doba Kunda", "lon": "-14.3"}, {"lat": "13.4333333", "city": "Dramane", "lon": "-14.1166667"}, {"lat": "13.3166667", "city": "Dula Kunda", "lon": "-14.3"}, {"lat": "13.4166667", "city": "Dumfoya", "lon": "-14.2166667"}, {"lat": "13.4833333", "city": "Fadiya Kunda", "lon": "-14.2"}, {"lat": "13.4", "city": "Fantumbu", "lon": "-13.8666667"}, {"lat": "13.4", "city": "Farato", "lon": "-14.2166667"}, {"lat": "13.4", "city": "Farem-Toumbo", "lon": "-13.8666667"}, {"lat": "13.4", "city": "Farintumbu", "lon": "-13.8666667"}, {"lat": "13.35", "city": "Fatako", "lon": "-14.4"}, {"lat": "13.45", "city": "Fatotenda", "lon": "-14.0666667"}, {"lat": "13.4", "city": "Fatoto", "lon": "-13.9"}, {"lat": "13.45", "city": "Fattatenda", "lon": "-14.0666667"}, {"lat": "13.3833333", "city": "Findefeto", "lon": "-14.1166667"}, {"lat": "13.3833333", "city": "Findofato", "lon": "-14.1166667"}, {"lat": "13.5", "city": "Fode Kounda", "lon": "-13.9333333"}, {"lat": "13.5", "city": "Fode Kunda", "lon": "-13.9333333"}, {"lat": "13.35", "city": "Fula", "lon": "-14.0166667"}, {"lat": "13.2833333", "city": "Fula Kunda", "lon": "-14.0666667"}, {"lat": "13.3", "city": "Fula More Boche", "lon": "-14.35"}, {"lat": "13.4", "city": "Gadafaro", "lon": "-13.9"}, {"lat": "13.2666667", "city": "Gambissara Bondoh", "lon": "-14.3"}, {"lat": "13.2666667", "city": "Gambissara Fula", "lon": "-14.3"}, {"lat": "13.2333333", "city": "Gambissara", "lon": "-14.3166667"}, {"lat": "13.25", "city": "Gambissara Jawo", "lon": "-14.3"}, {"lat": "13.25", "city": "Gambissara Jawor", "lon": "-14.3"}, {"lat": "13.3166667", "city": "Gambissar", "lon": "-13.95"}, {"lat": "13.4166667", "city": "Garawol", "lon": "-13.95"}, {"lat": "13.5333333", "city": "Gayo", "lon": "-14.1"}, {"lat": "13.3166667", "city": "Gembissara", "lon": "-13.95"}, {"lat": "13.3333333", "city": "Gillangel", "lon": "-14.45"}, {"lat": "13.3", "city": "Giroba", "lon": "-14.2"}, {"lat": "13.3", "city": "Giroba Kunda", "lon": "-14.2"}, {"lat": "13.5333333", "city": "Gunjur Kuta", "lon": "-14.1166667"}, {"lat": "13.3833333", "city": "Hamadalie", "lon": "-14.2666667"}, {"lat": "13.4333333", "city": "Hamdalai", "lon": "-13.8"}, {"lat": "13.3", "city": "Hela Kunda", "lon": "-14.3666667"}, {"lat": "13.4333333", "city": "Heramakono", "lon": "-13.85"}, {"lat": "13.3666667", "city": "Jababa", "lon": "-14.3666667"}, {"lat": "13.3666667", "city": "Jahabi", "lon": "-14.3666667"}, {"lat": "13.4166667", "city": "Jaha", "lon": "-14.1166667"}, {"lat": "13.35", "city": "Jaha Madina", "lon": "-14.3166667"}, {"lat": "13.5333333", "city": "Jahatuje", "lon": "-14.1"}, {"lat": "13.3666667", "city": "Jakaba", "lon": "-14.3666667"}, {"lat": "13.2333333", "city": "Jala Kunda", "lon": "-14.3333333"}, {"lat": "13.5", "city": "Jambaruya", "lon": "-14.1833333"}, {"lat": "13.4666667", "city": "Jamwelly", "lon": "-14.45"}, {"lat": "13.4666667", "city": "Jar Kunda", "lon": "-14.1833333"}, {"lat": "13.2833333", "city": "Jata", "lon": "-14.3166667"}, {"lat": "13.4166667", "city": "Jau Kunda", "lon": "-13.8666667"}, {"lat": "13.35", "city": "Jawbeh Madeh", "lon": "-14.4166667"}, {"lat": "13.35", "city": "Jawbeh Modeh", "lon": "-14.4166667"}, {"lat": "13.4166667", "city": "Jawla", "lon": "-14.1833333"}, {"lat": "13.5333333", "city": "Jekka", "lon": "-14.1166667"}, {"lat": "13.4", "city": "Jendeh", "lon": "-14.2833333"}, {"lat": "13.2666667", "city": "Jimara", "lon": "-14.4333333"}, {"lat": "13.3", "city": "Juburruya", "lon": "-14.35"}, {"lat": "13.3166667", "city": "Jum Bakary", "lon": "-14.45"}, {"lat": "13.3333333", "city": "Jum Mankama", "lon": "-14.45"}, {"lat": "13.2833333", "city": "Jurro Kunda", "lon": "-14.3833333"}, {"lat": "13.3", "city": "Kabakama", "lon": "-14.2"}, {"lat": "13.5166667", "city": "Kambele", "lon": "-13.9166667"}, {"lat": "13.2666667", "city": "Kamunakore", "lon": "-14.3833333"}, {"lat": "13.5666667", "city": "Kanape", "lon": "-13.9333333"}, {"lat": "13.4", "city": "Kandimai", "lon": "-14.2833333"}, {"lat": "13.4", "city": "Kantale Kunda", "lon": "-13.8833333"}, {"lat": "13.3166667", "city": "Kanube", "lon": "-14.3"}, {"lat": "13.3333333", "city": "Kanube Tenda", "lon": "-14.3"}, {"lat": "13.35", "city": "Karantaba", "lon": "-14.0166667"}, {"lat": "13.4166667", "city": "Karaoli", "lon": "-13.95"}, {"lat": "13.3833333", "city": "Karsi Kunda", "lon": "-13.85"}, {"lat": "13.4333333", "city": "Kebbe", "lon": "-13.9666667"}, {"lat": "13.4333333", "city": "Kebbe Kunda", "lon": "-13.9666667"}, {"lat": "13.4666667", "city": "Kendalu", "lon": "-14.2"}, {"lat": "13.3", "city": "Kenniba", "lon": "-14.1"}, {"lat": "13.3666667", "city": "Kerewan", "lon": "-14.2166667"}, {"lat": "13.3666667", "city": "Ker Singarteh", "lon": "-14.0666667"}, {"lat": "13.3666667", "city": "Khayell Bessell", "lon": "-14.4666667"}, {"lat": "13.3", "city": "Kiskisi", "lon": "-14.15"}, {"lat": "13.3833333", "city": "Kobotor", "lon": "-14.0833333"}, {"lat": "13.4833333", "city": "Koina", "lon": "-13.8666667"}, {"lat": "13.4833333", "city": "Koina Tenda", "lon": "-13.9"}, {"lat": "13.4333333", "city": "Kolibantang", "lon": "-14.2"}, {"lat": "13.3666667", "city": "Koli Kunda", "lon": "-14.0833333"}, {"lat": "13.2833333", "city": "Kolinto", "lon": "-14.1166667"}, {"lat": "13.3333333", "city": "Koro Numa Kunda", "lon": "-14.5"}, {"lat": "13.35", "city": "Korro Jula Kunda", "lon": "-14.4833333"}, {"lat": "13.3333333", "city": "Kossema", "lon": "-14.3833333"}, {"lat": "13.3166667", "city": "Kossemar Dembell", "lon": "-14.3833333"}, {"lat": "13.3333333", "city": "Kossemar", "lon": "-14.3833333"}, {"lat": "13.3166667", "city": "Kossemar Mamodu Sutu", "lon": "-14.3833333"}, {"lat": "13.3166667", "city": "Kossemar Momadu Sutu", "lon": "-14.3833333"}, {"lat": "13.4166667", "city": "Kristi Kunda", "lon": "-13.8666667"}, {"lat": "13.3333333", "city": "Kuari", "lon": "-13.8833333"}, {"lat": "13.4", "city": "Kukuyal", "lon": "-13.9"}, {"lat": "13.4", "city": "Kukuyel", "lon": "-13.9"}, {"lat": "13.4", "city": "Kulari", "lon": "-14.0833333"}, {"lat": "13.4666667", "city": "Kular", "lon": "-14.2166667"}, {"lat": "13.3", "city": "Kulkulel", "lon": "-14.15"}, {"lat": "13.2666667", "city": "Kumbija", "lon": "-14.1833333"}, {"lat": "13.2666667", "city": "Kumbita", "lon": "-14.1833333"}, {"lat": "13.3833333", "city": "Kumbul", "lon": "-13.9666667"}, {"lat": "13.55", "city": "Kunda", "lon": "-13.8833333"}, {"lat": "13.3333333", "city": "Kundam Demba", "lon": "-14.1166667"}, {"lat": "13.3333333", "city": "Kundam Fode", "lon": "-14.1166667"}, {"lat": "13.3333333", "city": "Kundam", "lon": "-14.1166667"}, {"lat": "13.4", "city": "Kundum", "lon": "-14.2833333"}, {"lat": "13.25", "city": "Kunjala", "lon": "-14.1833333"}, {"lat": "13.3166667", "city": "Kuoba Kunda", "lon": "-14.2333333"}, {"lat": "13.3166667", "city": "Kuoba", "lon": "-14.2333333"}, {"lat": "13.4166667", "city": "Kuonko", "lon": "-14.3166667"}, {"lat": "13.4", "city": "Kurau Bakari", "lon": "-14.4166667"}, {"lat": "13.4", "city": "Kurau Kemo Arfang", "lon": "-14.4166667"}, {"lat": "13.4", "city": "Kurau", "lon": "-14.4166667"}, {"lat": "13.4666667", "city": "Kuryande", "lon": "-13.8166667"}, {"lat": "13.35", "city": "Kusa Burey", "lon": "-14.1333333"}, {"lat": "13.55", "city": "Kusaie", "lon": "-13.9"}, {"lat": "13.45", "city": "Kusi", "lon": "-14.1166667"}, {"lat": "13.3833333", "city": "Kusun", "lon": "-13.9333333"}, {"lat": "13.35", "city": "Legi Kunda", "lon": "-14.5166667"}, {"lat": "13.4166667", "city": "Limbambulu", "lon": "-14.1166667"}, {"lat": "13.4166667", "city": "Madina Bala", "lon": "-13.85"}, {"lat": "13.4166667", "city": "Madina Fula Kunda", "lon": "-13.8333333"}, {"lat": "13.35", "city": "Madina Kuru", "lon": "-14.5"}, {"lat": "13.3833333", "city": "Madina Kuta", "lon": "-13.8666667"}, {"lat": "13.3", "city": "Madina", "lon": "-14.0166667"}, {"lat": "13.2666667", "city": "Madina Sadda", "lon": "-14.4"}, {"lat": "13.3833333", "city": "Madina Tenda", "lon": "-14.2"}, {"lat": "13.5666667", "city": "Makajan Kunda", "lon": "-13.9166667"}, {"lat": "13.5666667", "city": "Makajan", "lon": "-13.9166667"}, {"lat": "13.4166667", "city": "Maka", "lon": "-14.0333333"}, {"lat": "13.3333333", "city": "Maliky Mansong", "lon": "-14.5"}, {"lat": "13.5", "city": "Malubaliya", "lon": "-14.0833333"}, {"lat": "13.5", "city": "Mamadi Ceesay", "lon": "-14.45"}, {"lat": "13.5166667", "city": "Mamadi Sisi", "lon": "-14.4333333"}, {"lat": "13.2333333", "city": "Mampata Yeli", "lon": "-14.2166667"}, {"lat": "13.35", "city": "Mandingko", "lon": "-14.0166667"}, {"lat": "13.3", "city": "Mane Kunda", "lon": "-14.2166667"}, {"lat": "13.3", "city": "Manneh Kunda", "lon": "-14.2166667"}, {"lat": "13.5", "city": "Mano Kotor", "lon": "-14.1166667"}, {"lat": "13.5", "city": "Manor Koto", "lon": "-14.1166667"}, {"lat": "13.3", "city": "Mansajang Kunda", "lon": "-14.2166667"}, {"lat": "13.4", "city": "Mansa Kunda", "lon": "-13.9833333"}, {"lat": "13.3333333", "city": "Mansong", "lon": "-14.4"}, {"lat": "13.3833333", "city": "M'Baia", "lon": "-14.2833333"}, {"lat": "13.3166667", "city": "Mballo Kunda", "lon": "-14.5"}, {"lat": "13.3833333", "city": "Mbye Kunda", "lon": "-14.2833333"}, {"lat": "13.2833333", "city": "Medina Jambol", "lon": "-14.3166667"}, {"lat": "13.4", "city": "Medina", "lon": "-14.3"}, {"lat": "13.3333333", "city": "Misera", "lon": "-13.95"}, {"lat": "13.3666667", "city": "Missira", "lon": "-14.35"}, {"lat": "13.3666667", "city": "Missir", "lon": "-14.35"}, {"lat": "13.55", "city": "Modu Jawo Kunda", "lon": "-13.9"}, {"lat": "13.3333333", "city": "Momadu Kunda", "lon": "-14.2666667"}, {"lat": "13.3333333", "city": "Momodu Kunda", "lon": "-14.2666667"}, {"lat": "13.25", "city": "Morbugu", "lon": "-14.2666667"}, {"lat": "13.35", "city": "Mousa Nding Kunda", "lon": "-14.45"}, {"lat": "13.55", "city": "Mure Kunda", "lon": "-14.0666667"}, {"lat": "13.55", "city": "Musa Kunda", "lon": "-13.95"}, {"lat": "13.3333333", "city": "Nafugan", "lon": "-14.2833333"}, {"lat": "13.3333333", "city": "Nafuka", "lon": "-14.2833333"}, {"lat": "13.4666667", "city": "Naude", "lon": "-14.45"}, {"lat": "13.3333333", "city": "Ndimbo", "lon": "-14.0333333"}, {"lat": "13.3333333", "city": "Ndimo", "lon": "-14.0333333"}, {"lat": "13.3666667", "city": "N'Ding Madina", "lon": "-14.2"}, {"lat": "13.5", "city": "N' Gai Golore", "lon": "-14.4333333"}, {"lat": "13.2666667", "city": "Ngallen", "lon": "-14.2833333"}, {"lat": "13.4333333", "city": "Niani Kunda", "lon": "-14.4833333"}, {"lat": "13.4333333", "city": "Niankui", "lon": "-14.4833333"}, {"lat": "13.4333333", "city": "Niankwi", "lon": "-14.4833333"}, {"lat": "13.3", "city": "Niji", "lon": "-14.0833333"}, {"lat": "13.4166667", "city": "Njaga Jarry", "lon": "-14.4833333"}, {"lat": "13.4166667", "city": "N'Jagga Jarry", "lon": "-14.4833333"}, {"lat": "13.4666667", "city": "N'Ja Kunda", "lon": "-14.1833333"}, {"lat": "13.2666667", "city": "N'Jal Mbye", "lon": "-14.3666667"}, {"lat": "13.3", "city": "Njarinjofa", "lon": "-14.0166667"}, {"lat": "13.3", "city": "Njarinjota", "lon": "-14.0166667"}, {"lat": "13.3", "city": "Njarinjufa", "lon": "-14.0166667"}, {"lat": "13.2833333", "city": "N'Jarry Njoffa", "lon": "-14.3833333"}, {"lat": "13.3333333", "city": "Njayel", "lon": "-14.0166667"}, {"lat": "13.45", "city": "Nkea Kunda", "lon": "-14.1833333"}, {"lat": "13.25", "city": "Nobakunda", "lon": "-14.3833333"}, {"lat": "13.3333333", "city": "Numu Kunda Kotor", "lon": "-14.5"}, {"lat": "13.3333333", "city": "Numu Kunda", "lon": "-14.5"}, {"lat": "13.2833333", "city": "Numyell", "lon": "-14.3"}, {"lat": "13.3333333", "city": "Nyamanari", "lon": "-13.8666667"}, {"lat": "13.3333333", "city": "Pachunko", "lon": "-14.3833333"}, {"lat": "13.45", "city": "Passimu", "lon": "-13.9166667"}, {"lat": "13.3333333", "city": "Patchunko", "lon": "-14.3833333"}, {"lat": "13.3833333", "city": "Perai Memadi", "lon": "-14.25"}, {"lat": "13.3833333", "city": "Perai", "lon": "-14.0333333"}, {"lat": "13.3833333", "city": "Perai Tenda", "lon": "-14.0333333"}, {"lat": "13.3833333", "city": "Pirai", "lon": "-14.0333333"}, {"lat": "13.35", "city": "Plinky Bakary", "lon": "-14.3166667"}, {"lat": "13.3666667", "city": "Plinky Woppa", "lon": "-14.3"}, {"lat": "13.3666667", "city": "Plinky Wopp", "lon": "-14.3"}, {"lat": "13.3833333", "city": "Priakunda", "lon": "-14.0333333"}, {"lat": "13.3333333", "city": "Sabally Kunda", "lon": "-14.4"}, {"lat": "13.2333333", "city": "Sabi", "lon": "-14.2"}, {"lat": "13.3", "city": "Sabuseri", "lon": "-14.1666667"}, {"lat": "13.35", "city": "Saja Kunda", "lon": "-14.0166667"}, {"lat": "13.35", "city": "Salikene", "lon": "-14.0166667"}, {"lat": "13.35", "city": "Salikenye", "lon": "-14.0166667"}, {"lat": "13.3", "city": "Samantalu", "lon": "-14.0666667"}, {"lat": "13.3166667", "city": "Samba Jowala", "lon": "-14.3166667"}, {"lat": "13.4333333", "city": "Samba Kabude", "lon": "-14.1833333"}, {"lat": "13.3", "city": "Samba Koi", "lon": "-14.3166667"}, {"lat": "13.4", "city": "Sambakubasu", "lon": "-13.8833333"}, {"lat": "13.3333333", "city": "Samba Kunda", "lon": "-14.0833333"}, {"lat": "13.3", "city": "Sambantalu", "lon": "-14.0666667"}, {"lat": "13.3166667", "city": "Samba Yerro", "lon": "-14.5333333"}, {"lat": "13.2833333", "city": "Sambel Kunda", "lon": "-14.3833333"}, {"lat": "13.45", "city": "Sami", "lon": "-13.9666667"}, {"lat": "13.4833333", "city": "Sanchabari", "lon": "-14.1833333"}, {"lat": "13.3333333", "city": "Sandefu", "lon": "-13.95"}, {"lat": "13.4666667", "city": "Sankabarry", "lon": "-14.4166667"}, {"lat": "13.3", "city": "Sankulekunda", "lon": "-14.35"}, {"lat": "13.2833333", "city": "Sanunding", "lon": "-14.1166667"}, {"lat": "13.55", "city": "Sare Ali", "lon": "-13.9166667"}, {"lat": "13.3666667", "city": "Sare Alpha", "lon": "-13.9833333"}, {"lat": "13.4333333", "city": "Sare Bacha", "lon": "-13.8"}, {"lat": "13.3166667", "city": "Sare Bakare", "lon": "-14.5166667"}, {"lat": "13.3166667", "city": "Sare Bakary", "lon": "-14.5166667"}, {"lat": "13.5166667", "city": "Sare Belali", "lon": "-14.1666667"}, {"lat": "13.4333333", "city": "Sare Beru", "lon": "-13.85"}, {"lat": "13.2833333", "city": "Sare Biram", "lon": "-14.45"}, {"lat": "13.25", "city": "Sare Bocchi", "lon": "-14.3333333"}, {"lat": "13.55", "city": "Sare Bohum", "lon": "-13.95"}, {"lat": "13.3166667", "city": "Sare Boja Demmo", "lon": "-14.5333333"}, {"lat": "13.3166667", "city": "Sare Boja", "lon": "-14.5333333"}, {"lat": "13.3166667", "city": "Sare Bojo", "lon": "-14.5333333"}, {"lat": "13.2833333", "city": "Sare Bona", "lon": "-14.1666667"}, {"lat": "13.55", "city": "Sare Buhum", "lon": "-13.95"}, {"lat": "13.35", "city": "Sare Buluma", "lon": "-14.1166667"}, {"lat": "13.25", "city": "Sare Cherno", "lon": "-14.4166667"}, {"lat": "13.4333333", "city": "Sare Dabo", "lon": "-14.25"}, {"lat": "13.2666667", "city": "Sare Dadeh", "lon": "-14.4166667"}, {"lat": "13.3833333", "city": "Sare Dadi", "lon": "-14.2333333"}, {"lat": "13.3", "city": "Sare Demba Dardoh", "lon": "-14.45"}, {"lat": "13.4333333", "city": "Sare Demba", "lon": "-14.3166667"}, {"lat": "13.3166667", "city": "Sare Dene", "lon": "-14.5333333"}, {"lat": "13.4166667", "city": "Sare Dumfoya", "lon": "-14.2166667"}, {"lat": "13.4", "city": "Sare Fodigey", "lon": "-14.3666667"}, {"lat": "13.4333333", "city": "Sare Ganardu", "lon": "-14.3"}, {"lat": "13.3333333", "city": "Sare Ganya", "lon": "-14.4833333"}, {"lat": "13.5166667", "city": "Sare Geda", "lon": "-14.0833333"}, {"lat": "13.3166667", "city": "Sare Gela", "lon": "-14.0166667"}, {"lat": "13.45", "city": "Sare Gelel", "lon": "-14.2"}, {"lat": "13.45", "city": "Sare Gubbu", "lon": "-14.3666667"}, {"lat": "13.4833333", "city": "Sare Hamady", "lon": "-14.2166667"}, {"lat": "13.3333333", "city": "Sare Hande", "lon": "-13.9166667"}, {"lat": "13.45", "city": "Sare Jallow", "lon": "-14.4333333"}, {"lat": "13.2833333", "city": "Sare Jatta", "lon": "-14.3166667"}, {"lat": "13.25", "city": "Sare Jawbeh", "lon": "-14.3833333"}, {"lat": "13.3166667", "city": "Sare Jowbe", "lon": "-14.35"}, {"lat": "13.45", "city": "Sare Jula", "lon": "-14.4333333"}, {"lat": "13.3333333", "city": "Sare Juley", "lon": "-14.0666667"}, {"lat": "13.3166667", "city": "Sare Koki", "lon": "-14.4"}, {"lat": "13.45", "city": "Sare Kuba", "lon": "-14.3666667"}, {"lat": "13.3833333", "city": "Sare Lalla", "lon": "-14.3666667"}, {"lat": "13.2666667", "city": "Sare Lalu", "lon": "-14.1333333"}, {"lat": "13.2833333", "city": "Sare Luntang", "lon": "-14.45"}, {"lat": "13.4333333", "city": "Sare Mala", "lon": "-13.8"}, {"lat": "13.3333333", "city": "Sare Mansala", "lon": "-14.4666667"}, {"lat": "13.3333333", "city": "Sare Mansong", "lon": "-14.5166667"}, {"lat": "13.25", "city": "Sare Maunde", "lon": "-14.4166667"}, {"lat": "13.25", "city": "Sare Mbye", "lon": "-14.3666667"}, {"lat": "13.4333333", "city": "Sare Muntaha", "lon": "-14.3666667"}, {"lat": "13.2333333", "city": "Sare Musa", "lon": "-14.25"}, {"lat": "13.4666667", "city": "Sare Ngaba", "lon": "-14.2166667"}, {"lat": "13.4666667", "city": "Sare Ngabba", "lon": "-14.2166667"}, {"lat": "13.5", "city": "Sare N'Gai", "lon": "-14.4333333"}, {"lat": "13.3166667", "city": "Sare N'Gatam", "lon": "-14.5333333"}, {"lat": "13.2666667", "city": "Sare Parteh Jameh", "lon": "-14.4333333"}, {"lat": "13.2666667", "city": "Sare Pateh Jameh", "lon": "-14.4333333"}, {"lat": "13.25", "city": "Sare Sajor Biloh", "lon": "-14.4"}, {"lat": "13.45", "city": "Sare Salieu", "lon": "-14.35"}, {"lat": "13.3", "city": "Sare Samba Jidah", "lon": "-14.4666667"}, {"lat": "13.45", "city": "Sare Sambaru", "lon": "-14.4166667"}, {"lat": "13.45", "city": "Sare Samba", "lon": "-14.3333333"}, {"lat": "13.3166667", "city": "Sare Samba Tene M'Balde", "lon": "-14.5166667"}, {"lat": "13.5333333", "city": "Sare Sandi", "lon": "-13.8833333"}, {"lat": "13.25", "city": "Sare Sarjo Biloh", "lon": "-14.4"}, {"lat": "13.2833333", "city": "Sare Sarko", "lon": "-14.3166667"}, {"lat": "13.45", "city": "Sare Silere", "lon": "-14.3666667"}, {"lat": "13.3333333", "city": "Sare Talata", "lon": "-14.5"}, {"lat": "13.3666667", "city": "Sare Timbo", "lon": "-14.4666667"}, {"lat": "13.4166667", "city": "Sare Tobi", "lon": "-13.8166667"}, {"lat": "13.3333333", "city": "Sare Tuluwuleng", "lon": "-14.5"}, {"lat": "13.3833333", "city": "Sare Vesu", "lon": "-13.9666667"}, {"lat": "13.4166667", "city": "Sare Wonku", "lon": "-14.3166667"}, {"lat": "13.3833333", "city": "Sare Yesu", "lon": "-13.9666667"}, {"lat": "13.4333333", "city": "Sare Yorori", "lon": "-14.3166667"}, {"lat": "13.4333333", "city": "Sare Yorrori", "lon": "-14.3166667"}, {"lat": "13.55", "city": "Sarkuli Kunda", "lon": "-13.8833333"}, {"lat": "13.3333333", "city": "Sendebo", "lon": "-14.0166667"}, {"lat": "13.3833333", "city": "Sifula", "lon": "-14.4333333"}, {"lat": "13.35", "city": "Silla Kunda", "lon": "-14.3166667"}, {"lat": "13.2333333", "city": "Simbadu", "lon": "-14.25"}, {"lat": "13.2666667", "city": "Sinchang Keykala", "lon": "-14.1333333"}, {"lat": "13.2833333", "city": "Sinchang Njokala", "lon": "-14.1666667"}, {"lat": "13.3", "city": "Sinchang Saradu", "lon": "-14.1333333"}, {"lat": "13.4", "city": "Sinchang", "lon": "-13.8833333"}, {"lat": "13.4833333", "city": "Sinchu Bachy", "lon": "-14.4166667"}, {"lat": "13.45", "city": "Sinchu Fye", "lon": "-13.8666667"}, {"lat": "13.5333333", "city": "Sinchu Kali", "lon": "-13.9333333"}, {"lat": "13.5166667", "city": "Sinchu Sambar", "lon": "-14.1833333"}, {"lat": "13.35", "city": "Sinchu Sara", "lon": "-14.4666667"}, {"lat": "13.4833333", "city": "Sinchu Wallbeh", "lon": "-14.4166667"}, {"lat": "13.3666667", "city": "Sinsu Demba", "lon": "-14.3333333"}, {"lat": "13.4666667", "city": "Sinsu Kusala", "lon": "-14.45"}, {"lat": "13.4666667", "city": "Sinsu Mousa", "lon": "-14.45"}, {"lat": "13.4666667", "city": "Sinsu Njiebeh", "lon": "-14.45"}, {"lat": "13.35", "city": "Sise Kunda", "lon": "-14.0833333"}, {"lat": "13.3833333", "city": "Song Kunda", "lon": "-13.85"}, {"lat": "13.3", "city": "Sotoma N'ding", "lon": "-14.3166667"}, {"lat": "13.3", "city": "Sotoma", "lon": "-14.3166667"}, {"lat": "13.3", "city": "Sotuma Sainy", "lon": "-14.3333333"}, {"lat": "13.3166667", "city": "Sotuma Sairey", "lon": "-14.3333333"}, {"lat": "13.3", "city": "Sotuma Sairy", "lon": "-14.3333333"}, {"lat": "13.3", "city": "Sotuma Samba Koi", "lon": "-14.3166667"}, {"lat": "13.3", "city": "Sotuma Samba", "lon": "-14.3166667"}, {"lat": "13.3", "city": "Sotuma", "lon": "-14.3166667"}, {"lat": "13.3666667", "city": "Sudowol", "lon": "-13.9666667"}, {"lat": "13.2833333", "city": "Sumakunda Bakary", "lon": "-14.4333333"}, {"lat": "13.2833333", "city": "Sumakunda Fye", "lon": "-14.45"}, {"lat": "13.3833333", "city": "Sumakunda Mamudu", "lon": "-14.3"}, {"lat": "13.3833333", "city": "Sumakunda Samba", "lon": "-14.3"}, {"lat": "13.25", "city": "Suma Kunda", "lon": "-14.3833333"}, {"lat": "13.3833333", "city": "Sun Kunda", "lon": "-13.85"}, {"lat": "13.5", "city": "Sutukoba", "lon": "-14.0166667"}, {"lat": "13.3833333", "city": "Sutuko", "lon": "-14.2166667"}, {"lat": "13.4", "city": "Sututa", "lon": "-14.1166667"}, {"lat": "13.5333333", "city": "Tabajang Kisimasu", "lon": "-14.0833333"}, {"lat": "13.35", "city": "Tabajang", "lon": "-14.4166667"}, {"lat": "13.5333333", "city": "Tabajan", "lon": "-14.0833333"}, {"lat": "13.2833333", "city": "Tabanding Sakbo", "lon": "-14.3166667"}, {"lat": "13.3166667", "city": "Tabanding", "lon": "-13.95"}, {"lat": "13.3666667", "city": "Taibatu", "lon": "-14.2166667"}, {"lat": "13.2666667", "city": "Talito Luntang", "lon": "-14.2833333"}, {"lat": "13.2833333", "city": "Talito Musa", "lon": "-14.2833333"}, {"lat": "13.2666667", "city": "Talito", "lon": "-14.2833333"}, {"lat": "13.3833333", "city": "Tambasansan", "lon": "-14.1666667"}, {"lat": "13.3833333", "city": "Tambasensan", "lon": "-14.1666667"}, {"lat": "13.4666667", "city": "Tarbu Chindeh", "lon": "-14.3833333"}, {"lat": "13.3166667", "city": "Temanto Demba Jamang", "lon": "-14.4833333"}, {"lat": "13.3333333", "city": "Temanto Demba", "lon": "-14.5"}, {"lat": "13.2333333", "city": "Temanto Sana", "lon": "-14.1666667"}, {"lat": "13.3833333", "city": "Temanto", "lon": "-13.9166667"}, {"lat": "13.3333333", "city": "Tengkul", "lon": "-14.0333333"}, {"lat": "13.3166667", "city": "Tenkoli", "lon": "-14.0166667"}, {"lat": "13.3833333", "city": "Tia", "lon": "-14.4833333"}, {"lat": "13.3833333", "city": "Tiembasisi", "lon": "-14.1666667"}, {"lat": "13.3833333", "city": "Timbinto", "lon": "-14.4666667"}, {"lat": "13.3833333", "city": "Timbintu", "lon": "-14.4666667"}, {"lat": "13.3", "city": "Tinkinjo", "lon": "-14.1666667"}, {"lat": "13.4666667", "city": "Torbeh Chindeh", "lon": "-14.3833333"}, {"lat": "13.4666667", "city": "Tuba Burey", "lon": "-14.2"}, {"lat": "13.3666667", "city": "Tuba Kata", "lon": "-14.0"}, {"lat": "13.3666667", "city": "Tuba Kuta", "lon": "-14.0"}, {"lat": "13.4166667", "city": "Tubanding", "lon": "-13.8833333"}, {"lat": "13.4333333", "city": "Tuba Sandu Kotor", "lon": "-14.25"}, {"lat": "13.2833333", "city": "Tuba Tafsir", "lon": "-14.15"}, {"lat": "13.2833333", "city": "Tuba", "lon": "-14.15"}, {"lat": "13.4666667", "city": "Tuba Wappa", "lon": "-14.2333333"}, {"lat": "13.4333333", "city": "Tuba-Wuli", "lon": "-14.25"}, {"lat": "13.3166667", "city": "Tumbul Tanga", "lon": "-13.9"}, {"lat": "13.3333333", "city": "Ture Kunda", "lon": "-14.5166667"}, {"lat": "13.3333333", "city": "Turu Kunda", "lon": "-14.5166667"}, {"lat": "13.3666667", "city": "Waliba Kunda", "lon": "-14.0166667"}, {"lat": "13.3666667", "city": "Walliba Kunda", "lon": "-14.0166667"}, {"lat": "13.5333333", "city": "Wallikunda", "lon": "-13.9333333"}, {"lat": "13.3", "city": "Wassadung Demba", "lon": "-14.45"}, {"lat": "13.3", "city": "Wassadung", "lon": "-14.45"}, {"lat": "13.25", "city": "Wellingara Mansak", "lon": "-14.3666667"}, {"lat": "13.25", "city": "Wellingara Mansal", "lon": "-14.3666667"}, {"lat": "13.3", "city": "Willingara Samba Tako", "lon": "-14.2"}, {"lat": "13.3", "city": "Willingara", "lon": "-14.2"}, {"lat": "13.35", "city": "Wulem Kunda", "lon": "-14.4666667"}, {"lat": "13.4166667", "city": "Yamadu", "lon": "-14.1333333"}, {"lat": "13.4333333", "city": "Yarobawal", "lon": "-14.2166667"}, {"lat": "13.2833333", "city": "Yarry Njoffa", "lon": "-14.3833333"}, {"lat": "13.25", "city": "Yoro Cheke", "lon": "-14.2"}, {"lat": "13.3166667", "city": "Yorro Pendeh", "lon": "-14.45"}, {"lat": "13.4333333", "city": "Yorubawal", "lon": "-14.2166667"}], "05": [{"lat": "13.4041667", "city": "Abuko", "lon": "-16.6558333"}, {"lat": "13.5230556", "city": "Alaji Yoro", "lon": "-16.2838889"}, {"lat": "13.1666667", "city": "Alakounda", "lon": "-15.9666667"}, {"lat": "13.3344444", "city": "Albadarr", "lon": "-16.3866667"}, {"lat": "13.3344444", "city": "Albreda", "lon": "-16.3866667"}, {"lat": "13.7", "city": "Alhaji Abdoulie Liegh", "lon": "-15.2833333"}, {"lat": "13.4", "city": "Alijamadu", "lon": "-16.4555556"}, {"lat": "13.4", "city": "Aljamdu", "lon": "-16.4555556"}, {"lat": "13.4", "city": "Aljamdu Kamara Kunda", "lon": "-16.45"}, {"lat": "13.4", "city": "Aljamdu Kanteh Kunda", "lon": "-16.45"}, {"lat": "13.0727778", "city": "Allahein", "lon": "-16.7469444"}, {"lat": "13.1672222", "city": "Alla Kunda", "lon": "-16.0113889"}, {"lat": "13.4666667", "city": "Alpha", "lon": "-16.35"}, {"lat": "13.4666667", "city": "Alpha Hamjatu", "lon": "-16.3166667"}, {"lat": "13.4666667", "city": "Alpha N'Ding", "lon": "-16.35"}, {"lat": "13.4319444", "city": "Amdalai", "lon": "-16.7225"}, {"lat": "13.5883333", "city": "Amdallai", "lon": "-16.4227778"}, {"lat": "13.4319444", "city": "Amdulai", "lon": "-16.7225"}, {"lat": "13.4319444", "city": "Amdulay", "lon": "-16.7225"}, {"lat": "13.4525", "city": "Ampaya", "lon": "-16.6908333"}, {"lat": "13.5666667", "city": "Anias Kunda", "lon": "-15.1833333"}, {"lat": "13.2066667", "city": "Arangalain", "lon": "-16.1469444"}, {"lat": "13.2333333", "city": "Arankon Kunda", "lon": "-15.9166667"}, {"lat": "13.2333333", "city": "Arongkoli Kunda", "lon": "-15.8666667"}, {"lat": "13.2133333", "city": "Babilon Gunjur", "lon": "-16.7461111"}, {"lat": "13.6", "city": "Babou Jobe", "lon": "-15.3"}, {"lat": "13.35", "city": "Ba Duma", "lon": "-16.3333333"}, {"lat": "13.3188889", "city": "Bafuloto", "lon": "-16.6275"}, {"lat": "13.4397222", "city": "Bafulotor", "lon": "-16.3163889"}, {"lat": "13.6166667", "city": "Bahdad", "lon": "-15.1"}, {"lat": "13.5713889", "city": "Bahoom", "lon": "-16.3286111"}, {"lat": "13.1869444", "city": "Baijana", "lon": "-16.3983333"}, {"lat": "13.2666667", "city": "Baijangkortor", "lon": "-15.9"}, {"lat": "13.6666667", "city": "Baintengkay", "lon": "-15.4"}, {"lat": "13.1761111", "city": "Baipal", "lon": "-16.0997222"}, {"lat": "13.6", "city": "Baitit Mamu Fana", "lon": "-15.1166667"}, {"lat": "13.1933333", "city": "Bajagar", "lon": "-16.1813889"}, {"lat": "13.2094444", "city": "Bajagar Dumbutu", "lon": "-16.1180556"}, {"lat": "13.1944444", "city": "Bajagar Jola", "lon": "-16.1188889"}, {"lat": "13.1869444", "city": "Bajana", "lon": "-16.3983333"}, {"lat": "13.2152778", "city": "Baji Kunda", "lon": "-16.0558333"}, {"lat": "13.21", "city": "Bajilo", "lon": "-16.2141667"}, {"lat": "13.2833333", "city": "Bajiran", "lon": "-15.9666667"}, {"lat": "13.2297222", "city": "Bajong Koto", "lon": "-16.6494444"}, {"lat": "13.4116667", "city": "Bajong Kotor", "lon": "-16.6616667"}, {"lat": "13.23", "city": "Bajonkoto", "lon": "-16.0955556"}, {"lat": "13.4116667", "city": "Bajon Kotor", "lon": "-16.6616667"}, {"lat": "13.4216667", "city": "Bakalari", "lon": "-16.4266667"}, {"lat": "13.4216667", "city": "Bakalarr", "lon": "-16.4266667"}, {"lat": "13.2388889", "city": "Bakary Sambou", "lon": "-16.6441667"}, {"lat": "13.4780556", "city": "Bakau", "lon": "-16.6819444"}, {"lat": "13.3244444", "city": "Bakau Kunku", "lon": "-16.8008333"}, {"lat": "13.47", "city": "Bakau NDing", "lon": "-16.6836111"}, {"lat": "13.4561111", "city": "Bakendik", "lon": "-16.4536111"}, {"lat": "13.4561111", "city": "Bakkendik", "lon": "-16.4536111"}, {"lat": "13.4216667", "city": "Bakolar", "lon": "-16.4266667"}, {"lat": "13.4658333", "city": "Bakote", "lon": "-16.7002778"}, {"lat": "13.43", "city": "Bakoteh", "lon": "-16.6983333"}, {"lat": "13.43", "city": "Bakoti", "lon": "-16.6983333"}, {"lat": "13.43", "city": "Bakotti", "lon": "-16.6983333"}, {"lat": "13.2833333", "city": "Ba Kunda", "lon": "-15.25"}, {"lat": "13.6666667", "city": "Balangar", "lon": "-15.3666667"}, {"lat": "13.6666667", "city": "Balanghar", "lon": "-15.3666667"}, {"lat": "13.6666667", "city": "Balanghar Ker N'Derry", "lon": "-15.4"}, {"lat": "13.6666667", "city": "Balanghar Njoben", "lon": "-15.4166667"}, {"lat": "13.6666667", "city": "Balanghar Wharf Town", "lon": "-15.3666667"}, {"lat": "13.6666667", "city": "Ballangar", "lon": "-15.4"}, {"lat": "13.1661111", "city": "Ballen", "lon": "-16.0947222"}, {"lat": "13.6333333", "city": "Bamba", "lon": "-15.2833333"}, {"lat": "13.5666667", "city": "Bamba Jallow", "lon": "-15.3166667"}, {"lat": "13.4", "city": "Bambaka", "lon": "-15.7666667"}, {"lat": "13.4", "city": "Bambako", "lon": "-15.7666667"}, {"lat": "13.6166667", "city": "Bambako Kura", "lon": "-15.3"}, {"lat": "13.6", "city": "Bamba Kolon", "lon": "-15.1333333"}, {"lat": "13.6", "city": "Bamba Kolong", "lon": "-15.1333333"}, {"lat": "13.0841667", "city": "Bandinto", "lon": "-16.7436111"}, {"lat": "13.5061111", "city": "Bangali", "lon": "-16.4122222"}, {"lat": "13.4833333", "city": "Bangaly", "lon": "-16.45"}, {"lat": "13.7", "city": "Bangherr", "lon": "-15.2666667"}, {"lat": "13.3255556", "city": "Baniakan", "lon": "-16.7475"}, {"lat": "13.3255556", "city": "Baniakang", "lon": "-16.7475"}, {"lat": "13.4166667", "city": "Bani Bajenko", "lon": "-15.2333333"}, {"lat": "13.3733333", "city": "Banjul NDing", "lon": "-16.6572222"}, {"lat": "13.4166667", "city": "Banniba Jonki", "lon": "-15.2333333"}, {"lat": "13.3441667", "city": "Bantam Bilo", "lon": "-16.7152778"}, {"lat": "13.5880556", "city": "Bantanding", "lon": "-16.2552778"}, {"lat": "13.5833333", "city": "Bantanding Sancha", "lon": "-16.2833333"}, {"lat": "13.5880556", "city": "Bantanding Toranka", "lon": "-16.2552778"}, {"lat": "13.3452778", "city": "Bantang Killing", "lon": "-16.4147222"}, {"lat": "13.65", "city": "Bantang Koto", "lon": "-15.3"}, {"lat": "13.2833333", "city": "Bantanjang", "lon": "-15.95"}, {"lat": "13.7", "city": "Bantanta", "lon": "-15.25"}, {"lat": "13.5833333", "city": "Bantanto", "lon": "-15.15"}, {"lat": "13.7", "city": "Bantanto Ebrima Kah", "lon": "-15.25"}, {"lat": "13.7", "city": "Bantanto Jawara Jallow", "lon": "-15.25"}, {"lat": "13.6833333", "city": "Bantanto Ker Daburi", "lon": "-15.2333333"}, {"lat": "13.7", "city": "Bantanto Ker Daburie", "lon": "-15.25"}, {"lat": "13.7", "city": "Bantanto Ker Ebrima Kah", "lon": "-15.25"}, {"lat": "13.7", "city": "Bantanto Ker Olai", "lon": "-15.2333333"}, {"lat": "13.7", "city": "Bantanto Ker Oldi", "lon": "-15.2666667"}, {"lat": "13.6833333", "city": "Bantanto Ker Samba Olo", "lon": "-15.2333333"}, {"lat": "13.7", "city": "Bantanto Ker Sulay", "lon": "-15.2333333"}, {"lat": "13.7", "city": "Bantanto Musa Bah", "lon": "-15.25"}, {"lat": "13.3333333", "city": "Baria", "lon": "-16.4"}, {"lat": "13.4833333", "city": "Baro Kunda", "lon": "-15.2666667"}, {"lat": "13.4833333", "city": "Baro Kunda Tenda", "lon": "-15.3"}, {"lat": "13.4902778", "city": "Barrinding", "lon": "-16.4644444"}, {"lat": "13.2302778", "city": "Barrow Kunda", "lon": "-16.0669444"}, {"lat": "13.4833333", "city": "Barukunda", "lon": "-15.2666667"}, {"lat": "13.2255556", "city": "Basori", "lon": "-16.5919444"}, {"lat": "13.1663889", "city": "Bassen Kansana", "lon": "-16.0627778"}, {"lat": "13.2255556", "city": "Bassori", "lon": "-16.5919444"}, {"lat": "13.4", "city": "Batelling", "lon": "-15.85"}, {"lat": "13.1819444", "city": "Batena", "lon": "-16.2163889"}, {"lat": "13.5833333", "city": "Bati", "lon": "-15.1333333"}, {"lat": "13.7", "city": "Bati Hai", "lon": "-15.2"}, {"lat": "13.75", "city": "Bati Jaha", "lon": "-15.1166667"}, {"lat": "13.7166667", "city": "Bati Jama Gen", "lon": "-15.2"}, {"lat": "13.7", "city": "Bati N'Da", "lon": "-15.2"}, {"lat": "13.7", "city": "Bati Ndar", "lon": "-15.2"}, {"lat": "13.7166667", "city": "Bati Yungo", "lon": "-15.2"}, {"lat": "13.1530556", "city": "Batori Sateh", "lon": "-16.7788889"}, {"lat": "13.1530556", "city": "Bator Sateh", "lon": "-16.7788889"}, {"lat": "13.2063889", "city": "Battabut", "lon": "-16.16"}, {"lat": "13.1936111", "city": "Battabut Denelu", "lon": "-16.1536111"}, {"lat": "13.2063889", "city": "Battabut Kantora", "lon": "-16.16"}, {"lat": "13.4", "city": "Battelling", "lon": "-15.85"},