{"GT": {"02": [{"lat": "14.916667", "city": "Agua Caliente", "lon": "-90.4"}, {"lat": "14.933333", "city": "Agua Tibia", "lon": "-90.466667"}, {"lat": "14.983333", "city": "Balamch\u00e9", "lon": "-90.533333"}, {"lat": "14.983333", "city": "Balanch\u00e9", "lon": "-90.533333"}, {"lat": "15.183333", "city": "Buena Vista", "lon": "-90.45"}, {"lat": "14.916667", "city": "Buen Retiro", "lon": "-90.583333"}, {"lat": "15", "city": "Cabrera", "lon": "-90.566667"}, {"lat": "15.15", "city": "Cachil", "lon": "-90.25"}, {"lat": "15.183333", "city": "Camalmapa", "lon": "-90.416667"}, {"lat": "15.216667", "city": "Canch\u00f3n", "lon": "-90.433333"}, {"lat": "15.216667", "city": "Canch\u00fan", "lon": "-90.433333"}, {"lat": "14.933333", "city": "Capucalito", "lon": "-89.25"}, {"lat": "14.916667", "city": "Casas Viejas", "lon": "-90.55"}, {"lat": "14.966667", "city": "Chag\u00fcite", "lon": "-90.233333"}, {"lat": "14.883333", "city": "Chav\u00e1", "lon": "-90.316667"}, {"lat": "15.1", "city": "Chiac", "lon": "-90.516667"}, {"lat": "15.266667", "city": "Chicholom", "lon": "-90.35"}, {"lat": "15.266667", "city": "Chichul\u00f3n", "lon": "-90.35"}, {"lat": "15.05", "city": "Chichupac", "lon": "-90.433333"}, {"lat": "15.183333", "city": "Chichuxt\u00edn", "lon": "-90.6"}, {"lat": "15.166667", "city": "Chihul", "lon": "-90.616667"}, {"lat": "15.116667", "city": "Chilasc\u00f3", "lon": "-90.1"}, {"lat": "15.1", "city": "Chirrum\u00e1n", "lon": "-90.566667"}, {"lat": "15.05", "city": "Chirrum", "lon": "-90.45"}, {"lat": "15.166667", "city": "Chisantiago", "lon": "-90.666667"}, {"lat": "15.166667", "city": "Chitanil", "lon": "-90.7"}, {"lat": "15.083333", "city": "Chiticoy", "lon": "-90.416667"}, {"lat": "15.2", "city": "Chituc\u00e1n", "lon": "-90.5"}, {"lat": "15.166667", "city": "Chi\u00fal", "lon": "-90.616667"}, {"lat": "14.933333", "city": "Chivac", "lon": "-90.416667"}, {"lat": "15.083333", "city": "Chotocoy", "lon": "-90.416667"}, {"lat": "15.083333", "city": "Chuachacalt\u00e9", "lon": "-90.683333"}, {"lat": "15.083333", "city": "Chuachuacalt\u00e9", "lon": "-90.683333"}, {"lat": "14.983333", "city": "Chuac\u00fas", "lon": "-90.316667"}, {"lat": "14.983333", "city": "Chuacusito", "lon": "-90.333333"}, {"lat": "14.983333", "city": "Chuapec", "lon": "-90.633333"}, {"lat": "14.966667", "city": "Chumum\u00fas", "lon": "-90.5"}, {"lat": "14.983333", "city": "Chupadero Chuac\u00fas", "lon": "-90.316667"}, {"lat": "14.916667", "city": "Chupadero", "lon": "-90.466667"}, {"lat": "14.916667", "city": "Ci\u00e9naga Larga", "lon": "-90.566667"}, {"lat": "14.866667", "city": "Concu\u00e1", "lon": "-90.583333"}, {"lat": "15.016667", "city": "Concul", "lon": "-90.533333"}, {"lat": "15.016667", "city": "Conculito", "lon": "-90.533333"}, {"lat": "14.933333", "city": "Coyol Seco", "lon": "-90.55"}, {"lat": "15.133333", "city": "Cubulco", "lon": "-90.583333"}, {"lat": "15.15", "city": "Cumbre", "lon": "-90.166667"}, {"lat": "15.15", "city": "Cumbre del Carpintero", "lon": "-90.166667"}, {"lat": "14.95", "city": "Cure\u00f1as", "lon": "-90.383333"}, {"lat": "15.083333", "city": "Dolores", "lon": "-90.333333"}, {"lat": "14.966667", "city": "Durazno", "lon": "-90.55"}, {"lat": "14.95", "city": "El Aguacate", "lon": "-90.483333"}, {"lat": "14.883333", "city": "El Amate", "lon": "-90.383333"}, {"lat": "14.983333", "city": "El Amatillo", "lon": "-90.483333"}, {"lat": "14.933333", "city": "El Anono", "lon": "-90.416667"}, {"lat": "15", "city": "El Apazote", "lon": "-90.466667"}, {"lat": "15.033333", "city": "El Astillero", "lon": "-90.233333"}, {"lat": "15.05", "city": "El Cacao", "lon": "-90.283333"}, {"lat": "14.933333", "city": "El Camote", "lon": "-90.266667"}, {"lat": "14.933333", "city": "El Capucalito", "lon": "-89.25"}, {"lat": "15.15", "city": "El Carmen", "lon": "-90.233333"}, {"lat": "14.966667", "city": "El Carrizal", "lon": "-90.316667"}, {"lat": "14.966667", "city": "El Chag\u00fcite", "lon": "-90.233333"}, {"lat": "14.9", "city": "El Chaparro", "lon": "-90.583333"}, {"lat": "14.964167", "city": "El Chol", "lon": "-90.480556"}, {"lat": "14.916667", "city": "El Chupadero", "lon": "-90.316667"}, {"lat": "14.966667", "city": "El Ciruelillo", "lon": "-90.466667"}, {"lat": "14.966667", "city": "El Colmenar", "lon": "-90.566667"}, {"lat": "14.933333", "city": "El Conacaste", "lon": "-90.516667"}, {"lat": "14.933333", "city": "El Cuje", "lon": "-90.35"}, {"lat": "14.95", "city": "El Divisadero", "lon": "-90.3"}, {"lat": "14.966667", "city": "El Durazno", "lon": "-90.55"}, {"lat": "14.983333", "city": "El Guachipil\u00edn", "lon": "-90.516667"}, {"lat": "14.903056", "city": "El Guapinol", "lon": "-90.541111"}, {"lat": "15.016667", "city": "El J\u00edcaro", "lon": "-90.2"}, {"lat": "14.883333", "city": "El Jute", "lon": "-90.383333"}, {"lat": "14.95", "city": "El Nance", "lon": "-90.3"}, {"lat": "14.933333", "city": "El Oratorio", "lon": "-90.533333"}, {"lat": "14.933333", "city": "El Paujil", "lon": "-90.3"}, {"lat": "14.966667", "city": "El Pe\u00f1asco", "lon": "-90.566667"}, {"lat": "14.933333", "city": "El Pi\u00f1onal", "lon": "-90.3"}, {"lat": "14.983333", "city": "El Pizote", "lon": "-90.55"}, {"lat": "15.133333", "city": "El Progreso", "lon": "-90.366667"}, {"lat": "14.966667", "city": "El Quequexcal", "lon": "-90.4"}, {"lat": "14.933333", "city": "El Rancho", "lon": "-90.6"}, {"lat": "14.916667", "city": "El Reguero", "lon": "-90.6"}, {"lat": "15.216667", "city": "El Retiro", "lon": "-90.216667"}, {"lat": "15.033333", "city": "El Rinc\u00f3n", "lon": "-90.333333"}, {"lat": "14.95", "city": "El Rodeo", "lon": "-90.316667"}, {"lat": "14.883333", "city": "El Saral", "lon": "-90.333333"}, {"lat": "14.95", "city": "El Tabloncito", "lon": "-90.483333"}, {"lat": "15.15", "city": "El Tempisque", "lon": "-90.35"}, {"lat": "14.983333", "city": "El Terrero", "lon": "-90.216667"}, {"lat": "14.95", "city": "El Trapichito", "lon": "-90.266667"}, {"lat": "14.933333", "city": "El Zapote", "lon": "-90.4"}, {"lat": "14.9", "city": "El Zapotillo", "lon": "-90.383333"}, {"lat": "14.883333", "city": "Estancia de Garc\u00eda", "lon": "-90.566667"}, {"lat": "14.9", "city": "Estancia Grande", "lon": "-90.366667"}, {"lat": "14.913611", "city": "Granados", "lon": "-90.522778"}, {"lat": "14.903056", "city": "Guapinol", "lon": "-90.541111"}, {"lat": "15.25", "city": "Guaynep", "lon": "-90.633333"}, {"lat": "15.033333", "city": "Ixcay\u00e1n", "lon": "-90.316667"}, {"lat": "14.983333", "city": "Ixchel", "lon": "-90.55"}, {"lat": "15.016667", "city": "J\u00edcaro", "lon": "-90.2"}, {"lat": "15.066667", "city": "Jocotes", "lon": "-90.233333"}, {"lat": "15.083333", "city": "Lacand\u00f3n", "lon": "-90.566667"}, {"lat": "14.9", "city": "La Canoa", "lon": "-90.4"}, {"lat": "14.95", "city": "La Ci\u00e9naga", "lon": "-90.466667"}, {"lat": "14.966667", "city": "La Concepci\u00f3n", "lon": "-90.45"}, {"lat": "15.033333", "city": "La Cumbre", "lon": "-90.216667"}, {"lat": "14.883333", "city": "La Estancia de Garc\u00eda", "lon": "-90.566667"}, {"lat": "14.9", "city": "La Estanzuela", "lon": "-90.583333"}, {"lat": "15.183333", "city": "Laguna Chisajcap", "lon": "-90.55"}, {"lat": "14.983333", "city": "La Huerta", "lon": "-90.483333"}, {"lat": "15.116667", "city": "La Laguna", "lon": "-90.633333"}, {"lat": "14.9", "city": "La Lima", "lon": "-90.35"}, {"lat": "15.1", "city": "La Paz", "lon": "-90.25"}, {"lat": "14.983333", "city": "Las Anonas", "lon": "-90.416667"}, {"lat": "14.983333", "city": "Las Azucenas", "lon": "-90.466667"}, {"lat": "14.883333", "city": "Las Burras", "lon": "-90.45"}, {"lat": "14.916667", "city": "Las Ca\u00f1as", "lon": "-90.333333"}, {"lat": "14.916667", "city": "Las Colmenas", "lon": "-90.483333"}, {"lat": "14.95", "city": "Las Cuevas de Llano Grande", "lon": "-90.55"}, {"lat": "14.966667", "city": "Las Cuevas de Salt\u00e1n", "lon": "-90.65"}, {"lat": "14.916667", "city": "Las Cuevas", "lon": "-90.466667"}, {"lat": "14.95", "city": "Las Cure\u00f1as", "lon": "-90.383333"}, {"lat": "14.916667", "city": "Las Dantas", "lon": "-90.55"}, {"lat": "14.916667", "city": "Las Escobas", "lon": "-90.5"}, {"lat": "14.9", "city": "Las Golondrinas", "lon": "-90.466667"}, {"lat": "14.983333", "city": "Las Limas", "lon": "-90.25"}, {"lat": "14.966667", "city": "Las Palmas", "lon": "-90.366667"}, {"lat": "14.883333", "city": "Las Piedras", "lon": "-90.366667"}, {"lat": "14.999722", "city": "Las Tapias", "lon": "-90.201111"}, {"lat": "14.916667", "city": "Las Tejas", "lon": "-90.4"}, {"lat": "14.883333", "city": "Las Tintas", "lon": "-90.366667"}, {"lat": "14.933333", "city": "Las Vainillas", "lon": "-90.45"}, {"lat": "14.983333", "city": "Las Vegas de San Luis", "lon": "-90.433333"}, {"lat": "15.166667", "city": "Las Vegas", "lon": "-90.55"}, {"lat": "15.066667", "city": "Las Ventanas", "lon": "-90.516667"}, {"lat": "14.916667", "city": "Las Vigas", "lon": "-90.3"}, {"lat": "14.916667", "city": "La Tejera", "lon": "-90.55"}, {"lat": "15.2", "city": "La Uni\u00f3n Barrios", "lon": "-90.166667"}, {"lat": "15.2", "city": "La Uni\u00f3n", "lon": "-90.166667"}, {"lat": "14.916667", "city": "Limones", "lon": "-90.55"}, {"lat": "14.933333", "city": "Llano Grande", "lon": "-90.566667"}, {"lat": "14.943333", "city": "Llano Vargo", "lon": "-90.366667"}, {"lat": "14.933333", "city": "Lo de Orrego", "lon": "-90.6"}, {"lat": "14.933333", "city": "Lo de Ortiz", "lon": "-90.6"}, {"lat": "14.9", "city": "Lo de Reyes", "lon": "-90.466667"}, {"lat": "14.883333", "city": "Los Algodones", "lon": "-90.35"}, {"lat": "14.95", "city": "Los Amates", "lon": "-90.45"}, {"lat": "14.95", "city": "Los \u00c1ngeles", "lon": "-90.366667"}, {"lat": "14.9", "city": "Los Cerritos", "lon": "-90.583333"}, {"lat": "14.95", "city": "Los Cimientos", "lon": "-90.55"}, {"lat": "14.933333", "city": "Los Corralitos", "lon": "-90.333333"}, {"lat": "14.966667", "city": "Los Cuervos", "lon": "-90.55"}, {"lat": "14.883333", "city": "Los Encuentros", "lon": "-90.4"}, {"lat": "14.95", "city": "Los Jobos", "lon": "-90.433333"}, {"lat": "15.066667", "city": "Los Jocotes", "lon": "-90.233333"}, {"lat": "14.916667", "city": "Los Limones", "lon": "-90.55"}, {"lat": "14.933333", "city": "Los Lochuyes", "lon": "-90.483333"}, {"lat": "14.983333", "city": "Los Magueyes", "lon": "-90.433333"}, {"lat": "14.9", "city": "Los Paxtes", "lon": "-90.35"}, {"lat": "15.05", "city": "Los Pinos", "lon": "-90.3"}, {"lat": "14.883333", "city": "Los Pozos", "lon": "-90.583333"}, {"lat": "14.966667", "city": "Majadas", "lon": "-90.35"}, {"lat": "14.933333", "city": "Maneadero", "lon": "-90.3"}, {"lat": "15.1", "city": "Matanzas", "lon": "-90.2"}, {"lat": "15.116667", "city": "Matasano", "lon": "-90.166667"}, {"lat": "15.25", "city": "Mocoh\u00e1n", "lon": "-90.266667"}, {"lat": "15.25", "city": "Moj\u00f3n Panim\u00e1", "lon": "-90.083333"}, {"lat": "14.9", "city": "Nance Dulce", "lon": "-90.6"}, {"lat": "14.983333", "city": "Neocopote", "lon": "-90.3"}, {"lat": "15.116667", "city": "Nimacabaj", "lon": "-90.516667"}, {"lat": "15.166667", "city": "Ni\u00f1o Perdido", "lon": "-90.1"}, {"lat": "15.25", "city": "Nocohan", "lon": "-90.266667"}, {"lat": "14.916667", "city": "Ojo de Agua", "lon": "-90.483333"}, {"lat": "14.966667", "city": "Ojos de Agua", "lon": "-90.633333"}, {"lat": "15.116667", "city": "Pachalum", "lon": "-90.4"}, {"lat": "14.916667", "city": "Pachaluncito", "lon": "-90.616667"}, {"lat": "14.966667", "city": "Pachojob", "lon": "-90.633333"}, {"lat": "15", "city": "Pacoc", "lon": "-90.5"}, {"lat": "15.033333", "city": "Pahoj", "lon": "-90.483333"}, {"lat": "15.05", "city": "Pal\u00e1", "lon": "-90.666667"}, {"lat": "14.933333", "city": "Palo Corcovado", "lon": "-90.55"}, {"lat": "15.133333", "city": "Palo Verde", "lon": "-90.216667"}, {"lat": "14.983333", "city": "Pamacal", "lon": "-90.55"}, {"lat": "15.266667", "city": "Pancajoc", "lon": "-90.033333"}, {"lat": "15.3", "city": "Panchisivia", "lon": "-89.95"}, {"lat": "15.233333", "city": "Panim\u00e1", "lon": "-90.2"}, {"lat": "15.233333", "city": "Panimaquito", "lon": "-90.2"}, {"lat": "15.266667", "city": "Panjach\u00e9", "lon": "-90.033333"}, {"lat": "15.283333", "city": "Pansal", "lon": "-90.15"}, {"lat": "15.266667", "city": "Pant\u00edn", "lon": "-90.283333"}, {"lat": "15.283333", "city": "Panzal", "lon": "-90.15"}, {"lat": "15.033333", "city": "Paoj", "lon": "-90.483333"}, {"lat": "15.166667", "city": "Patixl\u00e1n", "lon": "-90.55"}, {"lat": "14.983333", "city": "Patzic\u00eda", "lon": "-90.45"}, {"lat": "15.1", "city": "Patzijom", "lon": "-90.75"}, {"lat": "15.083333", "city": "Paxoc\u00f3n", "lon": "-90.55"}, {"lat": "15.05", "city": "Payaque", "lon": "-90.266667"}, {"lat": "15.25", "city": "Pe\u00f1a del \u00c1ngel", "lon": "-90.15"}, {"lat": "15.116667", "city": "Pichec", "lon": "-90.533333"}, {"lat": "14.966667", "city": "Piedra Grande", "lon": "-90.366667"}, {"lat": "14.966667", "city": "Plan de Los Achiotes", "lon": "-90.25"}, {"lat": "14.966667", "city": "Plan de Manzo", "lon": "-90.6"}, {"lat": "14.966667", "city": "Plan de Robles", "lon": "-90.533333"}, {"lat": "14.983333", "city": "Plan Grande", "lon": "-90.516667"}, {"lat": "14.966667", "city": "Plan Redondo", "lon": "-90.25"}, {"lat": "14.933333", "city": "Poc\u00f3", "lon": "-90.483333"}, {"lat": "15.116667", "city": "Pomiscalch\u00e9", "lon": "-90.65"}, {"lat": "14.883333", "city": "Potreritos", "lon": "-90.466667"}, {"lat": "14.9", "city": "Potrero Espa\u00f1ol", "lon": "-90.533333"}, {"lat": "14.9", "city": "Potrero Grande", "lon": "-90.533333"}, {"lat": "14.933333", "city": "Pozo de Agua", "lon": "-90.25"}, {"lat": "15.266667", "city": "Purulh\u00e1", "lon": "-90.2"}, {"lat": "15.183333", "city": "Rabinal\u00e1", "lon": "-90.716667"}, {"lat": "15.1", "city": "Rabinal", "lon": "-90.45"}, {"lat": "14.933333", "city": "Rancho de Teja", "lon": "-90.583333"}, {"lat": "14.95", "city": "Rancho Viejo", "lon": "-90.283333"}, {"lat": "15.066667", "city": "Raxjul", "lon": "-90.5"}, {"lat": "15.066667", "city": "Raxjut", "lon": "-90.5"}, {"lat": "15.15", "city": "Rinc\u00f3n del Jud\u00edo", "lon": "-90.233333"}, {"lat": "15.033333", "city": "Rinc\u00f3n Grande", "lon": "-90.333333"}, {"lat": "15.15", "city": "Rinc\u00f3n Jud\u00edo", "lon": "-90.233333"}, {"lat": "15.033333", "city": "Rinc\u00f3n", "lon": "-90.333333"}, {"lat": "15.266667", "city": "R\u00edo Negro", "lon": "-90.516667"}, {"lat": "14.966667", "city": "Rodeo", "lon": "-90.65"}, {"lat": "15.1", "city": "Salam\u00e1", "lon": "-90.266667"}, {"lat": "15.3", "city": "Salam", "lon": "-90.266667"}, {"lat": "14.9", "city": "Salt\u00e1n", "lon": "-90.6"}, {"lat": "14.933333", "city": "San Antonio Chivac", "lon": "-90.416667"}, {"lat": "14.983333", "city": "San Antonio El Sitio", "lon": "-90.233333"}, {"lat": "14.916667", "city": "San Antonio", "lon": "-90.516667"}, {"lat": "14.9", "city": "San Diego", "lon": "-90.55"}, {"lat": "14.95", "city": "San Francisco", "lon": "-90.466667"}, {"lat": "15.15", "city": "San Gabriel Pansuy", "lon": "-90.416667"}, {"lat": "15.15", "city": "San Gabriel", "lon": "-90.416667"}, {"lat": "15.05", "city": "San Ignacio", "lon": "-90.316667"}, {"lat": "14.966667", "city": "San Isidro", "lon": "-90.466667"}, {"lat": "14.933333", "city": "San Jacinto", "lon": "-90.4"}, {"lat": "15.05", "city": "San Jer\u00f3nimo", "lon": "-90.2"}, {"lat": "15.166667", "city": "San Jos\u00e9 El Espinero", "lon": "-90.15"}, {"lat": "14.9", "city": "San Jos\u00e9 Suchicul", "lon": "-90.516667"}, {"lat": "15.1", "city": "San Juan", "lon": "-90.25"}, {"lat": "15.033333", "city": "San Luis", "lon": "-90.366667"}, {"lat": "15.1", "city": "San Miguel Chicaj", "lon": "-90.4"}, {"lat": "14.95", "city": "San Miguelito", "lon": "-90.316667"}, {"lat": "14.966667", "city": "San Nicol\u00e1s", "lon": "-90.533333"}, {"lat": "14.916667", "city": "San Pedro", "lon": "-90.466667"}, {"lat": "15.016667", "city": "San Rafael", "lon": "-90.383333"}, {"lat": "15.066667", "city": "Santa B\u00e1rbara", "lon": "-90.183333"}, {"lat": "15.066667", "city": "Santa Catarina Arriba", "lon": "-90.083333"}, {"lat": "14.964167", "city": "Santa Cruz El Chol", "lon": "-90.480556"}, {"lat": "15.1", "city": "Santa Cruz", "lon": "-90.083333"}, {"lat": "14.970278", "city": "Santa In\u00e9s Chivac", "lon": "-90.395278"}, {"lat": "14.933333", "city": "Santa Luc\u00eda Lochuyes", "lon": "-90.466667"}, {"lat": "14.95", "city": "Santa Luc\u00eda", "lon": "-90.483333"}, {"lat": "14.933333", "city": "Santa Luc\u00eda Segundo", "lon": "-90.466667"}, {"lat": "14.9", "city": "Santa Rita", "lon": "-90.533333"}, {"lat": "14.9", "city": "Santa Rosa", "lon": "-90.516667"}, {"lat": "15.033333", "city": "Seabaj", "lon": "-90.433333"}, {"lat": "15.216667", "city": "Sinanj\u00e1", "lon": "-90.066667"}, {"lat": "14.9", "city": "Suchicul", "lon": "-90.5"}, {"lat": "15.116667", "city": "Sut\u00fan", "lon": "-90.55"}, {"lat": "15.083333", "city": "Tasqueg\u00fcite", "lon": "-90.183333"}, {"lat": "15.083333", "city": "Tasquehuite", "lon": "-90.183333"}, {"lat": "14.916667", "city": "Tejas", "lon": "-90.4"}, {"lat": "15.15", "city": "Tempisque", "lon": "-90.35"}, {"lat": "14.983333", "city": "Terrero", "lon": "-90.216667"}, {"lat": "14.95", "city": "Trapiche de Agua", "lon": "-90.366667"}, {"lat": "14.966667", "city": "Trapiche Viejo", "lon": "-90.483333"}, {"lat": "14.933333", "city": "Trapichito", "lon": "-90.533333"}, {"lat": "14.916667", "city": "Trapichito Viejo", "lon": "-90.45"}, {"lat": "14.983333", "city": "Tuncaj", "lon": "-90.616667"}, {"lat": "15.2", "city": "Uni\u00f3n Barrios", "lon": "-90.166667"}, {"lat": "15.2", "city": "Uni\u00f3n", "lon": "-90.166667"}, {"lat": "14.933333", "city": "Vainillas", "lon": "-90.266667"}, {"lat": "14.883333", "city": "Vega de la Hamaca", "lon": "-90.466667"}, {"lat": "14.883333", "city": "Vega del Almendro", "lon": "-90.466667"}, {"lat": "15", "city": "Vega del Chile", "lon": "-90.216667"}, {"lat": "14.883333", "city": "Vega del Lim\u00f3n", "lon": "-90.466667"}, {"lat": "14.933333", "city": "Vega del Sandial", "lon": "-90.316667"}, {"lat": "15", "city": "Vegas del Chile", "lon": "-90.216667"}, {"lat": "15.15", "city": "Vegas de Santo Domingo", "lon": "-90.516667"}, {"lat": "15.15", "city": "Vegas Santo Domingo", "lon": "-90.516667"}, {"lat": "15.033333", "city": "Xeabaj", "lon": "-90.433333"}, {"lat": "15.05", "city": "Xebalamguac", "lon": "-90.683333"}, {"lat": "15.05", "city": "Xebalanguac", "lon": "-90.683333"}, {"lat": "15.15", "city": "Xeococ", "lon": "-90.55"}, {"lat": "15.216667", "city": "Xinacat\u00ed", "lon": "-90.6"}, {"lat": "15.15", "city": "Xococ", "lon": "-90.55"}, {"lat": "15.133333", "city": "Xolacoy", "lon": "-90.566667"}, {"lat": "15.133333", "city": "Xolcoy", "lon": "-90.566667"}, {"lat": "14.983333", "city": "Yascap", "lon": "-90.5"}, {"lat": "15.183333", "city": "Yerbabuena", "lon": "-90.8"}], "03": [{"lat": "14.551944", "city": "Acatenango", "lon": "-90.942222"}, {"lat": "14.816667", "city": "Acualchey\u00e1", "lon": "-90.9"}, {"lat": "14.8", "city": "Agua Caliente", "lon": "-90.85"}, {"lat": "14.6", "city": "Aguacate", "lon": "-90.833333"}, {"lat": "14.816667", "city": "Agua Escondida", "lon": "-91.033333"}, {"lat": "14.8", "city": "Ajbalch\u00e9", "lon": "-90.733333"}, {"lat": "14.483333", "city": "Aurora", "lon": "-90.883333"}, {"lat": "14.7", "city": "Bola de Oro", "lon": "-90.8"}, {"lat": "14.866667", "city": "Brasilar", "lon": "-90.65"}, {"lat": "14.516667", "city": "Buena Vista", "lon": "-91.033333"}, {"lat": "14.75", "city": "Caliaj", "lon": "-91.083333"}, {"lat": "14.683333", "city": "Cam\u00e1n", "lon": "-90.933333"}, {"lat": "14.733333", "city": "Cambalcol", "lon": "-90.816667"}, {"lat": "14.783333", "city": "Caquixajay", "lon": "-91.066667"}, {"lat": "14.7", "city": "Cerro Alto", "lon": "-90.8"}, {"lat": "14.816667", "city": "Chajalajy\u00e1", "lon": "-90.983333"}, {"lat": "14.816667", "city": "Chajalay\u00e1", "lon": "-90.983333"}, {"lat": "14.85", "city": "Chibalo", "lon": "-90.9"}, {"lat": "14.583333", "city": "Chicasanga", "lon": "-90.866667"}, {"lat": "14.783333", "city": "Chicastellanos", "lon": "-90.716667"}, {"lat": "14.583333", "city": "Chicazanga", "lon": "-90.866667"}, {"lat": "14.883333", "city": "Chichac", "lon": "-91"}, {"lat": "14.683333", "city": "Chichoy", "lon": "-91.066667"}, {"lat": "14.8", "city": "Chicojom", "lon": "-90.716667"}, {"lat": "14.783333", "city": "Chidonjuan", "lon": "-90.716667"}, {"lat": "14.783333", "city": "Chigonz\u00e1lez", "lon": "-90.8"}, {"lat": "14.733333", "city": "Chiguarabal", "lon": "-91.033333"}, {"lat": "14.883333", "city": "Chijabaj", "lon": "-90.933333"}, {"lat": "14.866667", "city": "Chijacinto", "lon": "-91.016667"}, {"lat": "14.8", "city": "Chijocom", "lon": "-90.716667"}, {"lat": "14.8", "city": "Chijoc\u00f3n", "lon": "-90.716667"}, {"lat": "14.85", "city": "Chijtzac", "lon": "-90.933333"}, {"lat": "14.566667", "city": "Chimachoy", "lon": "-90.85"}, {"lat": "14.668611", "city": "Chimaltenango", "lon": "-90.816667"}, {"lat": "14.7", "city": "Chimasat", "lon": "-90.95"}, {"lat": "14.85", "city": "Chimixay\u00e1", "lon": "-90.916667"}, {"lat": "14.85", "city": "Chinimachavac", "lon": "-91"}, {"lat": "14.65", "city": "Chinimachicaj", "lon": "-91.066667"}, {"lat": "14.85", "city": "Chipastor", "lon": "-90.666667"}, {"lat": "14.816667", "city": "Chipat\u00e1", "lon": "-90.933333"}, {"lat": "14.816667", "city": "Chipat\u00e1n", "lon": "-90.933333"}, {"lat": "14.666667", "city": "Chipiacul", "lon": "-91.066667"}, {"lat": "14.766667", "city": "Chipocolaj", "lon": "-90.816667"}, {"lat": "14.8", "city": "Chiquex", "lon": "-90.933333"}, {"lat": "14.716667", "city": "Chiquinjuy\u00fa", "lon": "-90.983333"}, {"lat": "14.783333", "city": "Chiraxaj", "lon": "-90.933333"}, {"lat": "14.7", "city": "Chirijuy\u00fa", "lon": "-90.866667"}, {"lat": "14.7", "city": "Chirinjuy\u00fa", "lon": "-90.966667"}, {"lat": "14.666667", "city": "Chisal", "lon": "-91.016667"}, {"lat": "14.783333", "city": "Chit\u00fan", "lon": "-90.716667"}, {"lat": "14.783333", "city": "Chiuleu", "lon": "-90.75"}, {"lat": "14.733333", "city": "Chixolot", "lon": "-91.066667"}, {"lat": "14.816667", "city": "Choatacaj", "lon": "-90.9"}, {"lat": "14.815833", "city": "Choatalum", "lon": "-90.755833"}, {"lat": "14.7", "city": "Chocoyos", "lon": "-91.05"}, {"lat": "14.766667", "city": "Chojom\u00e1", "lon": "-90.783333"}, {"lat": "14.866667", "city": "Chonoxt\u00e9", "lon": "-90.783333"}, {"lat": "14.9", "city": "Chuabaj", "lon": "-90.783333"}, {"lat": "14.9", "city": "Chuabajito", "lon": "-90.8"}, {"lat": "14.783333", "city": "Chuabux", "lon": "-90.966667"}, {"lat": "14.833333", "city": "Chuacacay", "lon": "-90.933333"}, {"lat": "14.8", "city": "Chuachinub", "lon": "-90.716667"}, {"lat": "14.8", "city": "Chuach\u00fan", "lon": "-90.966667"}, {"lat": "14.8", "city": "Chuachunub", "lon": "-90.716667"}, {"lat": "14.8", "city": "Chuajercoc", "lon": "-90.95"}, {"lat": "14.8", "city": "Chuantonio", "lon": "-90.95"}, {"lat": "14.8", "city": "Chuaparal", "lon": "-90.966667"}, {"lat": "14.633333", "city": "Chuaquen\u00fan", "lon": "-91.066667"}, {"lat": "14.633333", "city": "Chuaquer\u00fan", "lon": "-91.066667"}, {"lat": "14.916667", "city": "Chuaracanjay", "lon": "-90.983333"}, {"lat": "14.815833", "city": "Chuatalum", "lon": "-90.755833"}, {"lat": "14.733333", "city": "Chuatz\u00e1n", "lon": "-91.016667"}, {"lat": "14.733333", "city": "Chuatzunuj", "lon": "-91.033333"}, {"lat": "14.816667", "city": "Chuax\u00e1n", "lon": "-90.733333"}, {"lat": "14.783333", "city": "Chubixac", "lon": "-90.883333"}, {"lat": "14.666667", "city": "Chuchuc\u00e1", "lon": "-91.05"}, {"lat": "14.8", "city": "Chuicubal", "lon": "-90.966667"}, {"lat": "14.666667", "city": "Chuiquel", "lon": "-91.033333"}, {"lat": "14.783333", "city": "Chuisac", "lon": "-90.816667"}, {"lat": "14.75", "city": "Chutiabajal", "lon": "-90.95"}, {"lat": "14.7", "city": "Ci\u00e9naga Grande", "lon": "-90.783333"}, {"lat": "14.65", "city": "Cojobal", "lon": "-90.966667"}, {"lat": "14.716667", "city": "Cojoljuy\u00fa", "lon": "-90.883333"}, {"lat": "14.866667", "city": "Cojomachoj", "lon": "-90.766667"}, {"lat": "14.741111", "city": "Comalapa", "lon": "-90.8875"}, {"lat": "14.9", "city": "Coyotera", "lon": "-90.883333"}, {"lat": "14.816667", "city": "Crusincoy", "lon": "-90.95"}, {"lat": "14.716667", "city": "Cruz de Santiago", "lon": "-91"}, {"lat": "14.766667", "city": "Cuchuy\u00e1", "lon": "-90.733333"}, {"lat": "14.8", "city": "Don Tom\u00e1s", "lon": "-90.8"}, {"lat": "14.8", "city": "Dulce Nombre", "lon": "-90.8"}, {"lat": "14.6", "city": "El Aguacate", "lon": "-90.833333"}, {"lat": "14.683333", "city": "El Cam\u00e1n", "lon": "-90.933333"}, {"lat": "14.9", "city": "El Capul\u00edn", "lon": "-90.7"}, {"lat": "14.65", "city": "El Cojobal", "lon": "-90.966667"}, {"lat": "14.733333", "city": "El Escudero", "lon": "-90.983333"}, {"lat": "14.8", "city": "El Molino", "lon": "-90.8"}, {"lat": "14.9", "city": "El Naranjo", "lon": "-90.866667"}, {"lat": "14.783333", "city": "El Recuerdo", "lon": "-90.783333"}, {"lat": "14.833333", "city": "El Rinc\u00f3n", "lon": "-90.816667"}, {"lat": "14.7", "city": "El Rosario", "lon": "-90.8"}, {"lat": "14.633333", "city": "El Sit\u00e1n", "lon": "-90.9"}, {"lat": "14.633333", "city": "El Sitio", "lon": "-90.966667"}, {"lat": "14.733333", "city": "El Tabl\u00f3n", "lon": "-91.083333"}, {"lat": "14.883333", "city": "El Tanque", "lon": "-90.866667"}, {"lat": "14.647778", "city": "El Tejar", "lon": "-90.792778"}, {"lat": "14.533333", "city": "El Tesora", "lon": "-90.9"}, {"lat": "14.533333", "city": "El Tesoro", "lon": "-90.9"}, {"lat": "14.616667", "city": "Encuentros", "lon": "-91.033333"}, {"lat": "14.8", "city": "Escobitas", "lon": "-90.7"}, {"lat": "14.783333", "city": "Estancia de La Virgen", "lon": "-90.733333"}, {"lat": "14.883333", "city": "Estancia de San Mart\u00edn", "lon": "-90.766667"}, {"lat": "14.883333", "city": "Estancia San Mart\u00edn", "lon": "-90.766667"}, {"lat": "14.516667", "city": "Finca Buena Vista", "lon": "-91.033333"}, {"lat": "14.766667", "city": "Finca La Ch\u00e1cara", "lon": "-90.8"}, {"lat": "14.416667", "city": "Finca Nimay\u00e1", "lon": "-91.016667"}, {"lat": "14.45", "city": "Finca Pe\u00f1a Plata", "lon": "-91.083333"}, {"lat": "14.6", "city": "Finca San Antonio Panimaqu\u00edn", "lon": "-91.1"}, {"lat": "14.45", "city": "Finca Sangre de Cristo", "lon": "-90.966667"}, {"lat": "14.666667", "city": "Finca San Rafael La Vega", "lon": "-90.983333"}, {"lat": "14.866667", "city": "Hacienda Mar\u00eda", "lon": "-90.9"}, {"lat": "14.866667", "city": "Hacienda Vieja", "lon": "-90.933333"}, {"lat": "14.62", "city": "Itzapa", "lon": "-90.844167"}, {"lat": "14.666667", "city": "Joya Grande", "lon": "-90.883333"}, {"lat": "14.483333", "city": "La Aurora", "lon": "-90.883333"}, {"lat": "14.716667", "city": "Labor de Falla", "lon": "-90.966667"}, {"lat": "14.666667", "city": "La Canoa", "lon": "-90.966667"}, {"lat": "14.766667", "city": "La Ch\u00e1cara", "lon": "-90.8"}, {"lat": "14.916667", "city": "La Comunidad", "lon": "-90.866667"}, {"lat": "14.783333", "city": "La Cruz", "lon": "-90.733333"}, {"lat": "14.883333", "city": "La Cumbre", "lon": "-90.866667"}, {"lat": "14.833333", "city": "La Esperanza", "lon": "-90.833333"}, {"lat": "14.883333", "city": "La Estancia de San Mart\u00edn", "lon": "-90.766667"}, {"lat": "14.916667", "city": "La Garrucha", "lon": "-90.933333"}, {"lat": "14.8", "city": "La Laguna", "lon": "-90.716667"}, {"lat": "14.883333", "city": "La Majada", "lon": "-90.666667"}, {"lat": "14.783333", "city": "La Pedrera", "lon": "-90.783333"}, {"lat": "14.733333", "city": "Las Arenas", "lon": "-90.983333"}, {"lat": "14.8", "city": "Las Cano\u00edtas", "lon": "-90.983333"}, {"lat": "14.833333", "city": "Las Carretas", "lon": "-90.783333"}, {"lat": "14.7", "city": "Las Colmenas", "lon": "-90.85"}, {"lat": "14.866667", "city": "Las Escobas", "lon": "-90.7"}, {"lat": "14.733333", "city": "Las Flores", "lon": "-91.066667"}, {"lat": "14.766667", "city": "Las Lomas", "lon": "-90.816667"}, {"lat": "14.533333", "city": "La Soledad", "lon": "-90.883333"}, {"lat": "14.866667", "city": "Las Piedras", "lon": "-90.683333"}, {"lat": "14.866667", "city": "Las Venturas", "lon": "-90.783333"}, {"lat": "14.666667", "city": "La Vega", "lon": "-90.983333"}, {"lat": "14.783333", "city": "La Virgen", "lon": "-90.733333"}, {"lat": "14.866667", "city": "Llano Grande", "lon": "-90.666667"}, {"lat": "14.7", "city": "Los Chocayos", "lon": "-91.05"}, {"lat": "14.7", "city": "Los Chocoyos", "lon": "-91.05"}, {"lat": "14.783333", "city": "Los Cipresales", "lon": "-90.783333"}, {"lat": "14.616667", "city": "Los Encuentros", "lon": "-91.033333"}, {"lat": "14.8", "city": "Los G\u00e1lvez", "lon": "-90.7"}, {"lat": "14.866667", "city": "Los Jometes", "lon": "-90.8"}, {"lat": "14.7", "city": "Los Llanos", "lon": "-91.016667"}, {"lat": "14.55", "city": "Los Pajales", "lon": "-90.9"}, {"lat": "14.766667", "city": "Los Pinos", "lon": "-90.783333"}, {"lat": "14.566667", "city": "Los Planes", "lon": "-90.916667"}, {"lat": "14.75", "city": "Los Pocitos", "lon": "-90.783333"}, {"lat": "14.883333", "city": "Los Sapitos", "lon": "-90.8"}, {"lat": "14.766667", "city": "Los Sauces", "lon": "-90.8"}, {"lat": "14.75", "city": "Los Tablones", "lon": "-90.783333"}, {"lat": "14.85", "city": "Los Tunayes", "lon": "-90.783333"}, {"lat": "14.783333", "city": "Los Xal\u00edn", "lon": "-90.716667"}, {"lat": "14.783333", "city": "Los Xocoyos", "lon": "-90.8"}, {"lat": "14.7", "city": "Mancher\u00e9n Chiquito", "lon": "-90.833333"}, {"lat": "14.716667", "city": "Mancher\u00e9n Grande", "lon": "-90.833333"}, {"lat": "14.783333", "city": "Mixcolabaj", "lon": "-90.866667"}, {"lat": "14.7", "city": "Mocolixot", "lon": "-91.033333"}, {"lat": "14.783333", "city": "Moj\u00f3n de Comalapa", "lon": "-90.85"}, {"lat": "14.783333", "city": "Naranja", "lon": "-90.766667"}, {"lat": "14.783333", "city": "Naranjo", "lon": "-90.766667"}, {"lat": "14.566667", "city": "Nejapa", "lon": "-90.933333"}, {"lat": "14.416667", "city": "Nimay\u00e1", "lon": "-91.016667"}, {"lat": "14.866667", "city": "Ojercaibal", "lon": "-90.9"}, {"lat": "14.916667", "city": "Pacacay", "lon": "-90.983333"}, {"lat": "14.65", "city": "Pacac", "lon": "-91"}, {"lat": "14.783333", "city": "Pac\u00e1", "lon": "-90.733333"}, {"lat": "14.7", "city": "Pacayalito", "lon": "-91.05"}, {"lat": "14.8", "city": "Pachaj", "lon": "-90.95"}, {"lat": "14.75", "city": "Pachal\u00ed", "lon": "-91.05"}, {"lat": "14.766667", "city": "Pachay", "lon": "-90.816667"}, {"lat": "14.75", "city": "Pachil\u00edn", "lon": "-91.05"}, {"lat": "14.716667", "city": "Pachitur", "lon": "-90.866667"}, {"lat": "14.766667", "city": "Pachumj\u00e1", "lon": "-90.833333"}, {"lat": "14.766667", "city": "Pachum", "lon": "-90.8"}, {"lat": "14.65", "city": "Pacoc", "lon": "-91"}, {"lat": "14.8", "city": "Pacojito", "lon": "-90.733333"}, {"lat": "14.783333", "city": "Pacoj", "lon": "-90.733333"}, {"lat": "14.733333", "city": "Pacorral", "lon": "-90.95"}, {"lat": "14.8", "city": "Pacotoj", "lon": "-90.95"}, {"lat": "14.8", "city": "Pacoxpom", "lon": "-90.716667"}, {"lat": "14.8", "city": "Pacul", "lon": "-90.933333"}, {"lat": "14.783333", "city": "Pacut\u00e1n", "lon": "-90.95"}, {"lat": "14.55", "city": "Pajales", "lon": "-90.9"}, {"lat": "14.683333", "city": "Pajocojic", "lon": "-90.933333"}, {"lat": "14.766667", "city": "Paj\u00f3n", "lon": "-90.783333"}, {"lat": "14.783333", "city": "Palam\u00e1", "lon": "-90.8"}, {"lat": "14.866667", "city": "Paley", "lon": "-90.916667"}, {"lat": "14.433333", "city": "Palimach\u00e9", "lon": "-90.95"}, {"lat": "14.8", "city": "Palim\u00e1", "lon": "-90.883333"}, {"lat": "14.766667", "city": "Pamanzana", "lon": "-90.983333"}, {"lat": "14.866667", "city": "Pamesul", "lon": "-91.016667"}, {"lat": "14.783333", "city": "Pamum\u00fas", "lon": "-90.866667"}, {"lat": "14.733333", "city": "Panabajal", "lon": "-90.933333"}, {"lat": "14.666667", "city": "Panabaj", "lon": "-91.083333"}, {"lat": "14.766667", "city": "Panajabal", "lon": "-90.966667"}, {"lat": "14.85", "city": "Panajijay", "lon": "-90.983333"}, {"lat": "14.883333", "city": "Panatz\u00e1n", "lon": "-90.95"}, {"lat": "14.833333", "city": "Paney\u00e1", "lon": "-90.883333"}, {"lat": "14.766667", "city": "Panimacac", "lon": "-90.966667"}, {"lat": "14.433333", "city": "Panimach\u00e9", "lon": "-90.95"}, {"lat": "14.766667", "city": "Panimacoc", "lon": "-90.966667"}, {"lat": "14.716667", "city": "Panimacorral", "lon": "-90.9"}, {"lat": "14.6", "city": "Panimaquim", "lon": "-91.1"}, {"lat": "14.6", "city": "Panimaqu\u00edn", "lon": "-91.1"}, {"lat": "14.85", "city": "Panimasigu\u00e1n", "lon": "-90.883333"}, {"lat": "14.8", "city": "Panis", "lon": "-90.966667"}, {"lat": "14.783333", "city": "Panochal", "lon": "-90.816667"}, {"lat": "14.75", "city": "Panucuy", "lon": "-90.833333"}, {"lat": "14.766667", "city": "Papumay", "lon": "-90.933333"}, {"lat": "14.8", "city": "Paquechelaj", "lon": "-90.933333"}, {"lat": "14.883333", "city": "Paquib", "lon": "-90.983333"}, {"lat": "14.883333", "city": "Paquip", "lon": "-90.983333"}, {"lat": "14.766667", "city": "Paquixic", "lon": "-90.866667"}, {"lat": "14.783333", "city": "Paquixjuy\u00fa", "lon": "-90.75"}, {"lat": "14.85", "city": "Parajbey", "lon": "-90.95"}, {"lat": "14.733333", "city": "Paraxaj", "lon": "-90.85"}, {"lat": "14.916667", "city": "Paraxquim", "lon": "-91"}, {"lat": "14.916667", "city": "Paraxqu\u00edn", "lon": "-91"}, {"lat": "14.607778", "city": "Parramos", "lon": "-90.803056"}, {"lat": "14.766667", "city": "Parraxiqu\u00edn", "lon": "-90.9"}, {"lat": "14.85", "city": "Paruxech\u00e9", "lon": "-90.866667"}, {"lat": "14.8", "city": "Pasacom", "lon": "-90.8"}, {"lat": "14.816667", "city": "Pasarajmac", "lon": "-90.933333"}, {"lat": "14.8", "city": "Patio Bolas", "lon": "-90.9"}, {"lat": "14.866667", "city": "Patoquer", "lon": "-90.933333"}, {"lat": "14.733333", "city": "Patunaych\u00e9", "lon": "-90.966667"}, {"lat": "14.783333", "city": "Patuy\u00fa", "lon": "-90.766667"}, {"lat": "14.816667", "city": "Patzaj", "lon": "-90.95"}, {"lat": "14.631667", "city": "Patzic\u00eda", "lon": "-90.926944"}, {"lat": "14.8", "city": "Patzunoj", "lon": "-90.966667"}, {"lat": "14.683333", "city": "Patz\u00fan", "lon": "-91.016667"}, {"lat": "14.8", "city": "Pavit", "lon": "-90.883333"}, {"lat": "14.683333", "city": "Paxil\u00f3n", "lon": "-90.933333"}, {"lat": "14.716667", "city": "Paxorotot", "lon": "-90.983333"}, {"lat": "14.766667", "city": "Pay\u00e1", "lon": "-90.916667"}, {"lat": "14.45", "city": "Pe\u00f1a de Plata", "lon": "-91.083333"}, {"lat": "14.45", "city": "Pe\u00f1a Plata", "lon": "-91.083333"}, {"lat": "14.766667", "city": "Pichiquiej", "lon": "-90.866667"}, {"lat": "14.733333", "city": "Pixcay\u00e1", "lon": "-90.783333"}, {"lat": "14.783333", "city": "Platanar", "lon": "-90.766667"}, {"lat": "14.55", "city": "Pochuta", "lon": "-91.083333"}, {"lat": "14.65", "city": "Potrerillos", "lon": "-90.9"}, {"lat": "14.75", "city": "Pueblo Viejo", "lon": "-91"}, {"lat": "14.65", "city": "Puerta Abajo", "lon": "-90.866667"}, {"lat": "14.866667", "city": "Quichelaj", "lon": "-90.783333"}, {"lat": "14.833333", "city": "Quimal", "lon": "-90.766667"}, {"lat": "14.833333", "city": "Quinal", "lon": "-90.766667"}, {"lat": "14.533333", "city": "Quisach\u00e9", "lon": "-90.933333"}, {"lat": "14.866667", "city": "Quisay\u00e1", "lon": "-90.883333"}, {"lat": "14.866667", "city": "Rialey", "lon": "-90.783333"}, {"lat": "14.683333", "city": "Rinconcito", "lon": "-90.9"}, {"lat": "14.683333", "city": "Rinc\u00f3n", "lon": "-90.883333"}, {"lat": "14.916667", "city": "R\u00edo Grande", "lon": "-90.783333"}, {"lat": "14.716667", "city": "Sabalpop", "lon": "-91.033333"}, {"lat": "14.766667", "city": "Sacal\u00e1", "lon": "-90.816667"}, {"lat": "14.816667", "city": "Salamit", "lon": "-90.95"}, {"lat": "14.733333", "city": "Sanabaj", "lon": "-90.966667"}, {"lat": "14.62", "city": "San Andr\u00e9s Itzapa", "lon": "-90.844167"}, {"lat": "14.733333", "city": "San Antonio Las Flores", "lon": "-91.066667"}, {"lat": "14.566667", "city": "San Antonio Nejapa", "lon": "-90.933333"}, {"lat": "14.6", "city": "San Antonio Panimaquin", "lon": "-91.1"}, {"lat": "14.85", "city": "San Antonio", "lon": "-90.683333"}, {"lat": "14.8", "city": "San Francisco", "lon": "-90.766667"}, {"lat": "14.45", "city": "Sangre de Cristo", "lon": "-90.966667"}, {"lat": "14.866667", "city": "San Isidro", "lon": "-90.816667"}, {"lat": "14.716667", "city": "San Jacinto", "lon": "-90.783333"}, {"lat": "14.783333", "city": "Sanjay", "lon": "-90.966667"}, {"lat": "14.733333", "city": "San Jos\u00e9 Las Minas", "lon": "-90.833333"}, {"lat": "14.819722", "city": "San Jos\u00e9 Poaquil", "lon": "-90.906389"}, {"lat": "14.716667", "city": "San Jos\u00e9", "lon": "-90.95"}, {"lat": "14.783333", "city": "San Lucas Choatacaj", "lon": "-90.966667"}, {"lat": "14.787778", "city": "San Mart\u00edn Jilotepeque", "lon": "-90.7925"}, {"lat": "14.883333", "city": "San Mart\u00edn", "lon": "-90.766667"}, {"lat": "14.633333", "city": "San Miguelito", "lon": "-90.766667"}, {"lat": "14.633333", "city": "San Miguel Moraz\u00e1n", "lon": "-90.766667"}, {"lat": "14.8", "city": "San Miguel", "lon": "-90.733333"}, {"lat": "14.504167", "city": "San Pedro Yepocapa", "lon": "-90.956944"}, {"lat": "14.668611", "city": "Santa Ana Chimaltenango", "lon": "-90.816667"}, {"lat": "14.791389", "city": "Santa Apolonia", "lon": "-90.970833"}, {"lat": "14.8", "city": "Santa Clara", "lon": "-90.966667"}, {"lat": "14.687222", "city": "Santa Cruz Balany\u00e1", "lon": "-90.915"}, {"lat": "14.866667", "city": "Santa In\u00e9s", "lon": "-90.683333"}, {"lat": "14.683333", "city": "Santa Isabel", "lon": "-90.8"}, {"lat": "14.833333", "city": "Santa Rosa", "lon": "-90.833333"}, {"lat": "14.8", "city": "Santa Teresita", "lon": "-90.766667"}, {"lat": "14.816667", "city": "Santo Domingo", "lon": "-90.783333"}, {"lat": "14.833333", "city": "Saquitacaj", "lon": "-90.916667"}, {"lat": "14.666667", "city": "Saquiy\u00e1", "lon": "-91.016667"}, {"lat": "14.8", "city": "Sargento", "lon": "-90.816667"}, {"lat": "14.766667", "city": "Sarim\u00e1", "lon": "-90.866667"}, {"lat": "14.8", "city": "Sauces", "lon": "-90.783333"}, {"lat": "14.85", "city": "Semetabaj", "lon": "-90.766667"}, {"lat": "14.8", "city": "Simajuleu", "lon": "-90.85"}, {"lat": "14.533333", "city": "Soledad", "lon": "-90.883333"}, {"lat": "14.733333", "city": "Tanajuy\u00fa", "lon": "-90.816667"}, {"lat": "14.766944", "city": "Tecpam", "lon": "-90.994167"}, {"lat": "14.766944", "city": "Tecp\u00e1n Guatemala", "lon": "-90.994167"}, {"lat": "14.766944", "city": "Tecp\u00e1n", "lon": "-90.994167"}, {"lat": "14.647778", "city": "Tejar", "lon": "-90.792778"}, {"lat": "14.533333", "city": "Tesoro", "lon": "-90.9"}, {"lat": "14.866667", "city": "Tierra Colorada", "lon": "-90.783333"}, {"lat": "14.783333", "city": "Tioxy\u00e1", "lon": "-90.733333"}, {"lat": "14.733333", "city": "Tonajuy\u00fa", "lon": "-90.816667"}, {"lat": "14.783333", "city": "Varituc", "lon": "-90.833333"}, {"lat": "14.75", "city": "Vista Bella", "lon": "-90.966667"}, {"lat": "14.866667", "city": "Vuelta Grande", "lon": "-90.716667"}, {"lat": "14.816667", "city": "Xacax\u00e1", "lon": "-90.983333"}, {"lat": "14.866667", "city": "Xacoxol", "lon": "-90.983333"}, {"lat": "14.683333", "city": "Xatz\u00e1n", "lon": "-91.05"}, {"lat": "14.75", "city": "Xay\u00e1", "lon": "-90.983333"}, {"lat": "14.816667", "city": "Xeabaj", "lon": "-90.95"}, {"lat": "14.783333", "city": "Xecoh\u00edl", "lon": "-90.95"}, {"lat": "14.783333", "city": "Xeco\u00edl", "lon": "-90.95"}, {"lat": "14.866667", "city": "Xecoxol", "lon": "-90.983333"}, {"lat": "14.75", "city": "Xejab\u00ed", "lon": "-91.05"}, {"lat": "14.75", "city": "Xejav\u00ed", "lon": "-91.05"}, {"lat": "14.633333", "city": "Xejol\u00f3n", "lon": "-91.05"}, {"lat": "14.783333", "city": "Xejul", "lon": "-90.966667"}, {"lat": "14.783333", "city": "Xejuy\u00fa", "lon": "-90.766667"}, {"lat": "14.733333", "city": "Xenimajuy\u00fa", "lon": "-90.966667"}, {"lat": "14.766667", "city": "Xenimaqu\u00edn", "lon": "-90.916667"}, {"lat": "14.85", "city": "Xepac", "lon": "-90.966667"}, {"lat": "14.85", "city": "Xepalam\u00e1", "lon": "-90.933333"}, {"lat": "14.85", "city": "Xepanil", "lon": "-90.95"}, {"lat": "14.583333", "city": "Xeparquiy", "lon": "-90.85"}, {"lat": "14.65", "city": "Xepat\u00e1n", "lon": "-91.033333"}, {"lat": "14.8", "city": "Xeraxaj", "lon": "-90.933333"}, {"lat": "14.783333", "city": "Xesajb\u00edn", "lon": "-90.966667"}, {"lat": "14.816667", "city": "Xesajcab", "lon": "-90.966667"}, {"lat": "14.816667", "city": "Xesar\u00e1", "lon": "-90.95"}, {"lat": "14.816667", "city": "Xesigu\u00e1n", "lon": "-90.933333"}, {"lat": "14.766667", "city": "Xesuj", "lon": "-90.8"}, {"lat": "14.866667", "city": "Xetinamit", "lon": "-90.766667"}, {"lat": "14.766667", "city": "Xetonox", "lon": "-90.95"}, {"lat": "14.783333", "city": "Xetzac", "lon": "-90.983333"}, {"lat": "14.633333", "city": "Xetzis\u00ed", "lon": "-91.033333"}, {"lat": "14.633333", "city": "Xetzitz\u00ed", "lon": "-91.033333"}, {"lat": "14.8", "city": "Ximajuleu", "lon": "-90.85"}, {"lat": "14.733333", "city": "Xiqu\u00edn Sanai", "lon": "-90.85"}, {"lat": "14.504167", "city": "Yepocapa", "lon": "-90.956944"}, {"lat": "14.433333", "city": "Yucales", "lon": "-90.933333"}, {"lat": "14.433333", "city": "Yucal", "lon": "-90.933333"}, {"lat": "14.833333", "city": "Zaculeu", "lon": "-91.033333"}, {"lat": "14.654444", "city": "Zaragoza", "lon": "-90.889444"}], "01": [{"lat": "15.45", "city": "Acamal", "lon": "-90.383333"}, {"lat": "15.666667", "city": "Actel\u00e1", "lon": "-89.883333"}, {"lat": "15.333333", "city": "Agua Caliente", "lon": "-89.75"}, {"lat": "15.35", "city": "Alto Sepacay", "lon": "-90.066667"}, {"lat": "15.583333", "city": "Aquil", "lon": "-90.383333"}, {"lat": "15.883333", "city": "Arcopec", "lon": "-90.25"}, {"lat": "15.766667", "city": "Astillero Municipal", "lon": "-89.566667"}, {"lat": "15.516667", "city": "Bancab", "lon": "-90.266667"}, {"lat": "15.333333", "city": "Benipec", "lon": "-90.083333"}, {"lat": "15.733333", "city": "Benj\u00e1 Chibut", "lon": "-90.166667"}, {"lat": "15.85", "city": "Bolonc\u00f3", "lon": "-89.733333"}, {"lat": "15.433333", "city": "Buena Vista", "lon": "-89.666667"}, {"lat": "15.583333", "city": "Cacualtzul", "lon": "-90.083333"}, {"lat": "15.566667", "city": "Cahab\u00f3n", "lon": "-89.816667"}, {"lat": "15.45", "city": "Cahaboncillo", "lon": "-89.583333"}, {"lat": "15.45", "city": "Cahaboncito", "lon": "-89.583333"}, {"lat": "15.65", "city": "Cajux", "lon": "-89.983333"}, {"lat": "15.7", "city": "Cambayal", "lon": "-90.183333"}, {"lat": "15.766667", "city": "Campamac", "lon": "-89.733333"}, {"lat": "15.983333", "city": "Campamento Petrolero Rubelsanto", "lon": "-90.45"}, {"lat": "15.666667", "city": "Campanapec", "lon": "-89.75"}, {"lat": "15.383333", "city": "Campat", "lon": "-90.3"}, {"lat": "15.633333", "city": "Campur", "lon": "-90.05"}, {"lat": "15.65", "city": "Canant\u00e9", "lon": "-89.6"}, {"lat": "16", "city": "Cancuela", "lon": "-89.933333"}, {"lat": "16", "city": "Cancu\u00e9n", "lon": "-89.933333"}, {"lat": "15.35", "city": "Candelaria", "lon": "-90.183333"}, {"lat": "15.3", "city": "Canl\u00fan", "lon": "-89.783333"}, {"lat": "15.85", "city": "Canruj\u00e1", "lon": "-90.283333"}, {"lat": "15.55", "city": "Cantzum", "lon": "-89.883333"}, {"lat": "15.383333", "city": "Caquipec", "lon": "-90.15"}, {"lat": "15.533333", "city": "Caquit\u00f3n", "lon": "-90.233333"}, {"lat": "15.483333", "city": "Carch\u00e1", "lon": "-90.266667"}, {"lat": "15.866667", "city": "Carrizal", "lon": "-89.95"}, {"lat": "15.8", "city": "Cataltzul", "lon": "-90.233333"}, {"lat": "15.783333", "city": "Chabilchoch", "lon": "-89.95"}, {"lat": "15.5", "city": "Chacalt\u00e9", "lon": "-90.2"}, {"lat": "15.75", "city": "Chacmaic", "lon": "-89.933333"}, {"lat": "15.75", "city": "Chahal", "lon": "-89.566667"}, {"lat": "15.4", "city": "Chajaneb", "lon": "-90.216667"}, {"lat": "15.6", "city": "Chajbel\u00e9n", "lon": "-89.7"}, {"lat": "15.7", "city": "Chajchac\u00e1n", "lon": "-90.316667"}, {"lat": "15.75", "city": "Chajcorech", "lon": "-89.55"}, {"lat": "15.833333", "city": "Chajmaic Cajb\u00f3n", "lon": "-89.9"}, {"lat": "15.75", "city": "Chajmaic", "lon": "-89.933333"}, {"lat": "15.75", "city": "Chajmayic", "lon": "-89.933333"}, {"lat": "15.433333", "city": "Chamelco", "lon": "-90.333333"}, {"lat": "15.416667", "city": "Chamil", "lon": "-90.216667"}, {"lat": "15.366667", "city": "Chamis\u00fan", "lon": "-90.233333"}, {"lat": "15.55", "city": "Chamtac\u00e1", "lon": "-90.183333"}, {"lat": "15.833333", "city": "Chaquiquich\u00e9", "lon": "-90.3"}, {"lat": "15.8", "city": "Chaquiroj\u00e1", "lon": "-90.266667"}, {"lat": "15.333333", "city": "Chavacal", "lon": "-89.833333"}, {"lat": "15.783333", "city": "Chavilchoch", "lon": "-89.95"}, {"lat": "15.283333", "city": "Chejel", "lon": "-90.05"}, {"lat": "15.566667", "city": "Chelac", "lon": "-90.283333"}, {"lat": "15.316667", "city": "Chiacal", "lon": "-90.383333"}, {"lat": "15.5", "city": "Chiacalt\u00e9", "lon": "-90.2"}, {"lat": "15.55", "city": "Chiacam", "lon": "-90.116667"}, {"lat": "15.683333", "city": "Chiachal", "lon": "-90.266667"}, {"lat": "15.55", "city": "Chiaj\u00e1n", "lon": "-90.116667"}, {"lat": "15.5", "city": "Chicacao", "lon": "-90.166667"}, {"lat": "15.516667", "city": "Chicanutz", "lon": "-89.933333"}, {"lat": "15.716667", "city": "Chicoc", "lon": "-89.666667"}, {"lat": "15.533333", "city": "Chicoji", "lon": "-90.233333"}, {"lat": "15.533333", "city": "Chicojil", "lon": "-90.233333"}, {"lat": "15.533333", "city": "Chicojl", "lon": "-90.233333"}, {"lat": "15.35", "city": "Chicoyoj", "lon": "-90.416667"}, {"lat": "15.416667", "city": "Chicuxab", "lon": "-90.416667"}, {"lat": "15.683333", "city": "Chicuxub", "lon": "-90.316667"}, {"lat": "15.7", "city": "Chielj\u00e1", "lon": "-90.083333"}, {"lat": "15.45", "city": "Chijolom", "lon": "-89.933333"}, {"lat": "15.45", "city": "Chijo\u00fa", "lon": "-90.433333"}, {"lat": "15.516667", "city": "Chilatz", "lon": "-90.333333"}, {"lat": "15.583333", "city": "Chimasayul", "lon": "-90.45"}, {"lat": "15.5", "city": "Chimaxyat", "lon": "-89.733333"}, {"lat": "15.566667", "city": "Chimelb", "lon": "-90.016667"}, {"lat": "15.566667", "city": "Chimel", "lon": "-90.016667"}, {"lat": "15.75", "city": "Chimenj\u00e1", "lon": "-89.716667"}, {"lat": "15.7", "city": "Chimochuc", "lon": "-89.766667"}, {"lat": "15.316667", "city": "Chimol\u00f3n", "lon": "-90.266667"}, {"lat": "15.55", "city": "Chimot\u00e9", "lon": "-90.333333"}, {"lat": "15.633333", "city": "Chimox\u00e1n", "lon": "-89.65"}, {"lat": "15.7", "city": "Chimuchuch", "lon": "-89.766667"}, {"lat": "15.65", "city": "Chimuy", "lon": "-89.8"}, {"lat": "16.016667", "city": "Chinaj\u00e1", "lon": "-90.216667"}, {"lat": "15.583333", "city": "Chinasayup", "lon": "-90.45"}, {"lat": "15.45", "city": "Chinasis", "lon": "-90.216667"}, {"lat": "15.633333", "city": "Chipajch\u00e9", "lon": "-89.866667"}, {"lat": "15.633333", "city": "Chipam", "lon": "-89.983333"}, {"lat": "15.583333", "city": "Chipap", "lon": "-89.9"}, {"lat": "15.633333", "city": "Chipaxch\u00e9", "lon": "-89.866667"}, {"lat": "15.533333", "city": "Chipoc", "lon": "-89.933333"}, {"lat": "15.533333", "city": "Chiqueleu", "lon": "-90.233333"}, {"lat": "15.316667", "city": "Chiquig\u00fcital", "lon": "-90.416667"}, {"lat": "15.3", "city": "Chiquip", "lon": "-90.2"}, {"lat": "15.683333", "city": "Chireact\u00e9", "lon": "-89.983333"}, {"lat": "15.483333", "city": "Chirixquitzac", "lon": "-89.716667"}, {"lat": "15.683333", "city": "Chirreact\u00e9", "lon": "-89.983333"}, {"lat": "15.75", "city": "Chirreojob", "lon": "-90.183333"}, {"lat": "15.616667", "city": "Chirrequim", "lon": "-89.683333"}, {"lat": "15.616667", "city": "Chirriquim", "lon": "-89.683333"}, {"lat": "15.816667", "city": "Chisec", "lon": "-90.283333"}, {"lat": "15.316667", "city": "Chisiram", "lon": "-90.45"}, {"lat": "15.566667", "city": "Chisub\u00edn", "lon": "-89.966667"}, {"lat": "15.466667", "city": "Chitap", "lon": "-90.133333"}, {"lat": "15.366667", "city": "Chitix", "lon": "-90.3"}, {"lat": "15.366667", "city": "Chitixl", "lon": "-90.3"}, {"lat": "15.65", "city": "Chitoc\u00e1n", "lon": "-90.416667"}, {"lat": "15.6", "city": "Chitoc", "lon": "-90.333333"}, {"lat": "15.4", "city": "Chitul", "lon": "-90.416667"}, {"lat": "15.366667", "city": "Chitzajay", "lon": "-90.3"}, {"lat": "15.433333", "city": "Chixajau", "lon": "-90.333333"}, {"lat": "15.5", "city": "Chiy\u00f3", "lon": "-90.183333"}, {"lat": "15.45", "city": "Chulac", "lon": "-89.666667"}, {"lat": "15.75", "city": "Cirreojob", "lon": "-90.183333"}, {"lat": "15.483333", "city": "Cob\u00e1n", "lon": "-90.366667"}, {"lat": "15.533333", "city": "Cojaj", "lon": "-90.15"}, {"lat": "15.75", "city": "Cojcam", "lon": "-90.233333"}, {"lat": "16", "city": "Concu\u00e9n", "lon": "-89.933333"}, {"lat": "15.366667", "city": "Coyoct\u00e9", "lon": "-90.066667"}, {"lat": "15.783333", "city": "Cubej\u00e1", "lon": "-89.866667"}, {"lat": "15.283333", "city": "Cumbre La Florida", "lon": "-89.983333"}, {"lat": "15.766667", "city": "Cuxpemech", "lon": "-90.716667"}, {"lat": "15.8", "city": "El Achiotal", "lon": "-89.9"}, {"lat": "15.833333", "city": "El Azufre", "lon": "-89.933333"}, {"lat": "15.85", "city": "El Cuervo", "lon": "-89.95"}, {"lat": "15.933333", "city": "El Hormiguero", "lon": "-90"}, {"lat": "15.75", "city": "El Lim\u00f3n", "lon": "-90.283333"}, {"lat": "15.866667", "city": "El Palmar", "lon": "-90"}, {"lat": "15.45", "city": "El Rancho", "lon": "-90.55"}, {"lat": "15.316667", "city": "Finca Miralvalle", "lon": "-89.733333"}, {"lat": "15.7", "city": "Finca Saquixquib", "lon": "-90.433333"}, {"lat": "15.716667", "city": "Finca Semococh", "lon": "-89.933333"}, {"lat": "15.8", "city": "Francisco Vela", "lon": "-89.95"}, {"lat": "15.8", "city": "Gracias a Dios", "lon": "-89.5"}, {"lat": "15.6", "city": "Gualibaj", "lon": "-89.683333"}, {"lat": "15.933333", "city": "Hormiguero", "lon": "-90"}, {"lat": "15.533333", "city": "Inupal", "lon": "-90.433333"}, {"lat": "15.6", "city": "Jacolol", "lon": "-89.833333"}, {"lat": "15.283333", "city": "Jolobob", "lon": "-89.933333"}, {"lat": "15.866667", "city": "La Barandilla", "lon": "-89.95"}, {"lat": "15.833333", "city": "La Caoba", "lon": "-89.933333"}, {"lat": "15.816667", "city": "La Ceiba", "lon": "-89.933333"}, {"lat": "15.333333", "city": "La Cumbre", "lon": "-90.35"}, {"lat": "15.966667", "city": "La Isla", "lon": "-90.016667"}, {"lat": "15.566667", "city": "Lanqu\u00edn", "lon": "-89.966667"}, {"lat": "15.466667", "city": "La Providencia", "lon": "-90.55"}, {"lat": "15.933333", "city": "Las Cadenas", "lon": "-89.983333"}, {"lat": "15.833333", "city": "Las Conchas", "lon": "-89.45"}, {"lat": "15.283333", "city": "Las Flores", "lon": "-90.366667"}, {"lat": "15.416667", "city": "Las Pacayas", "lon": "-90.516667"}, {"lat": "15.833333", "city": "Las Ruinas", "lon": "-90.316667"}, {"lat": "15.316667", "city": "La Tinta", "lon": "-89.883333"}, {"lat": "15.75", "city": "Lim\u00f3n", "lon": "-90.283333"}, {"lat": "15.8", "city": "Malagueta", "lon": "-90.283333"}, {"lat": "15.95", "city": "Manuquib", "lon": "-90"}, {"lat": "15.466667", "city": "Marichaj", "lon": "-89.75"}, {"lat": "15.316667", "city": "Miralvalle", "lon": "-89.733333"}, {"lat": "15.316667", "city": "Najquitob", "lon": "-90.433333"}, {"lat": "15.35", "city": "Nebachaj", "lon": "-90.333333"}, {"lat": "15.583333", "city": "Pajal", "lon": "-90.05"}, {"lat": "15.433333", "city": "Pampacch\u00e9", "lon": "-90.6"}, {"lat": "15.433333", "city": "Pampajch\u00e9", "lon": "-90.6"}, {"lat": "15.316667", "city": "Panact\u00e9", "lon": "-89.633333"}, {"lat": "15.316667", "city": "Pancajch\u00e9", "lon": "-89.966667"}, {"lat": "15.283333", "city": "Pancoj", "lon": "-90.25"}, {"lat": "15.4", "city": "Panz\u00f3s", "lon": "-89.666667"}, {"lat": "15.3", "city": "Papalj\u00e1", "lon": "-89.916667"}, {"lat": "15.783333", "city": "Pasacuc", "lon": "-90.733333"}, {"lat": "15.283333", "city": "Pasmolom", "lon": "-90.3"}, {"lat": "15.283333", "city": "Pasmol\u00f3n", "lon": "-90.3"}, {"lat": "15.8", "city": "Pecajb\u00e1", "lon": "-90.316667"}, {"lat": "15.516667", "city": "Pinales", "lon": "-89.816667"}, {"lat": "15.516667", "city": "Pinares", "lon": "-89.816667"}, {"lat": "15.55", "city": "Pocol\u00e1", "lon": "-90.233333"}, {"lat": "15.3", "city": "Pueblo Viejo", "lon": "-89.7"}, {"lat": "15.8", "city": "Puerto Fluvial Francisco Vela", "lon": "-89.95"}, {"lat": "16.033333", "city": "Quimal\u00e1", "lon": "-90.433333"}, {"lat": "15.483333", "city": "Quixal Grande", "lon": "-90.5"}, {"lat": "15.483333", "city": "Quixal", "lon": "-90.5"}, {"lat": "15.883333", "city": "Raudal Grande", "lon": "-89.966667"}, {"lat": "15.283333", "city": "Raxquin", "lon": "-90.066667"}, {"lat": "15.283333", "city": "Raxquix", "lon": "-90.066667"}, {"lat": "15.866667", "city": "Raxrruj\u00e1", "lon": "-90.033333"}, {"lat": "15.866667", "city": "Raxruj\u00e1", "lon": "-90.033333"}, {"lat": "15.666667", "city": "Rubelchoc", "lon": "-90.05"}, {"lat": "15.666667", "city": "Rubelococ", "lon": "-90.05"}, {"lat": "15.833333", "city": "Rubelquich\u00e9", "lon": "-89.95"}, {"lat": "15.7", "city": "Rubelsaconac", "lon": "-90.133333"}, {"lat": "15.983333", "city": "Rubelsanto", "lon": "-90.45"}, {"lat": "15.566667", "city": "Rubeltein", "lon": "-90.333333"}, {"lat": "15.566667", "city": "Rubeltem", "lon": "-90.333333"}, {"lat": "15.35", "city": "Sabob", "lon": "-90.183333"}, {"lat": "15.45", "city": "Sacaal", "lon": "-90.466667"}, {"lat": "15.5", "city": "Sacanaix", "lon": "-90.416667"}, {"lat": "15.5", "city": "Sacanchaj", "lon": "-90.366667"}, {"lat": "15.5", "city": "Sacanix", "lon": "-90.416667"}, {"lat": "15.65", "city": "Sacaretch\u00e9", "lon": "-89.983333"}, {"lat": "15.933333", "city": "Sachaf", "lon": "-90.266667"}, {"lat": "15.933333", "city": "Sachaj", "lon": "-90.266667"}, {"lat": "15.716667", "city": "Sacocpur", "lon": "-90.416667"}, {"lat": "15.733333", "city": "Sacoman", "lon": "-90.15"}, {"lat": "15.7", "city": "Saconac", "lon": "-90"}, {"lat": "15.616667", "city": "Sacquitizimaaj", "lon": "-90.2"}, {"lat": "15.616667", "city": "Sacquitzimaaj", "lon": "-90.2"}, {"lat": "15.5", "city": "Sacranix", "lon": "-90.416667"}, {"lat": "15.6", "city": "Sacristal", "lon": "-90.3"}, {"lat": "15.816667", "city": "Sacruz", "lon": "-90.733333"}, {"lat": "15.516667", "city": "Sacsi", "lon": "-90.066667"}, {"lat": "15.6", "city": "Sact\u00e1", "lon": "-89.75"}, {"lat": "15.566667", "city": "Sacuy\u00f3", "lon": "-90.1"}, {"lat": "15.666667", "city": "Saguachil", "lon": "-90.066667"}, {"lat": "15.983333", "city": "Salinas Nueve Cerros", "lon": "-90.633333"}, {"lat": "15.983333", "city": "Salinas", "lon": "-90.633333"}, {"lat": "15.466667", "city": "Samac", "lon": "-90.4"}, {"lat": "15.6", "city": "Samast\u00fan", "lon": "-89.916667"}, {"lat": "15.6", "city": "Samast\u00fa", "lon": "-89.916667"}, {"lat": "15.733333", "city": "San Antonio", "lon": "-90.15"}, {"lat": "15.416667", "city": "San Bartolom\u00e9", "lon": "-90.166667"}, {"lat": "15.383333", "city": "San Crist\u00f3bal", "lon": "-90.4"}, {"lat": "15.383333", "city": "San Crist\u00f3bal Verapaz", "lon": "-90.4"}, {"lat": "15.35", "city": "San Francisco", "lon": "-89.816667"}, {"lat": "15.516667", "city": "San Francisco Taquinc\u00f3", "lon": "-89.666667"}, {"lat": "15.666667", "city": "San Javier", "lon": "-89.9"}, {"lat": "15.333333", "city": "San Joaqu\u00edn", "lon": "-90.483333"}, {"lat": "15.333333", "city": "San Jos\u00e9", "lon": "-90.483333"}, {"lat": "15.433333", "city": "San Juan Chamelco", "lon": "-90.333333"}, {"lat": "15.383333", "city": "San Juan", "lon": "-89.816667"}, {"lat": "15.316667", "city": "San Juli\u00e1n", "lon": "-90.316667"}, {"lat": "15.683333", "city": "San Mat\u00edas", "lon": "-90.483333"}, {"lat": "15.3", "city": "San Miguel Tucur\u00fa", "lon": "-90.066667"}, {"lat": "15.483333", "city": "San Pedro Carch\u00e1", "lon": "-90.266667"}, {"lat": "15.883333", "city": "San Sim\u00f3n", "lon": "-90"}, {"lat": "15.3", "city": "Santa Ana", "lon": "-90.4"}, {"lat": "15.366667", "city": "Santa Cruz", "lon": "-90.433333"}, {"lat": "15.366667", "city": "Santa Cruz Verapaz", "lon": "-90.433333"}, {"lat": "15.366667", "city": "Santa Elena", "lon": "-90.633333"}, {"lat": "15.3", "city": "Santana", "lon": "-90.4"}, {"lat": "15.383333", "city": "Santa Rosita", "lon": "-89.666667"}, {"lat": "15.35", "city": "Santo Domingo", "lon": "-90.2"}, {"lat": "15.45", "city": "San Vicente Cahaboncillo", "lon": "-89.583333"}, {"lat": "15.683333", "city": "San Vicente Chicat\u00e1l", "lon": "-90.333333"}, {"lat": "15.683333", "city": "San Vicente", "lon": "-90.333333"}, {"lat": "15.6", "city": "Sapat\u00e1", "lon": "-90.483333"}, {"lat": "15.383333", "city": "Saquib Segundo", "lon": "-90.133333"}, {"lat": "15.55", "city": "Saquij\u00e1", "lon": "-89.866667"}, {"lat": "15.366667", "city": "Saquiln\u00e1", "lon": "-89.983333"}, {"lat": "15.7", "city": "Saquiquib", "lon": "-90.433333"}, {"lat": "15.416667", "city": "Saquixim", "lon": "-90.533333"}, {"lat": "15.583333", "city": "Saquixquib", "lon": "-89.883333"}, {"lat": "15.416667", "city": "Saquix\u00fan", "lon": "-90.533333"}, {"lat": "15.766667", "city": "Saraqu\u00e9n", "lon": "-90.25"}, {"lat": "15.816667", "city": "Sarranx", "lon": "-89.983333"}, {"lat": "15.766667", "city": "Sarraxqu\u00e9n", "lon": "-90.25"}, {"lat": "15.383333", "city": "Satex\u00e1", "lon": "-90.216667"}, {"lat": "15.383333", "city": "Satex", "lon": "-90.216667"}, {"lat": "15.816667", "city": "Satz\u00ed", "lon": "-89.85"}, {"lat": "15.516667", "city": "Seabas", "lon": "-89.983333"}, {"lat": "15.383333", "city": "Seamay", "lon": "-89.783333"}, {"lat": "15.616667", "city": "Seaquitzimay", "lon": "-90.2"}, {"lat": "15.816667", "city": "Searranx", "lon": "-89.983333"}, {"lat": "15.466667", "city": "Sebach", "lon": "-89.716667"}, {"lat": "15.55", "city": "Sebob", "lon": "-90.233333"}, {"lat": "15.8", "city": "Sebol", "lon": "-89.95"}, {"lat": "15.616667", "city": "Secacpur", "lon": "-90.133333"}, {"lat": "15.683333", "city": "Secal\u00e1", "lon": "-89.716667"}, {"lat": "15.383333", "city": "Secampam\u00e1", "lon": "-89.95"}, {"lat": "15.666667", "city": "Secampanac", "lon": "-89.966667"}, {"lat": "15.383333", "city": "Secampana", "lon": "-89.95"}, {"lat": "15.533333", "city": "Secanquim", "lon": "-89.766667"}, {"lat": "15.466667", "city": "Secans\u00edn", "lon": "-89.866667"}, {"lat": "15.616667", "city": "Secaquitzimay", "lon": "-90.2"}, {"lat": "15.583333", "city": "Seceb", "lon": "-89.95"}, {"lat": "15.683333", "city": "Sechaj", "lon": "-90.1"}, {"lat": "15.7", "city": "Sechinact\u00e9", "lon": "-90.133333"}, {"lat": "15.283333", "city": "Sechiquito", "lon": "-89.666667"}, {"lat": "15.866667", "city": "Secocbol", "lon": "-89.783333"}, {"lat": "15.616667", "city": "Secocpur", "lon": "-90.133333"}, {"lat": "15.8", "city": "Secomococh", "lon": "-90.35"}, {"lat": "15.783333", "city": "Secomontul", "lon": "-90.283333"}, {"lat": "15.716667", "city": "Secomux\u00e1n", "lon": "-90.1"}, {"lat": "15.65", "city": "Secon\u00f3n", "lon": "-90.266667"}, {"lat": "15.7", "city": "Secor\u00f3", "lon": "-89.766667"}, {"lat": "15.566667", "city": "Secoyoucoch", "lon": "-90.1"}, {"lat": "15.566667", "city": "Secoyou", "lon": "-90.1"}, {"lat": "15.683333", "city": "Secruzyac", "lon": "-89.983333"}, {"lat": "15.7", "city": "Secuab\u00f3n", "lon": "-90.066667"}, {"lat": "15.566667", "city": "Secvuam\u00f3", "lon": "-89.766667"}, {"lat": "15.683333", "city": "Seguachil", "lon": "-90.066667"}, {"lat": "15.566667", "city": "Seguam\u00f3", "lon": "-89.766667"}, {"lat": "15.666667", "city": "Seguolguol", "lon": "-90.233333"}, {"lat": "15.516667", "city": "Sejabal", "lon": "-90.133333"}, {"lat": "15.516667", "city": "Sejab\u00e1s", "lon": "-90.133333"}, {"lat": "15.7", "city": "Sejalaut\u00e9", "lon": "-90.283333"}, {"lat": "15.4", "city": "Sejaut\u00e9", "lon": "-90.083333"}, {"lat": "15.7", "city": "Sejix", "lon": "-90.15"}, {"lat": "15.7", "city": "Selaut\u00e9", "lon": "-89.6"}, {"lat": "15.7", "city": "Selij\u00e1", "lon": "-90.083333"}, {"lat": "15.766667", "city": "Semac", "lon": "-89.75"}, {"lat": "15.766667", "city": "Semar", "lon": "-89.966667"}, {"lat": "15.683333", "city": "Semau", "lon": "-90.216667"}, {"lat": "15.516667", "city": "Semil", "lon": "-89.916667"}, {"lat": "15.583333", "city": "Semococh", "lon": "-89.583333"}, {"lat": "15.733333", "city": "Semox", "lon": "-90.066667"}, {"lat": "15.666667", "city": "Semuc", "lon": "-89.916667"}, {"lat": "15.683333", "city": "Semuy", "lon": "-90.216667"}, {"lat": "15.4", "city": "Senah\u00fa", "lon": "-89.833333"}, {"lat": "15.483333", "city": "Sencaal", "lon": "-90.216667"}, {"lat": "15.433333", "city": "Sepacuit\u00e9", "lon": "-89.75"}, {"lat": "15.433333", "city": "Sepacvit\u00e9", "lon": "-89.75"}, {"lat": "15.6", "city": "Sepat\u00e1", "lon": "-90.483333"}, {"lat": "15.833333", "city": "Sepemech", "lon": "-89.45"}, {"lat": "15.833333", "city": "Sepemoch", "lon": "-89.45"}, {"lat": "15.516667", "city": "Sepoc", "lon": "-90.3"}, {"lat": "15.716667", "city": "Sepojxic", "lon": "-90.116667"}, {"lat": "15.3", "city": "Sepur", "lon": "-89.633333"}, {"lat": "15.366667", "city": "Sequil\u00e1", "lon": "-89.983333"}, {"lat": "15.683333", "city": "Sequixch\u00e9", "lon": "-90.05"}, {"lat": "15.733333", "city": "Sequixpec", "lon": "-90.133333"}, {"lat": "15.433333", "city": "Sequixpur", "lon": "-90.116667"}, {"lat": "15.416667", "city": "Sequixquib", "lon": "-90.05"}, {"lat": "15.666667", "city": "Serocalam", "lon": "-90.15"}, {"lat": "15.833333", "city": "Serraxic", "lon": "-89.433333"}, {"lat": "15.683333", "city": "Sesab", "lon": "-90.016667"}, {"lat": "15.766667", "city": "Sesacar", "lon": "-89.566667"}, {"lat": "15.7", "city": "Sesacpec", "lon": "-90.016667"}, {"lat": "15.516667", "city": "Sesacpoc", "lon": "-89.683333"}, {"lat": "15.716667", "city": "Sesajal", "lon": "-90.216667"}, {"lat": "15.8", "city": "Sesaltul", "lon": "-89.516667"}, {"lat": "15.7", "city": "Sesapec", "lon": "-90.016667"}, {"lat": "15.733333", "city": "Sesaquiquib", "lon": "-90.183333"}, {"lat": "15.583333", "city": "Seseb", "lon": "-89.95"}, {"lat": "15.7", "city": "Sesel\u00e1", "lon": "-90.016667"}, {"lat": "15.416667", "city": "Sesoch", "lon": "-89.85"}, {"lat": "15.733333", "city": "Sesuchaj", "lon": "-90.233333"}, {"lat": "15.833333", "city": "Sesutzuj", "lon": "-89.466667"}, {"lat": "15.716667", "city": "Setoc", "lon": "-90.116667"}, {"lat": "15.516667", "city": "Setul", "lon": "-90.25"}, {"lat": "15.516667", "city": "Setzacpec", "lon": "-89.683333"}, {"lat": "15.516667", "city": "Setzapec", "lon": "-89.683333"}, {"lat": "15.483333", "city": "Setzimaj", "lon": "-89.916667"}, {"lat": "15.766667", "city": "Setz\u00ed", "lon": "-90.266667"}, {"lat": "15.633333", "city": "Setzol", "lon": "-89.883333"}, {"lat": "15.75", "city": "Setzuc", "lon": "-90.25"}, {"lat": "15.45", "city": "Seubub", "lon": "-90.233333"}, {"lat": "15.75", "city": "Sibich\u00e9", "lon": "-90.416667"}, {"lat": "15.75", "city": "Sibict\u00e9", "lon": "-90.416667"}, {"lat": "15.583333", "city": "Sisbalj\u00e1", "lon": "-89.95"}, {"lat": "15.683333", "city": "Smau", "lon": "-90.216667"}, {"lat": "15.7", "city": "Soconoc", "lon": "-90"}, {"lat": "15.433333", "city": "Soledad", "lon": "-89.65"}, {"lat": "15.6", "city": "Sont\u00e9", "lon": "-90.4"}, {"lat": "15.7", "city": "Sosel\u00e1", "lon": "-90.016667"}, {"lat": "15.683333", "city": "Sucum", "lon": "-89.95"}, {"lat": "15.416667", "city": "Suquix", "lon": "-90.533333"}, {"lat": "15.333333", "city": "Tactic", "lon": "-90.3"}, {"lat": "15.333333", "city": "Tamah\u00fa", "lon": "-90.166667"}, {"lat": "15.316667", "city": "Tampoc", "lon": "-90.35"}, {"lat": "15.316667", "city": "Tamp\u00f3", "lon": "-90.35"}, {"lat": "15.533333", "city": "Tanch\u00ed", "lon": "-90.3"}, {"lat": "15.516667", "city": "Taquinc\u00f3", "lon": "-89.666667"}, {"lat": "15.35", "city": "Telem\u00e1n", "lon": "-89.716667"}, {"lat": "15.333333", "city": "Tinajas", "lon": "-89.666667"}, {"lat": "15.466667", "city": "Tintach\u00e9", "lon": "-90.483333"}, {"lat": "15.7", "city": "Tocol\u00e1", "lon": "-90.366667"}, {"lat": "15.516667", "city": "Tomtem", "lon": "-90.2"}, {"lat": "15.666667", "city": "Tonicoj", "lon": "-90.1"}, {"lat": "15.516667", "city": "Tontem", "lon": "-90.2"}, {"lat": "15.533333", "city": "Transvaal", "lon": "-89.8"}, {"lat": "15.533333", "city": "Trasbal", "lon": "-89.8"}, {"lat": "15.4", "city": "Trece Aguas", "lon": "-89.75"}, {"lat": "15.3", "city": "Tucur\u00fa", "lon": "-90.066667"}, {"lat": "15.933333", "city": "Tuil\u00e1", "lon": "-89.65"}, {"lat": "15.933333", "city": "Tula", "lon": "-89.65"}, {"lat": "15.483333", "city": "Tupulc\u00e1n", "lon": "-90.283333"}, {"lat": "15.616667", "city": "Tusam", "lon": "-90.016667"}, {"lat": "15.616667", "city": "Tuzam", "lon": "-90.016667"}, {"lat": "15.616667", "city": "Tuz\u00e1n", "lon": "-90.016667"}, {"lat": "15.566667", "city": "Tzalamtum", "lon": "-89.8"}, {"lat": "15.45", "city": "Ulp\u00e1n", "lon": "-90.083333"}, {"lat": "15.466667", "city": "Volc\u00e1n", "lon": "-89.833333"}, {"lat": "15.5", "city": "Xicacao", "lon": "-90.166667"}, {"lat": "15.4", "city": "Xucaneb", "lon": "-90.216667"}, {"lat": "15.883333", "city": "Xuctzul", "lon": "-90.266667"}, {"lat": "15.783333", "city": "Yabalquix", "lon": "-90.716667"}, {"lat": "15.933333", "city": "Yalchact\u00ed", "lon": "-90.316667"}, {"lat": "15.783333", "city": "Yalcoc", "lon": "-90.25"}, {"lat": "15.7", "city": "Yalicar", "lon": "-90.333333"}, {"lat": "15.783333", "city": "Yalicoc", "lon": "-90.25"}, {"lat": "15.7", "city": "Yalipur", "lon": "-90.333333"}, {"lat": "15.7", "city": "Yaliput", "lon": "-90.333333"}, {"lat": "15.95", "city": "Yalpemech", "lon": "-90.116667"}, {"lat": "15.9", "city": "Yax\u00e1", "lon": "-89.75"}, {"lat": "15.616667", "city": "Yaxtunj\u00e1", "lon": "-89.966667"}, {"lat": "15.75", "city": "Yiquich\u00e9", "lon": "-90.5"}], "06": [{"lat": "14.2", "city": "Ag\u00fcero", "lon": "-91.05"}, {"lat": "14.2", "city": "Aldea Ag\u00fcero", "lon": "-91.05"}, {"lat": "13.915278", "city": "Amaya", "lon": "-90.933611"}, {"lat": "14.166667", "city": "Arena", "lon": "-90.966667"}, {"lat": "14.166667", "city": "Arenal", "lon": "-90.966667"}, {"lat": "13.958056", "city": "Arizona", "lon": "-90.820278"}, {"lat": "13.935833", "city": "Atit\u00e1n", "lon": "-90.704722"}, {"lat": "13.932222", "city": "Atitancito", "lon": "-90.689722"}, {"lat": "13.935833", "city": "Atitl\u00e1n", "lon": "-90.704722"}, {"lat": "14.016667", "city": "Barra Madre Vieja", "lon": "-91.433333"}, {"lat": "14.283333", "city": "Barrientos", "lon": "-90.8"}, {"lat": "13.920556", "city": "Barrita Vieja", "lon": "-90.895278"}, {"lat": "14.383333", "city": "Ba\u00fal", "lon": "-91.016667"}, {"lat": "14.416667", "city": "Bejucal", "lon": "-90.6"}, {"lat": "13.992222", "city": "Bot\u00f3n Blanco", "lon": "-90.93"}, {"lat": "14.140556", "city": "Brito", "lon": "-90.661111"}, {"lat": "13.928889", "city": "Buena Vista", "lon": "-90.745556"}, {"lat": "14.316667", "city": "Camantulul", "lon": "-91.05"}, {"lat": "13.966667", "city": "Canta Rana", "lon": "-90.983333"}, {"lat": "13.966667", "city": "Cantarrana", "lon": "-90.983333"}, {"lat": "13.98", "city": "Casta\u00f1o", "lon": "-90.656667"}, {"lat": "14.4", "city": "Cedro", "lon": "-90.616667"}, {"lat": "14.1675", "city": "Ceiba Amelia", "lon": "-90.965"}, {"lat": "13.934444", "city": "Ceiba Mocha", "lon": "-90.7525"}, {"lat": "14.333333", "city": "Centroam\u00e9rica", "lon": "-91.383333"}, {"lat": "14.166667", "city": "Cerro Colorado", "lon": "-91.166667"}, {"lat": "14", "city": "Chichimecas", "lon": "-91.283333"}, {"lat": "14", "city": "Chichimecos", "lon": "-91.283333"}, {"lat": "14.283333", "city": "Chico Cimarr\u00f3n", "lon": "-90.8"}, {"lat": "14.1", "city": "Chipilapa", "lon": "-91.05"}, {"lat": "14", "city": "Chontal", "lon": "-91.233333"}, {"lat": "13.914722", "city": "Chulamar", "lon": "-90.876667"}, {"lat": "13.936944", "city": "Colonia La Providencia", "lon": "-90.714722"}, {"lat": "13.935833", "city": "Colonia Santa Marta", "lon": "-90.730833"}, {"lat": "14.316667", "city": "Comantulul", "lon": "-91.05"}, {"lat": "14.166667", "city": "Comunidad Agraria El Arenal", "lon": "-90.966667"}, {"lat": "14.2", "city": "Concepci\u00f3n", "lon": "-91.3"}, {"lat": "14.2", "city": "Concepci\u00f3n La Grande", "lon": "-91.3"}, {"lat": "14.133333", "city": "Corralitos", "lon": "-90.9"}, {"lat": "14.083333", "city": "Cruce", "lon": "-91.15"}, {"lat": "14.316667", "city": "Cruce de Camantulul", "lon": "-91.05"}, {"lat": "14.016667", "city": "Deidad", "lon": "-91.283333"}, {"lat": "14.166667", "city": "Del\u00edcias", "lon": "-90.916667"}, {"lat": "14.230833", "city": "Democracia", "lon": "-90.947222"}, {"lat": "14.2", "city": "El Ag\u00fcero", "lon": "-91.05"}, {"lat": "13.927778", "city": "El Arenal", "lon": "-90.8075"}, {"lat": "14.176111", "city": "El Astillero", "lon": "-90.848056"}, {"lat": "14.383333", "city": "El Ba\u00fal", "lon": "-91.016667"}, {"lat": "14.066667", "city": "El Bebedero", "lon": "-91.25"}, {"lat": "14.366667", "city": "El Caracol", "lon": "-90.616667"}, {"lat": "13.918611", "city": "El Carrizal", "lon": "-90.963333"}, {"lat": "13.935", "city": "El Carrizo", "lon": "-90.745"}, {"lat": "13.98", "city": "El Casta\u00f1o", "lon": "-90.656667"}, {"lat": "14.4", "city": "El Cedro", "lon": "-90.616667"}, {"lat": "13.954444", "city": "El Chile", "lon": "-90.678611"}, {"lat": "14", "city": "El Chontel", "lon": "-91.233333"}, {"lat": "13.930278", "city": "El Conacaste", "lon": "-90.662778"}, {"lat": "13.918889", "city": "El Corchal", "lon": "-90.952778"}, {"lat": "13.951111", "city": "El Empalme", "lon": "-90.821111"}, {"lat": "13.928333", "city": "El Guayabo", "lon": "-90.641944"}, {"lat": "13.918056", "city": "El Laberinto", "lon": "-90.814444"}, {"lat": "14.15", "city": "El Milagro", "lon": "-90.966667"}, {"lat": "13.916667", "city": "El Naranjo", "lon": "-91.016667"}, {"lat": "14.333333", "city": "El N\u00edspero", "lon": "-90.883333"}, {"lat": "14.116667", "city": "El Novillero", "lon": "-91.25"}, {"lat": "14.035278", "city": "El Obero", "lon": "-90.830278"}, {"lat": "13.933333", "city": "El Pared\u00f3n Buena Vista", "lon": "-91.083333"}, {"lat": "13.933333", "city": "El Pared\u00f3n", "lon": "-91.083333"}, {"lat": "14.383333", "city": "El Patrocinio", "lon": "-90.633333"}, {"lat": "14.083333", "city": "El Pilar", "lon": "-90.933333"}, {"lat": "14.083333", "city": "El Pillar", "lon": "-90.933333"}, {"lat": "14", "city": "El Pil\u00f3n", "lon": "-91.183333"}, {"lat": "13.983333", "city": "El Porvenir", "lon": "-91.016667"}, {"lat": "14.383333", "city": "El Pozo", "lon": "-90.633333"}, {"lat": "13.928889", "city": "El Progreso", "lon": "-90.826667"}, {"lat": "14.266667", "city": "El Revent\u00f3n", "lon": "-90.833333"}, {"lat": "14.390833", "city": "El Rodeo", "lon": "-90.831389"}, {"lat": "14.05", "city": "El Semillero Barra Nahualate", "lon": "-91.516667"}, {"lat": "13.966667", "city": "El Tecojate", "lon": "-91.35"}, {"lat": "14.081111", "city": "El Terrero", "lon": "-91"}, {"lat": "14.3", "city": "El Tr\u00e1nsito", "lon": "-91.05"}, {"lat": "14.383333", "city": "El Zapote", "lon": "-90.866667"}, {"lat": "14.305", "city": "Escuintla", "lon": "-90.785"}, {"lat": "14.305", "city": "Esquintla", "lon": "-90.785"}, {"lat": "14.316667", "city": "Finca Camantulul", "lon": "-91.05"}, {"lat": "14.383333", "city": "Finca El Ba\u00fal", "lon": "-91.016667"}, {"lat": "14.05", "city": "Finca El Porvenir", "lon": "-91.533333"}, {"lat": "14.383333", "city": "Finca El Zapote", "lon": "-90.866667"}, {"lat": "14.133333", "city": "Finca La Laguna", "lon": "-90.916667"}, {"lat": "14", "city": "Finca La Uni\u00f3n", "lon": "-90.633333"}, {"lat": "13.973333", "city": "Finca Monta\u00f1a Larga", "lon": "-90.8225"}, {"lat": "14.225278", "city": "Guanagazapa", "lon": "-90.643333"}, {"lat": "13.954444", "city": "Hacienda El Chile", "lon": "-90.678611"}, {"lat": "14.05", "city": "Huitzil", "lon": "-91.466667"}, {"lat": "14.05", "city": "Huitzitzil", "lon": "-91.466667"}, {"lat": "13.933333", "city": "Istapa", "lon": "-90.7075"}, {"lat": "13.933333", "city": "Iztapa", "lon": "-90.7075"}, {"lat": "13.933333", "city": "Iztapa Puerto", "lon": "-90.7075"}, {"lat": "14.383333", "city": "Jazmines", "lon": "-90.65"}, {"lat": "13.918056", "city": "La Barrita", "lon": "-90.916389"}, {"lat": "13.920556", "city": "La Barrita Vieja", "lon": "-90.895278"}, {"lat": "14.4", "city": "La Concepci\u00f3n El Cedro", "lon": "-90.616667"}, {"lat": "14.016667", "city": "La Deidad", "lon": "-91.283333"}, {"lat": "14.230833", "city": "La Democracia", "lon": "-90.947222"}, {"lat": "14.083333", "city": "La Gomera", "lon": "-91.05"}, {"lat": "14.133333", "city": "La Laguna", "lon": "-90.916667"}, {"lat": "14.133333", "city": "La Noria", "lon": "-91.4"}, {"lat": "13.9575", "city": "La Pampas", "lon": "-90.935833"}, {"lat": "14.4", "city": "La Periquera", "lon": "-90.733333"}, {"lat": "14.45", "city": "La Pipa", "lon": "-90.65"}, {"lat": "14", "city": "La Reforma", "lon": "-90.816667"}, {"lat": "14.1", "city": "La Sabana", "lon": "-91.25"}, {"lat": "14.083333", "city": "Las Cruces", "lon": "-91.15"}, {"lat": "13.966667", "city": "Las Cuevas", "lon": "-91.05"}, {"lat": "14.166667", "city": "Las Delicias", "lon": "-90.916667"}, {"lat": "14.116667", "city": "Las Flores", "lon": "-90.65"}, {"lat": "14.066667", "city": "Las Guacas", "lon": "-90.883333"}, {"lat": "13.983333", "city": "Las Lagunas", "lon": "-91.35"}, {"lat": "13.939444", "city": "Las Morenas", "lon": "-90.709444"}, {"lat": "13.9575", "city": "Las Pampas", "lon": "-90.935833"}, {"lat": "13.928056", "city": "Las Pilas", "lon": "-90.98"}, {"lat": "14.183333", "city": "Las Playas", "lon": "-91.133333"}, {"lat": "14", "city": "La Uni\u00f3n", "lon": "-90.633333"}, {"lat": "13.991111", "city": "Linares", "lon": "-90.8275"}, {"lat": "13.955556", "city": "Los \u00c1ngeles", "lon": "-90.957778"}, {"lat": "14.383333", "city": "Los Jazmines", "lon": "-90.65"}, {"lat": "13.998333", "city": "Los Lotes", "lon": "-90.779167"}, {"lat": "13.985", "city": "Los Pacheco", "lon": "-90.826667"}, {"lat": "14.383333", "city": "Los R\u00edos", "lon": "-90.65"}, {"lat": "14.3", "city": "Los Voladores", "lon": "-90.766667"}, {"lat": "13.931944", "city": "Magueyes", "lon": "-90.867778"}, {"lat": "14.016667", "city": "M\u00e1laga", "lon": "-91.066667"}, {"lat": "14.203056", "city": "Masagua", "lon": "-90.848056"}, {"lat": "13.917222", "city": "Miramar", "lon": "-90.824722"}, {"lat": "14.3", "city": "Miriam", "lon": "-91.05"}, {"lat": "14.3", "city": "Mirian", "lon": "-91.05"}, {"lat": "14.216667", "city": "Mixt\u00e1n", "lon": "-90.833333"}, {"lat": "14.2", "city": "Mogollon Pinula", "lon": "-91.25"}, {"lat": "13.973333", "city": "Monta\u00f1a Larga", "lon": "-90.8225"}, {"lat": "14.066667", "city": "Montecristo", "lon": "-90.866667"}, {"lat": "13.916667", "city": "Naranjo", "lon": "-91.016667"}, {"lat": "14.133333", "city": "Noria", "lon": "-91.4"}, {"lat": "14.2", "city": "Nueva Concepci\u00f3n", "lon": "-91.3"}, {"lat": "14.035278", "city": "Obero", "lon": "-90.830278"}, {"lat": "13.9925", "city": "Otacingo", "lon": "-90.893611"}, {"lat": "14.035278", "city": "Overo", "lon": "-90.830278"}, {"lat": "14.405556", "city": "Pal\u00edn", "lon": "-90.698333"}, {"lat": "13.935833", "city": "Pe\u00f1ate", "lon": "-90.8175"}, {"lat": "14.45", "city": "Pipa", "lon": "-90.65"}, {"lat": "14.166667", "city": "Poza Verde", "lon": "-91.233333"}, {"lat": "14.383333", "city": "Pozo", "lon": "-90.633333"}, {"lat": "14.283333", "city": "Pueblo Nuevo", "lon": "-91.366667"}, {"lat": "14.283333", "city": "Pueblo Nuevo Tiquisate", "lon": "-91.366667"}, {"lat": "14.283333", "city": "Puente de Palo", "lon": "-90.783333"}, {"lat": "13.935", "city": "Puerta de Hierro", "lon": "-90.779167"}, {"lat": "13.933333", "city": "Puerto de Iztapa", "lon": "-90.7075"}, {"lat": "13.925556", "city": "Puerto de San Jos\u00e9", "lon": "-90.824444"}, {"lat": "13.933333", "city": "Puerto Iztapa", "lon": "-90.7075"}, {"lat": "13.925556", "city": "Puerto San Jos\u00e9", "lon": "-90.824444"}, {"lat": "13.930556", "city": "Puerto Viejo", "lon": "-90.706944"}, {"lat": "14.45", "city": "Rinc\u00f3n de Los Negros", "lon": "-90.65"}, {"lat": "14.35", "city": "R\u00edo Santiago", "lon": "-91.016667"}, {"lat": "13.930833", "city": "Salinas Santa Rosa", "lon": "-90.818056"}, {"lat": "14.416667", "city": "San Francisco de Sales", "lon": "-90.6"}, {"lat": "14.033333", "city": "San Francisco Madre Vieja", "lon": "-91.45"}, {"lat": "13.998333", "city": "San Isidro Bot\u00f3n Blanco", "lon": "-90.9075"}, {"lat": "14.033333", "city": "San Jer\u00f3nimo", "lon": "-91.1"}, {"lat": "14.416667", "city": "San Jos\u00e9 Bejucal", "lon": "-90.6"}, {"lat": "13.925556", "city": "San Jos\u00e9 de Guatemala", "lon": "-90.824444"}, {"lat": "14.2", "city": "San Jos\u00e9 Mogoll\u00f3n", "lon": "-91.25"}, {"lat": "13.933333", "city": "San Jos\u00e9 Rama Blanca", "lon": "-91.233333"}, {"lat": "13.925556", "city": "San Jos\u00e9", "lon": "-90.824444"}, {"lat": "14.216667", "city": "San Juan Mixt\u00e1n", "lon": "-90.833333"}, {"lat": "14.05", "city": "San Pedro Nahualate", "lon": "-91.533333"}, {"lat": "14.383333", "city": "San Raimundo", "lon": "-90.75"}, {"lat": "14.116667", "city": "Santa Ana Mixt\u00e1n", "lon": "-91.233333"}, {"lat": "13.966944", "city": "Santa Isabel", "lon": "-90.8625"}, {"lat": "14.333333", "city": "Santa Luc\u00eda Cotzumalguapa", "lon": "-91.016667"}, {"lat": "14.333333", "city": "Santa Luc\u00eda", "lon": "-91.016667"}, {"lat": "13.966667", "city": "Santa Marta el Mar", "lon": "-91.3"}, {"lat": "13.966667", "city": "Santa Marta", "lon": "-91.3"}, {"lat": "13.930833", "city": "Santa Rosa", "lon": "-90.818056"}, {"lat": "14.416111", "city": "San Vicente M\u00e1rtir", "lon": "-90.639167"}, {"lat": "14.416111", "city": "San Vicente Pacaya", "lon": "-90.639167"}, {"lat": "14.416111", "city": "San Vicente", "lon": "-90.639167"}, {"lat": "14.05", "city": "Semillero", "lon": "-91.516667"}, {"lat": "13.933333", "city": "Sipacate", "lon": "-91.15"}, {"lat": "14.306111", "city": "Siquinal\u00e1", "lon": "-90.965"}, {"lat": "13.976389", "city": "Suquite", "lon": "-90.792778"}, {"lat": "13.966667", "city": "Tecojate", "lon": "-91.35"}, {"lat": "14.283333", "city": "Tequisate", "lon": "-91.366667"}, {"lat": "14.081111", "city": "Terrero", "lon": "-91"}, {"lat": "14.083333", "city": "Texcuaco", "lon": "-91.216667"}, {"lat": "13.921111", "city": "Tierra Mala", "lon": "-90.866111"}, {"lat": "14.283333", "city": "Tiquisate", "lon": "-91.366667"}, {"lat": "14.283333", "city": "Tiquizate", "lon": "-91.366667"}, {"lat": "14.25", "city": "Xay\u00e1", "lon": "-91.133333"}, {"lat": "14.383333", "city": "Zapote", "lon": "-90.866667"}], "07": [{"lat": "14.616667", "city": "Acat\u00e1n", "lon": "-90.466667"}, {"lat": "14.633333", "city": "Aceituno", "lon": "-90.466667"}, {"lat": "14.483333", "city": "Agua de Las Minas", "lon": "-90.65"}, {"lat": "14.616667", "city": "Agua Tibia", "lon": "-90.316667"}, {"lat": "14.766667", "city": "Agua Zarca", "lon": "-90.383333"}, {"lat": "14.4875", "city": "Amatitl\u00e1n", "lon": "-90.615278"}, {"lat": "14.683333", "city": "Asilo La Piedad", "lon": "-90.483333"}, {"lat": "14.65", "city": "Atl\u00e1ntida", "lon": "-90.483333"}, {"lat": "14.716667", "city": "Azacualpilla", "lon": "-90.366667"}, {"lat": "14.405", "city": "Barillas", "lon": "-90.544444"}, {"lat": "14.666667", "city": "Bejucal", "lon": "-90.3"}, {"lat": "14.550833", "city": "Boca del Monte", "lon": "-90.524167"}, {"lat": "14.550833", "city": "Boca Monte", "lon": "-90.524167"}, {"lat": "14.633333", "city": "Brigada", "lon": "-90.583333"}, {"lat": "14.9", "city": "Buenaventura", "lon": "-90.433333"}, {"lat": "14.616667", "city": "Buena Vista", "lon": "-90.35"}, {"lat": "14.416667", "city": "Calderas", "lon": "-90.6"}, {"lat": "14.7", "city": "Camino de San Pedro", "lon": "-90.65"}, {"lat": "14.624444", "city": "Canalitos", "lon": "-90.452222"}, {"lat": "14.533333", "city": "Canch\u00f3n", "lon": "-90.466667"}, {"lat": "14.783333", "city": "Carrizal", "lon": "-90.533333"}, {"lat": "14.8", "city": "Caulote", "lon": "-90.366667"}, {"lat": "14.65", "city": "Cebadilla Grande", "lon": "-90.383333"}, {"lat": "14.65", "city": "Cebadillita", "lon": "-90.383333"}, {"lat": "14.433333", "city": "Cerrito", "lon": "-90.45"}, {"lat": "14.433333", "city": "Cerritos", "lon": "-90.45"}, {"lat": "14.783333", "city": "Cerro Alto", "lon": "-90.6"}, {"lat": "14.45", "city": "Chajil", "lon": "-90.6"}, {"lat": "14.704722", "city": "Chato", "lon": "-90.397222"}, {"lat": "14.821667", "city": "Chibatutuy", "lon": "-90.508611"}, {"lat": "14.5", "city": "Chichimecas", "lon": "-90.516667"}, {"lat": "14.5", "city": "Chichimecos", "lon": "-90.516667"}, {"lat": "14.708333", "city": "Chignautla", "lon": "-90.499444"}, {"lat": "14.716667", "city": "Chillan\u00ed", "lon": "-90.55"}, {"lat": "14.708333", "city": "Chinautla", "lon": "-90.499444"}, {"lat": "14.833333", "city": "Chiqu\u00edn", "lon": "-90.483333"}, {"lat": "14.766667", "city": "Chivoc", "lon": "-90.683333"}, {"lat": "14.821667", "city": "Chuarrancho", "lon": "-90.508611"}, {"lat": "14.783333", "city": "Chuax\u00e1n", "lon": "-90.65"}, {"lat": "14.733333", "city": "Ci\u00e9naga", "lon": "-90.583333"}, {"lat": "14.566667", "city": "Ci\u00e9naga Grande", "lon": "-90.433333"}, {"lat": "14.55", "city": "Cipreses", "lon": "-90.466667"}, {"lat": "14.621111", "city": "Ciudad de Guatemala", "lon": "-90.526944"}, {"lat": "14.483333", "city": "Colmenas", "lon": "-90.516667"}, {"lat": "14.65", "city": "Colonia La Florida", "lon": "-90.583333"}, {"lat": "14.745278", "city": "Comunidad de Ruiz", "lon": "-90.636389"}, {"lat": "14.733333", "city": "Comunidad de Zet", "lon": "-90.633333"}, {"lat": "14.745278", "city": "Comunidad Ruiz", "lon": "-90.636389"}, {"lat": "14.75", "city": "Concepci\u00f3n Carrizal", "lon": "-90.416667"}, {"lat": "14.511389", "city": "Concepci\u00f3n", "lon": "-90.356944"}, {"lat": "14.833333", "city": "Concepci\u00f3n Grande", "lon": "-90.4"}, {"lat": "14.833333", "city": "Concepci\u00f3n La Grande", "lon": "-90.4"}, {"lat": "14.6", "city": "Concepci\u00f3n Las Lomas", "lon": "-90.483333"}, {"lat": "14.511389", "city": "Concepci\u00f3n Pinula", "lon": "-90.356944"}, {"lat": "14.816667", "city": "Concepci\u00f3n Suacit\u00e9", "lon": "-90.616667"}, {"lat": "14.6", "city": "Contreras", "lon": "-90.383333"}, {"lat": "14.833333", "city": "Copante", "lon": "-90.366667"}, {"lat": "14.566667", "city": "Cristo Rey", "lon": "-90.45"}, {"lat": "14.733333", "city": "Cruz Blanca", "lon": "-90.666667"}, {"lat": "14.7", "city": "Cruz de Piedra", "lon": "-90.616667"}, {"lat": "14.8", "city": "Cuajilote", "lon": "-90.366667"}, {"lat": "14.683333", "city": "Cubes", "lon": "-90.333333"}, {"lat": "14.5", "city": "Cumbre San Nicol\u00e1s", "lon": "-90.5"}, {"lat": "14.816667", "city": "Curub", "lon": "-90.566667"}, {"lat": "14.8", "city": "De Lunas", "lon": "-90.6"}, {"lat": "14.337222", "city": "Dolores", "lon": "-90.573889"}, {"lat": "14.55", "city": "Don Justo", "lon": "-90.45"}, {"lat": "14.433333", "city": "Durazno", "lon": "-90.583333"}, {"lat": "14.433333", "city": "Eje Quemado", "lon": "-90.616667"}, {"lat": "14.433333", "city": "El Aceitillal", "lon": "-90.6"}, {"lat": "14.683333", "city": "El Aguacate", "lon": "-90.633333"}, {"lat": "14.866667", "city": "El Amatillo", "lon": "-90.466667"}, {"lat": "14.616667", "city": "El Barranc\u00f3n", "lon": "-90.283333"}, {"lat": "14.65", "city": "El Bebedero", "lon": "-90.433333"}, {"lat": "14.65", "city": "El Cangrejito", "lon": "-90.35"}, {"lat": "14.55", "city": "El Carmen", "lon": "-90.516667"}, {"lat": "14.75", "city": "El Carrizal", "lon": "-90.416667"}, {"lat": "14.85", "city": "El Casta\u00f1o", "lon": "-90.466667"}, {"lat": "14.8", "city": "El Caulote", "lon": "-90.366667"}, {"lat": "14.466667", "city": "El Ceibillo", "lon": "-90.65"}, {"lat": "14.433333", "city": "El Cerrito", "lon": "-90.45"}, {"lat": "14.466667", "city": "El Cerro", "lon": "-90.6"}, {"lat": "14.65", "city": "El Chag\u00fcite", "lon": "-90.3"}, {"lat": "14.704722", "city": "El Chato", "lon": "-90.397222"}, {"lat": "14.383333", "city": "El Chipilinar", "lon": "-90.55"}, {"lat": "14.783333", "city": "El Cipr\u00e9s", "lon": "-90.55"}, {"lat": "14.566667", "city": "El Colorado", "lon": "-90.283333"}, {"lat": "14.816667", "city": "El Cucajol", "lon": "-90.333333"}, {"lat": "14.633333", "city": "El Dulce Nombre", "lon": "-90.266667"}, {"lat": "14.433333", "city": "El Durazno", "lon": "-90.583333"}, {"lat": "14.716667", "city": "El Fiscal", "lon": "-90.4"}, {"lat": "14.516667", "city": "El Frutal", "lon": "-90.55"}, {"lat": "14.783333", "city": "El Guapinol", "lon": "-90.4"}, {"lat": "14.716667", "city": "El Guayabo", "lon": "-90.466667"}, {"lat": "14.8", "city": "El Hato", "lon": "-90.433333"}, {"lat": "14.816667", "city": "El Jabillal", "lon": "-90.4"}, {"lat": "14.633333", "city": "El Jag\u00fcey", "lon": "-90.433333"}, {"lat": "14.766667", "city": "El J\u00edcaro", "lon": "-90.4"}, {"lat": "14.366667", "city": "El Jocotillo", "lon": "-90.5"}, {"lat": "14.9", "city": "El Lim\u00f3n", "lon": "-90.416667"}, {"lat": "14.5", "city": "El Manzanillo", "lon": "-90.466667"}, {"lat": "14.55", "city": "El Manzano", "lon": "-90.45"}, {"lat": "14.666667", "city": "El Manzanote", "lon": "-90.333333"}, {"lat": "14.683333", "city": "El Milagro", "lon": "-90.566667"}, {"lat": "14.483333", "city": "El Morl\u00f3n", "lon": "-90.6"}, {"lat": "14.55", "city": "El Naranjo", "lon": "-90.35"}, {"lat": "14.288611", "city": "El Obrajuelo", "lon": "-90.564722"}, {"lat": "14.55", "city": "El Paj\u00f3n", "lon": "-90.433333"}, {"lat": "14.616667", "city": "El Para\u00edso", "lon": "-90.383333"}, {"lat": "14.416667", "city": "El Pepinal", "lon": "-90.6"}, {"lat": "14.333333", "city": "El Peric\u00f3n", "lon": "-90.566667"}, {"lat": "14.75", "city": "El Pinalito", "lon": "-90.45"}, {"lat": "14.75", "city": "El Planeta", "lon": "-90.333333"}, {"lat": "14.65", "city": "El Plan Grande", "lon": "-90.316667"}, {"lat": "14.666667", "city": "El Plant\u00f3n", "lon": "-90.333333"}, {"lat": "14.583333", "city": "El Platanar", "lon": "-90.416667"}, {"lat": "14.85", "city": "El Porvenir", "lon": "-90.466667"}, {"lat": "14.566667", "city": "El Pueblito", "lon": "-90.483333"}, {"lat": "14.833333", "city": "El Puente Barranquillo", "lon": "-90.35"}, {"lat": "14.45", "city": "El Relleno", "lon": "-90.566667"}, {"lat": "14.633333", "city": "El Rodeo", "lon": "-90.566667"}, {"lat": "14.616667", "city": "El Sacabastal", "lon": "-90.366667"}, {"lat": "14.883333", "city": "El Salitre", "lon": "-90.416667"}, {"lat": "14.564444", "city": "El Socorro", "lon": "-90.287222"}, {"lat": "14.5", "city": "El Sombrerito", "lon": "-90.35"}, {"lat": "14.6925", "city": "El Tabacal", "lon": "-90.369444"}, {"lat": "14.55", "city": "El Tabloncito", "lon": "-90.616667"}, {"lat": "14.866667", "city": "El Tabl\u00f3n", "lon": "-90.433333"}, {"lat": "14.85", "city": "El Tamarindo", "lon": "-90.516667"}, {"lat": "14.666667", "city": "El Terrero", "lon": "-90.266667"}, {"lat": "14.733333", "city": "El Tizate", "lon": "-90.416667"}, {"lat": "14.716667", "city": "El Trapichito", "lon": "-90.316667"}, {"lat": "14.7", "city": "El Triunfo", "lon": "-90.3"}, {"lat": "14.516667", "city": "El Zapote", "lon": "-90.3"}, {"lat": "14.85", "city": "El Zarzal", "lon": "-90.533333"}, {"lat": "14.816667", "city": "Encuentro Cucajol", "lon": "-90.333333"}, {"lat": "14.766667", "city": "Encuentro de Navajas", "lon": "-90.35"}, {"lat": "14.783333", "city": "Encuentros de La Barranca", "lon": "-90.383333"}, {"lat": "14.833333", "city": "Estancia Grande", "lon": "-90.6"}, {"lat": "14.816667", "city": "Estancia Vieja", "lon": "-90.55"}, {"lat": "14.433333", "city": "Estanzuela", "lon": "-90.516667"}, {"lat": "14.7", "city": "Finca Cruz de Piedra", "lon": "-90.616667"}, {"lat": "14.866667", "city": "Finca El Amatillo", "lon": "-90.466667"}, {"lat": "14.65", "city": "Finca El Naranjo", "lon": "-90.533333"}, {"lat": "14.566667", "city": "Finca Las Nubes", "lon": "-90.35"}, {"lat": "14.55", "city": "Finca Los Cipreses", "lon": "-90.466667"}, {"lat": "14.483333", "city": "Finca Sabanetas", "lon": "-90.416667"}, {"lat": "14.333333", "city": "Finca San Rafael", "lon": "-90.516667"}, {"lat": "14.716667", "city": "Fiscal", "lon": "-90.4"}, {"lat": "14.465278", "city": "Fraijanes", "lon": "-90.440833"}, {"lat": "14.516667", "city": "Frutal", "lon": "-90.55"}, {"lat": "14.783333", "city": "Garibaldi", "lon": "-90.366667"}, {"lat": "14.621111", "city": "Guatemala City", "lon": "-90.526944"}, {"lat": "14.621111", "city": "Guatemala", "lon": "-90.526944"}, {"lat": "14.621111", "city": "Guatemala la Nueva", "lon": "-90.526944"}, {"lat": "14.566667", "city": "Hacienda San Ramon Las Nubes", "lon": "-90.35"}, {"lat": "14.666667", "city": "Hierba Buena", "lon": "-90.266667"}, {"lat": "14.683333", "city": "Jocotales", "lon": "-90.483333"}, {"lat": "14.366667", "city": "Jocotillo", "lon": "-90.5"}, {"lat": "14.8", "city": "Jolomcot", "lon": "-90.533333"}, {"lat": "14.583333", "city": "Joya de Los Cedros", "lon": "-90.3"}, {"lat": "14.816667", "city": "Joya de los Terneros", "lon": "-90.35"}, {"lat": "14.616667", "city": "Joya Galana", "lon": "-90.316667"}, {"lat": "14.616667", "city": "Joya Honda", "lon": "-90.366667"}, {"lat": "14.65", "city": "Juana de Arco", "lon": "-90.466667"}, {"lat": "14.583333", "city": "La Aurora", "lon": "-90.5"}, {"lat": "14.483333", "city": "La Barca", "lon": "-90.6"}, {"lat": "14.716667", "city": "Labor Vieja", "lon": "-90.45"}, {"lat": "14.633333", "city": "La Brigada", "lon": "-90.583333"}, {"lat": "14.816667", "city": "La Ceiba", "lon": "-90.366667"}, {"lat": "14.783333", "city": "La Chole\u00f1a", "lon": "-90.383333"}, {"lat": "14.733333", "city": "La Ci\u00e9naga", "lon": "-90.583333"}, {"lat": "14.616667", "city": "La Cienaguilla", "lon": "-90.383333"}, {"lat": "14.766667", "city": "La Comunidad", "lon": "-90.583333"}, {"lat": "14.6", "city": "La Concepci\u00f3n", "lon": "-90.333333"}, {"lat": "14.633333", "city": "La Culebra", "lon": "-90.266667"}, {"lat": "14.833333", "city": "La Estancia Grande", "lon": "-90.6"}, {"lat": "14.85", "city": "La Estancia", "lon": "-90.566667"}, {"lat": "14.566667", "city": "Laguna Bermeja", "lon": "-90.433333"}, {"lat": "14.45", "city": "Laguna Seca", "lon": "-90.6"}, {"lat": "14.733333", "city": "Lagunilla", "lon": "-90.45"}, {"lat": "14.616667", "city": "La Huerta", "lon": "-90.433333"}, {"lat": "14.75", "city": "La Joya", "lon": "-90.366667"}, {"lat": "14.7", "city": "La Laguneta", "lon": "-90.466667"}, {"lat": "14.35", "city": "La Manzana", "lon": "-90.516667"}, {"lat": "14.683333", "city": "La Piedad", "lon": "-90.483333"}, {"lat": "14.65", "city": "La Piedrona", "lon": "-90.366667"}, {"lat": "14.716667", "city": "La Ramos", "lon": "-90.716667"}, {"lat": "14.533333", "city": "La Salvadora", "lon": "-90.483333"}, {"lat": "14.533333", "city": "Las Anonas", "lon": "-90.416667"}, {"lat": "14.833333", "city": "Las Canes", "lon": "-90.583333"}, {"lat": "14.65", "city": "Las Canoas", "lon": "-90.4"}, {"lat": "14.65", "city": "Las Cano\u00edtas", "lon": "-90.4"}, {"lat": "14.616667", "city": "Las Delicias", "lon": "-90.45"}, {"lat": "14.583333", "city": "Las Flores", "lon": "-90.366667"}, {"lat": "14.7", "city": "Las Guayabitas", "lon": "-90.333333"}, {"lat": "14.583333", "city": "Las Joyas del Cedro", "lon": "-90.3"}, {"lat": "14.683333", "city": "Las Limas", "lon": "-90.633333"}, {"lat": "14.733333", "city": "Las Lomas", "lon": "-90.483333"}, {"lat": "14.75", "city": "Las Navajas", "lon": "-90.383333"}, {"lat": "14.566667", "city": "Las Nubes", "lon": "-90.35"}, {"lat": "14.566667", "city": "Las Nubes San Ramon", "lon": "-90.35"}, {"lat": "14.566667", "city": "Las Nubitas", "lon": "-90.35"}, {"lat": "14.866667", "city": "La Soledad", "lon": "-90.55"}, {"lat": "14.616667", "city": "Las Pilas", "lon": "-90.45"}, {"lat": "14.6", "city": "Las Pitas", "lon": "-90.366667"}, {"lat": "14.383333", "city": "Las Pozas", "lon": "-90.55"}, {"lat": "14.666667", "city": "Las Tapias", "lon": "-90.45"}, {"lat": "14.5", "city": "Las Trojes", "lon": "-90.65"}, {"lat": "14.633333", "city": "Las Vacas", "lon": "-90.483333"}, {"lat": "14.633333", "city": "Las Victorias", "lon": "-90.5"}, {"lat": "14.833333", "city": "La Tejera", "lon": "-90.483333"}, {"lat": "14.65", "city": "Lavarreda", "lon": "-90.466667"}, {"lat": "14.816667", "city": "La Verbena", "lon": "-90.35"}, {"lat": "14.583333", "city": "Letr\u00e1n", "lon": "-90.383333"}, {"lat": "14.466667", "city": "Llano de \u00c1nimas", "lon": "-90.6"}, {"lat": "14.783333", "city": "Llano de La Virgen", "lon": "-90.6"}, {"lat": "14.616667", "city": "Lo de Batres", "lon": "-90.483333"}, {"lat": "14.733333", "city": "Lo de Boc", "lon": "-90.55"}, {"lat": "14.666667", "city": "Lo de Bram", "lon": "-90.583333"}, {"lat": "14.666667", "city": "Lo de Bran", "lon": "-90.583333"}, {"lat": "14.7", "city": "Lo de Carranza", "lon": "-90.566667"}, {"lat": "14.866667", "city": "Lo de Concu\u00e1", "lon": "-90.583333"}, {"lat": "14.616667", "city": "Lo de Contreras", "lon": "-90.5"}, {"lat": "14.516667", "city": "Lo de Di\u00e9guez", "lon": "-90.433333"}, {"lat": "14.683333", "city": "Lo de Fuentes", "lon": "-90.55"}, {"lat": "14.733333", "city": "Lo de Reyes", "lon": "-90.45"}, {"lat": "14.666667", "city": "Lo de Rodr\u00edguez", "lon": "-90.416667"}, {"lat": "14.633333", "city": "Lo de Silva", "lon": "-90.333333"}, {"lat": "14.7", "city": "Loma Alta", "lon": "-90.666667"}, {"lat": "14.45", "city": "Loma Larga", "lon": "-90.616667"}, {"lat": "14.733333", "city": "Lomas", "lon": "-90.483333"}, {"lat": "14.821667", "city": "Loma Tendida", "lon": "-90.357778"}, {"lat": "14.566667", "city": "Los Achiotes", "lon": "-90.416667"}, {"lat": "14.8", "city": "Los Ajvix", "lon": "-90.616667"}, {"lat": "14.766667", "city": "Los Altarcitos", "lon": "-90.466667"}, {"lat": "14.7", "city": "Los Altos", "lon": "-90.466667"}, {"lat": "14.666667", "city": "Los Anonos", "lon": "-90.316667"}, {"lat": "14.816667", "city": "Los Ayapanes", "lon": "-90.55"}, {"lat": "14.833333", "city": "Los Caneles", "lon": "-90.633333"}, {"lat": "14.816667", "city": "Los Canes", "lon": "-90.683333"}, {"lat": "14.8", "city": "Los Chajones", "lon": "-90.583333"}, {"lat": "14.683333", "city": "Los Chorritos", "lon": "-90.266667"}, {"lat": "14.866667", "city": "Los Choyes", "lon": "-90.4"}, {"lat": "14.55", "city": "Los Cipreses", "lon": "-90.466667"}, {"lat": "14.816667", "city": "Los Coc", "lon": "-90.683333"}, {"lat": "14.783333", "city": "Los Cos", "lon": "-90.65"}, {"lat": "14.8", "city": "Los Cu\u00e1", "lon": "-90.633333"}, {"lat": "14.683333", "city": "Los Cubes", "lon": "-90.333333"}, {"lat": "14.766667", "city": "Los Cux", "lon": "-90.6"}, {"lat": "14.337222", "city": "Los Dolores", "lon": "-90.573889"}, {"lat": "14.716667", "city": "Los Encuentros", "lon": "-90.583333"}, {"lat": "14.616667", "city": "Los Fabianes", "lon": "-90.266667"}, {"lat": "14.816667", "city": "Los Guajes", "lon": "-90.6"}, {"lat": "14.816667", "city": "Los Guates", "lon": "-90.6"}, {"lat": "14.433333", "city": "Los Humitos", "lon": "-90.566667"}, {"lat": "14.366667", "city": "Los Llanos", "lon": "-90.566667"}, {"lat": "14.583333", "city": "Los L\u00f3pez", "lon": "-90.45"}, {"lat": "14.637778", "city": "Los Mixcos", "lon": "-90.383056"}, {"lat": "14.613333", "city": "Los Ocotes", "lon": "-90.41"}, {"lat": "14.883333", "city": "Los Olotes", "lon": "-90.4"}, {"lat": "14.7", "city": "Los Pajoc", "lon": "-90.683333"}, {"lat": "14.816667", "city": "Los Patzanes", "lon": "-90.65"}, {"lat": "14.816667", "city": "Los Pirir", "lon": "-90.666667"}, {"lat": "14.616667", "city": "Los Planes", "lon": "-90.383333"}, {"lat": "14.333333", "city": "Los Pocitos", "lon": "-90.6"}, {"lat": "14.833333", "city": "Los Quelex", "lon": "-90.633333"}, {"lat": "14.816667", "city": "Los Sabanes", "lon": "-90.666667"}, {"lat": "14.783333", "city": "Los Sajquil", "lon": "-90.633333"}, {"lat": "14.833333", "city": "Los Sequenes", "lon": "-90.65"}, {"lat": "14.8", "city": "Los Siney", "lon": "-90.633333"}, {"lat": "14.783333", "city": "Los Sol\u00eds", "lon": "-90.65"}, {"lat": "14.733333", "city": "Los Suretes", "lon": "-90.466667"}, {"lat": "14.65", "city": "Los Tablones", "lon": "-90.266667"}, {"lat": "14.633333", "city": "Los Tecomates", "lon": "-90.383333"}, {"lat": "14.85", "city": "Los Tezenes", "lon": "-90.55"}, {"lat": "14.866667", "city": "Los Turuy", "lon": "-90.566667"}, {"lat": "14.716667", "city": "Los Vados", "lon": "-90.45"}, {"lat": "14.4", "city": "Los Verdes", "lon": "-90.45"}, {"lat": "14.766667", "city": "Los Xal\u00edn", "lon": "-90.65"}, {"lat": "14.6", "city": "Lourdes", "lon": "-90.45"}, {"lat": "14.416667", "city": "Manuel\u00f3n", "lon": "-90.566667"}, {"lat": "14.65", "city": "Manzanillo", "lon": "-90.583333"}, {"lat": "14.633333", "city": "Marillanos", "lon": "-90.366667"}, {"lat": "14.7", "city": "Mej\u00eda", "lon": "-90.616667"}, {"lat": "14.65", "city": "Menocal", "lon": "-90.466667"}, {"lat": "14.4", "city": "Mes\u00edas", "lon": "-90.566667"}, {"lat": "14.4", "city": "Mesillas Altas", "lon": "-90.583333"}, {"lat": "14.4", "city": "Mesillas Bajas", "lon": "-90.566667"}, {"lat": "14.4", "city": "Mesillas", "lon": "-90.566667"}, {"lat": "14.633333", "city": "Mixco", "lon": "-90.606389"}, {"lat": "14.637778", "city": "Mixcos", "lon": "-90.383056"}, {"lat": "14.800556", "city": "Mont\u00fafar", "lon": "-90.64"}, {"lat": "14.766667", "city": "Nacahuil", "lon": "-90.483333"}, {"lat": "14.65", "city": "Naranjo", "lon": "-90.533333"}, {"lat": "14.75", "city": "Navajos", "lon": "-90.383333"}, {"lat": "14.621111", "city": "New Guatemala", "lon": "-90.526944"}, {"lat": "14.621111", "city": "Nueva Guatemala de la Asunci\u00f3n", "lon": "-90.526944"}, {"lat": "14.621111", "city": "Nueva Guatemala", "lon": "-90.526944"}, {"lat": "14.613333", "city": "Ocotes", "lon": "-90.41"}, {"lat": "14.65", "city": "Ojo de Agua", "lon": "-90.233333"}, {"lat": "14.633333", "city": "Omoa", "lon": "-90.283333"}, {"lat": "14.8", "city": "Pachaj", "lon": "-90.666667"}, {"lat": "14.75", "city": "Pachal\u00ed", "lon": "-90.616667"}, {"lat": "14.85", "city": "Pachum", "lon": "-90.633333"}, {"lat": "14.664722", "city": "Palencia", "lon": "-90.358611"}, {"lat": "14.783333", "city": "Pamoc\u00e1", "lon": "-90.583333"}, {"lat": "14.45", "city": "Pampumay", "lon": "-90.483333"}, {"lat": "14.8", "city": "Pasajoc", "lon": "-90.616667"}, {"lat": "14.8", "city": "Patzanes", "lon": "-90.6"}, {"lat": "14.533333", "city": "Pe\u00f1a Blanca", "lon": "-90.333333"}, {"lat": "14.566667", "city": "Pepe Nance", "lon": "-90.433333"}, {"lat": "14.416667", "city": "Pepinal", "lon": "-90.6"}, {"lat": "14.816667", "city": "Petac\u00e1", "lon": "-90.416667"}, {"lat": "14.502778", "city": "Petapa", "lon": "-90.551667"}, {"lat": "14.616667", "city": "Pet\u00e9n", "lon": "-90.283333"}, {"lat": "14.633333", "city": "Pie del Cerro", "lon": "-90.35"}, {"lat": "14.566667", "city": "Piedra Parada", "lon": "-90.45"}, {"lat": "14.85", "city": "Pila Seca", "lon": "-90.5"}, {"lat": "14.65", "city": "Plan Grande", "lon": "-90.316667"}, {"lat": "14.333333", "city": "Pocitos", "lon": "-90.6"}, {"lat": "14.816667", "city": "Pontezuelas", "lon": "-90.35"}, {"lat": "14.816667", "city": "Pontezuelos", "lon": "-90.35"}, {"lat": "14.65", "city": "Potrero Grande", "lon": "-90.366667"}, {"lat": "14.383333", "city": "Poza del Zope", "lon": "-90.55"}, {"lat": "14.333333", "city": "Pozitos", "lon": "-90.6"}, {"lat": "14.633333", "city": "Primera Joya", "lon": "-90.316667"}, {"lat": "14.666667", "city": "Pueblo Nuevo", "lon": "-90.366667"},