{"GY": {"11": [{"lat": "5.9", "city": "Ajimipepai", "lon": "-60.5666667"}, {"lat": "5.6833333", "city": "Akar", "lon": "-60.3166667"}, {"lat": "5.6833333", "city": "Akar Village", "lon": "-60.3166667"}, {"lat": "6.8", "city": "Amamure Village", "lon": "-60.0166667"}, {"lat": "6.8", "city": "Amamuri Village", "lon": "-60.0166667"}, {"lat": "5.3833333", "city": "Amokokopai Village", "lon": "-60.3"}, {"lat": "5.65", "city": "Apanachi", "lon": "-59.2166667"}, {"lat": "6.4166667", "city": "Arau Village", "lon": "-61.1333333"}, {"lat": "6.3166667", "city": "Arawai Village", "lon": "-61.1666667"}, {"lat": "5.8166667", "city": "Assura Village", "lon": "-59.65"}, {"lat": "7.15", "city": "Aunama", "lon": "-60.0833333"}, {"lat": "7.15", "city": "Aunama Village", "lon": "-60.0833333"}, {"lat": "6.8", "city": "Aurora", "lon": "-59.75"}, {"lat": "6.8", "city": "Awarabati", "lon": "-60.8"}, {"lat": "6.3833333", "city": "Barakara", "lon": "-58.6666667"}, {"lat": "6.4", "city": "Barteke", "lon": "-58.6166667"}, {"lat": "6.4", "city": "Bartica", "lon": "-58.6166667"}, {"lat": "5.75", "city": "Butakari", "lon": "-58.6166667"}, {"lat": "5.75", "city": "Butukari", "lon": "-58.6166667"}, {"lat": "6.4666667", "city": "Ekereku", "lon": "-60.8333333"}, {"lat": "6.15", "city": "Enachu", "lon": "-60.0333333"}, {"lat": "6.15", "city": "Enachu Landing", "lon": "-60.0333333"}, {"lat": "6.15", "city": "Enachu Station", "lon": "-60.0333333"}, {"lat": "6.2833333", "city": "Hororabo", "lon": "-58.7333333"}, {"lat": "5.7", "city": "Imbaimadai", "lon": "-60.2833333"}, {"lat": "5.8166667", "city": "Issano", "lon": "-59.4166667"}, {"lat": "6.4666667", "city": "Isseneru Village", "lon": "-60.3333333"}, {"lat": "6.1833333", "city": "Kaikan", "lon": "-61.1333333"}, {"lat": "6.4", "city": "Kalacoon", "lon": "-58.65"}, {"lat": "6.4", "city": "Kalakoon House", "lon": "-58.65"}, {"lat": "6.4", "city": "Kalakun", "lon": "-58.65"}, {"lat": "6.4", "city": "Kalkoon", "lon": "-58.65"}, {"lat": "5.8666667", "city": "Kamarang", "lon": "-60.6166667"}, {"lat": "6.4166667", "city": "Kamaria", "lon": "-58.7666667"}, {"lat": "5.6333333", "city": "Kamuda", "lon": "-60.3"}, {"lat": "5.6333333", "city": "Kamuda Village", "lon": "-60.3"}, {"lat": "5.9333333", "city": "Kaywaek", "lon": "-60.6333333"}, {"lat": "5.9333333", "city": "Kaywaek Village", "lon": "-60.6333333"}, {"lat": "5.9333333", "city": "Keweigek", "lon": "-60.6333333"}, {"lat": "6.3833333", "city": "Klip", "lon": "-58.6666667"}, {"lat": "5.75", "city": "Kokadai", "lon": "-60.5666667"}, {"lat": "5.65", "city": "Kowaeng", "lon": "-60.3"}, {"lat": "5.65", "city": "Kowaeng Village", "lon": "-60.3"}, {"lat": "6.8833333", "city": "Kurachi", "lon": "-60.2666667"}, {"lat": "6.9", "city": "Kurutuku Village", "lon": "-60.3"}, {"lat": "6.0166667", "city": "Kwiokrebaru", "lon": "-60.65"}, {"lat": "6.4166667", "city": "Lower Kamaria", "lon": "-58.7666667"}, {"lat": "5.8166667", "city": "Meruwang", "lon": "-61.0"}, {"lat": "5.95", "city": "Minata", "lon": "-60.6"}, {"lat": "6.4", "city": "Mongreppo", "lon": "-58.6166667"}, {"lat": "5.75", "city": "Morowta", "lon": "-60.5833333"}, {"lat": "7.1666667", "city": "Muriakundi", "lon": "-60.1333333"}, {"lat": "7.1666667", "city": "Muruakundi", "lon": "-60.1333333"}, {"lat": "6.4666667", "city": "Muruwawe Village", "lon": "-61.15"}, {"lat": "5.4333333", "city": "Opadai", "lon": "-60.5833333"}, {"lat": "6.0666667", "city": "Oranapai Landing", "lon": "-59.9166667"}, {"lat": "6.0666667", "city": "Oranapai", "lon": "-59.9166667"}, {"lat": "6.0666667", "city": "Oranopai", "lon": "-59.9166667"}, {"lat": "5.8", "city": "Paruima Mission", "lon": "-61.05"}, {"lat": "5.8", "city": "Paruima", "lon": "-61.05"}, {"lat": "6.4333333", "city": "Pathawaru", "lon": "-61.1333333"}, {"lat": "5.5166667", "city": "Pipillipai", "lon": "-60.4333333"}, {"lat": "6.2833333", "city": "Poterima", "lon": "-58.5833333"}, {"lat": "6.3666667", "city": "Saint Edwards Mission", "lon": "-58.7"}, {"lat": "6.25", "city": "Saint Marys", "lon": "-58.5833333"}, {"lat": "6.3833333", "city": "The Clip", "lon": "-58.6666667"}, {"lat": "6.1666667", "city": "Tumareng", "lon": "-60.05"}, {"lat": "6.1666667", "city": "Tumereng", "lon": "-60.05"}, {"lat": "6.1666667", "city": "Tumureng", "lon": "-60.05"}, {"lat": "6.4333333", "city": "Upper Kamaria", "lon": "-58.8"}, {"lat": "5.45", "city": "Waioklepalul", "lon": "-60.15"}, {"lat": "5.45", "city": "Waioklepaluta Village", "lon": "-60.15"}, {"lat": "5.8166667", "city": "Waramadan", "lon": "-60.75"}, {"lat": "5.8166667", "city": "Waramadon Village", "lon": "-60.75"}, {"lat": "6.1833333", "city": "Wineperu", "lon": "-58.5833333"}, {"lat": "6.4666667", "city": "Wolga", "lon": "-58.6166667"}], "10": [{"lat": "7.65", "city": "Acquero", "lon": "-58.9333333"}, {"lat": "7.65", "city": "Akwero", "lon": "-58.9333333"}, {"lat": "7.65", "city": "Aqueero", "lon": "-58.9333333"}, {"lat": "7.5833333", "city": "Arakaka", "lon": "-60.0166667"}, {"lat": "8.2166667", "city": "Barabina Hill", "lon": "-59.8"}, {"lat": "7.8333333", "city": "Baramani", "lon": "-59.2166667"}, {"lat": "7.8333333", "city": "Baramanna", "lon": "-59.2166667"}, {"lat": "7.8333333", "city": "Baramanni", "lon": "-59.2166667"}, {"lat": "7.35", "city": "Baramita", "lon": "-60.4833333"}, {"lat": "7.8333333", "city": "Barimanni", "lon": "-59.2166667"}, {"lat": "7.5166667", "city": "Chinese Landing", "lon": "-59.55"}, {"lat": "7.6", "city": "Five Star", "lon": "-60.3666667"}, {"lat": "7.6", "city": "Five Star Landing", "lon": "-60.3666667"}, {"lat": "7.6", "city": "Five Stars", "lon": "-60.3666667"}, {"lat": "7.9666667", "city": "Hobediah", "lon": "-59.8166667"}, {"lat": "8.1666667", "city": "Hosororo", "lon": "-59.8"}, {"lat": "8.1666667", "city": "Hossororo", "lon": "-59.8"}, {"lat": "8.0166667", "city": "Hotakwai", "lon": "-59.8166667"}, {"lat": "7.4", "city": "Iguapa", "lon": "-59.2666667"}, {"lat": "7.4", "city": "Igupa Village", "lon": "-59.2666667"}, {"lat": "7.4333333", "city": "Ipotaikuru", "lon": "-59.6"}, {"lat": "8.1666667", "city": "Issororo", "lon": "-59.8"}, {"lat": "7.95", "city": "Juanita", "lon": "-60.2166667"}, {"lat": "7.7333333", "city": "Kaituma", "lon": "-59.8833333"}, {"lat": "8.1166667", "city": "Kamwatta Hill", "lon": "-59.85"}, {"lat": "7.3666667", "city": "Kariakau", "lon": "-59.7"}, {"lat": "7.3666667", "city": "Kariaku", "lon": "-59.7"}, {"lat": "7.3333333", "city": "Kokerite", "lon": "-59.5666667"}, {"lat": "7.3333333", "city": "Kokerit", "lon": "-59.5666667"}, {"lat": "7.3333333", "city": "Kokerit Landing", "lon": "-59.5666667"}, {"lat": "7.25", "city": "Konora Village", "lon": "-60.0166667"}, {"lat": "7.25", "city": "Konoro Village", "lon": "-60.0166667"}, {"lat": "7.6166667", "city": "Koriabo", "lon": "-59.6333333"}, {"lat": "7.65", "city": "Kumaka", "lon": "-58.95"}, {"lat": "7.5666667", "city": "Kwabanna", "lon": "-59.15"}, {"lat": "7.95", "city": "La Juanita", "lon": "-60.2166667"}, {"lat": "8.2", "city": "Mabaruma", "lon": "-59.7833333"}, {"lat": "7.5166667", "city": "Manari", "lon": "-59.8333333"}, {"lat": "7.5166667", "city": "Manari Village", "lon": "-59.8333333"}, {"lat": "7.5833333", "city": "Manawarin", "lon": "-58.8666667"}, {"lat": "7.5", "city": "Matthews Ridge", "lon": "-60.1666667"}, {"lat": "7.75", "city": "Mission Landing", "lon": "-59.8666667"}, {"lat": "8.2666667", "city": "Morawhanna", "lon": "-59.75"}, {"lat": "7.8166667", "city": "Mount Everard", "lon": "-59.4666667"}, {"lat": "7.5833333", "city": "Mubohina", "lon": "-59.1333333"}, {"lat": "7.4833333", "city": "Pakera", "lon": "-60.15"}, {"lat": "7.3666667", "city": "Parapimai", "lon": "-59.6666667"}, {"lat": "7.7333333", "city": "Port Kaituma", "lon": "-59.8833333"}, {"lat": "7.8666667", "city": "Red Hill Settlement", "lon": "-59.4333333"}, {"lat": "7.5666667", "city": "Saint Bede's Mission", "lon": "-59.4666667"}, {"lat": "7.5666667", "city": "Saint Bedes", "lon": "-59.4666667"}, {"lat": "7.8166667", "city": "Saint Benedict Mission", "lon": "-59.8333333"}, {"lat": "7.65", "city": "Santa Cruz", "lon": "-59.2333333"}, {"lat": "7.65", "city": "Santa Rosa Mission", "lon": "-58.95"}, {"lat": "7.65", "city": "Santa Rosa", "lon": "-58.95"}, {"lat": "7.7666667", "city": "Sinclair Landing", "lon": "-59.8333333"}, {"lat": "7.8166667", "city": "Surprise Hill", "lon": "-59.8"}, {"lat": "7.3166667", "city": "Towakaima Landing", "lon": "-60.0"}, {"lat": "7.3166667", "city": "Towakaima", "lon": "-60.0"}, {"lat": "7.3166667", "city": "Towokaima Fallssee Towakaima", "lon": "-60.0"}, {"lat": "7.5333333", "city": "Waikerebi Mission", "lon": "-59.4"}, {"lat": "7.6166667", "city": "Waramuri Mission", "lon": "-58.8666667"}, {"lat": "7.6166667", "city": "Waramuri", "lon": "-58.8666667"}, {"lat": "7.8166667", "city": "Waropoko Mission", "lon": "-59.25"}, {"lat": "8.0833333", "city": "Wauna-Yarakita", "lon": "-59.9166667"}, {"lat": "8.0833333", "city": "Wauna-Yarikita", "lon": "-59.9166667"}], "13": [{"lat": "6.2", "city": "Alnes", "lon": "-57.2833333"}, {"lat": "6.2", "city": "Alness", "lon": "-57.2833333"}, {"lat": "5.85", "city": "Barakara", "lon": "-57.4666667"}, {"lat": "5.85", "city": "Barakara Mission", "lon": "-57.4666667"}, {"lat": "5.7833333", "city": "Bartica", "lon": "-57.6333333"}, {"lat": "5.9833333", "city": "Brandwagt-Sari", "lon": "-57.6333333"}, {"lat": "6.15", "city": "Brighton", "lon": "-57.2166667"}, {"lat": "6.2166667", "city": "Bush Lot", "lon": "-57.2666667"}, {"lat": "6.2166667", "city": "Bush Lot Village", "lon": "-57.2666667"}, {"lat": "6.2333333", "city": "Canefield", "lon": "-57.4833333"}, {"lat": "5.85", "city": "Crabwood Creek", "lon": "-57.15"}, {"lat": "5.9", "city": "Dukestown", "lon": "-57.1333333"}, {"lat": "5.1333333", "city": "Epira", "lon": "-57.3333333"}, {"lat": "5.1333333", "city": "Epira Mission", "lon": "-57.3333333"}, {"lat": "5.1333333", "city": "Espera", "lon": "-57.3333333"}, {"lat": "6.2833333", "city": "Fyrish", "lon": "-57.3833333"}, {"lat": "6.2833333", "city": "Fyrish Village", "lon": "-57.3833333"}, {"lat": "6.1", "city": "Goldspie", "lon": "-57.2"}, {"lat": "6.1", "city": "Good Hope", "lon": "-57.2"}, {"lat": "6.2166667", "city": "Islington", "lon": "-57.5166667"}, {"lat": "6.1333333", "city": "Java", "lon": "-57.2"}, {"lat": "6.0833333", "city": "Joanna", "lon": "-57.2666667"}, {"lat": "2.4666667", "city": "Karaudanawa", "lon": "-59.4333333"}, {"lat": "6.05", "city": "Leeds", "lon": "-57.1666667"}, {"lat": "6.15", "city": "Lesbeholden", "lon": "-57.3"}, {"lat": "6.0833333", "city": "Macaw", "lon": "-57.5833333"}, {"lat": "6.1166667", "city": "Mibikuri", "lon": "-57.2833333"}, {"lat": "6.25", "city": "New Amsterdam", "lon": "-57.5166667"}, {"lat": "5.85", "city": "New Ground Village", "lon": "-57.4666667"}, {"lat": "5.8833333", "city": "Number 80", "lon": "-57.1333333"}, {"lat": "6.1", "city": "Number Forty-five", "lon": "-57.2"}, {"lat": "6.0833333", "city": "Number Forty-six", "lon": "-57.2"}, {"lat": "6.0", "city": "Number Sixty-one", "lon": "-57.15"}, {"lat": "5.9666667", "city": "Number Sixty-seven", "lon": "-57.15"}, {"lat": "5.9666667", "city": "Number Sixty-six", "lon": "-57.15"}, {"lat": "5.9833333", "city": "Number Sixty-two", "lon": "-57.15"}, {"lat": "5.3166667", "city": "Oreala", "lon": "-57.3333333"}, {"lat": "5.3166667", "city": "Orealla Mission", "lon": "-57.3333333"}, {"lat": "5.3166667", "city": "Orealla", "lon": "-57.3333333"}, {"lat": "6.25", "city": "Port Mourant", "lon": "-57.3333333"}, {"lat": "6.25", "city": "Port Mourant Village", "lon": "-57.3333333"}, {"lat": "5.9", "city": "Princetown", "lon": "-57.15"}, {"lat": "6.2166667", "city": "Providence Place", "lon": "-57.5166667"}, {"lat": "6.0833333", "city": "Rising", "lon": "-57.2"}, {"lat": "6.0833333", "city": "Rising Sun", "lon": "-57.2"}, {"lat": "6.2666667", "city": "Rose Hall", "lon": "-57.35"}, {"lat": "6.2666667", "city": "Rose Hall Village", "lon": "-57.35"}, {"lat": "5.9166667", "city": "Scottsburg", "lon": "-57.1333333"}, {"lat": "5.8833333", "city": "Skeldon Place", "lon": "-57.1333333"}, {"lat": "5.8833333", "city": "Skeldon", "lon": "-57.1333333"}, {"lat": "6.2333333", "city": "Smythfield", "lon": "-57.5166667"}, {"lat": "5.9", "city": "Springlands Place", "lon": "-57.15"}, {"lat": "5.9", "city": "Springlands", "lon": "-57.15"}, {"lat": "6.2333333", "city": "Stanleytown", "lon": "-57.5166667"}, {"lat": "6.1833333", "city": "Tarlogie Farm", "lon": "-57.2333333"}, {"lat": "6.1833333", "city": "Tarlogie", "lon": "-57.2333333"}, {"lat": "6.0666667", "city": "Ward village", "lon": "-57.1833333"}, {"lat": "5.85", "city": "Wel te Vreeden", "lon": "-57.4666667"}, {"lat": "6.2666667", "city": "Whim", "lon": "-57.35"}, {"lat": "6.05", "city": "Yakusari", "lon": "-57.25"}], "12": [{"lat": "6.4666667", "city": "Agricola Village", "lon": "-58.1666667"}, {"lat": "6.8166667", "city": "Alberttown", "lon": "-58.15"}, {"lat": "6.8", "city": "Albouystown", "lon": "-58.1666667"}, {"lat": "6.8", "city": "Alexander Village", "lon": "-58.1666667"}, {"lat": "6.8333333", "city": "Alexanderville", "lon": "-58.15"}, {"lat": "6.7833333", "city": "Bagotstown", "lon": "-58.1666667"}, {"lat": "6.8333333", "city": "Bel Air", "lon": "-58.1333333"}, {"lat": "6.8333333", "city": "Bel Air Gardens", "lon": "-58.1333333"}, {"lat": "6.8166667", "city": "Bel Air Park", "lon": "-58.1333333"}, {"lat": "6.8333333", "city": "Bel Air Springs", "lon": "-58.1333333"}, {"lat": "6.7333333", "city": "Belfield", "lon": "-57.9666667"}, {"lat": "6.7333333", "city": "Belfield Village", "lon": "-57.9666667"}, {"lat": "6.8", "city": "Beterverwagting", "lon": "-58.0666667"}, {"lat": "6.7166667", "city": "Big Diamond", "lon": "-58.1833333"}, {"lat": "6.8166667", "city": "Blygezight", "lon": "-58.1333333"}, {"lat": "6.8333333", "city": "Blygezight Gardens", "lon": "-58.1333333"}, {"lat": "6.8166667", "city": "Bourda", "lon": "-58.15"}, {"lat": "6.7833333", "city": "Buxton", "lon": "-58.0333333"}, {"lat": "6.8166667", "city": "Campbellville", "lon": "-58.1333333"}, {"lat": "6.6166667", "city": "Cane Grove", "lon": "-57.9166667"}, {"lat": "6.8166667", "city": "Charlestown", "lon": "-58.1666667"}, {"lat": "6.7333333", "city": "Clonbrook", "lon": "-57.9333333"}, {"lat": "6.8166667", "city": "Courida Park", "lon": "-58.1"}, {"lat": "6.6833333", "city": "Craig", "lon": "-58.1666667"}, {"lat": "6.8166667", "city": "Cummingsburg", "lon": "-58.1666667"}, {"lat": "6.6333333", "city": "De Kinderen", "lon": "-57.8333333"}, {"lat": "6.6333333", "city": "De Kindern", "lon": "-57.8333333"}, {"lat": "6.8", "city": "Demerara", "lon": "-58.1666667"}, {"lat": "6.7166667", "city": "Diamond", "lon": "-58.1833333"}, {"lat": "6.7166667", "city": "Diamond Place", "lon": "-58.1833333"}, {"lat": "6.7666667", "city": "Enmore", "lon": "-57.9833333"}, {"lat": "6.8", "city": "Georgetown", "lon": "-58.1666667"}, {"lat": "6.5166667", "city": "Glasgow", "lon": "-58.2833333"}, {"lat": "6.5166667", "city": "Glasgow Village", "lon": "-58.2833333"}, {"lat": "6.7166667", "city": "Golden Grove", "lon": "-58.1833333"}, {"lat": "6.7166667", "city": "Good Intent", "lon": "-58.2"}, {"lat": "6.8333333", "city": "Grahams Hall", "lon": "-58.0833333"}, {"lat": "6.7166667", "city": "Great Diamond", "lon": "-58.1833333"}, {"lat": "6.4", "city": "Hai Maruni", "lon": "-58.2666667"}, {"lat": "6.8", "city": "Houston", "lon": "-58.1666667"}, {"lat": "6.5", "city": "Hyde Park", "lon": "-58.2666667"}, {"lat": "6.8166667", "city": "Kingston", "lon": "-58.1666667"}, {"lat": "6.8166667", "city": "Kitty", "lon": "-58.1333333"}, {"lat": "6.8166667", "city": "Kitty Village", "lon": "-58.1333333"}, {"lat": "6.8166667", "city": "Lacytown", "lon": "-58.1666667"}, {"lat": "6.7833333", "city": "La Grange", "lon": "-58.2"}, {"lat": "6.8166667", "city": "Lamaha Gardens", "lon": "-58.1333333"}, {"lat": "6.6", "city": "Land of Canaan", "lon": "-58.2"}, {"lat": "6.8", "city": "La Penitence", "lon": "-58.15"}, {"lat": "6.8166667", "city": "Lodge", "lon": "-58.1333333"}, {"lat": "6.8166667", "city": "Lodge Village", "lon": "-58.1333333"}, {"lat": "6.4", "city": "Lowood", "lon": "-58.2666667"}, {"lat": "6.4", "city": "Low Wood", "lon": "-58.2666667"}, {"lat": "6.5333333", "city": "Martins Burial Ground", "lon": "-57.8833333"}, {"lat": "6.8166667", "city": "New Burg", "lon": "-58.15"}, {"lat": "6.0833333", "city": "New Haven", "lon": "-58.1333333"}, {"lat": "6.8166667", "city": "Newtown", "lon": "-58.1333333"}, {"lat": "6.5833333", "city": "Number Ten", "lon": "-57.8833333"}, {"lat": "6.8", "city": "Plaisance", "lon": "-58.1"}, {"lat": "6.8", "city": "Plaisance Village", "lon": "-58.1"}, {"lat": "6.8333333", "city": "Prashad Nagar", "lon": "-58.1333333"}, {"lat": "6.7666667", "city": "Providence", "lon": "-58.1666667"}, {"lat": "6.8166667", "city": "Queenstown", "lon": "-58.15"}, {"lat": "6.8166667", "city": "Robbstown", "lon": "-58.1666667"}, {"lat": "6.8166667", "city": "Stabroek", "lon": "-58.15"}, {"lat": "6.8333333", "city": "Subryanville", "lon": "-58.1333333"}, {"lat": "6.7833333", "city": "Werk en Rust", "lon": "-58.1666667"}, {"lat": "6.8166667", "city": "Wortmanville", "lon": "-58.15"}], "15": [{"lat": "6.55", "city": "Abary", "lon": "-57.75"}, {"lat": "6.55", "city": "Baiabu", "lon": "-57.8833333"}, {"lat": "6.55", "city": "Barabara", "lon": "-57.8833333"}, {"lat": "6.3166667", "city": "Bel Air", "lon": "-57.55"}, {"lat": "6.5166667", "city": "Belladrum", "lon": "-57.7"}, {"lat": "6.55", "city": "Biabu", "lon": "-57.8833333"}, {"lat": "6.55", "city": "Big Baiabo", "lon": "-57.8833333"}, {"lat": "6.55", "city": "Big Baiabu", "lon": "-57.8833333"}, {"lat": "6.55", "city": "Big Biaboo", "lon": "-57.8833333"}, {"lat": "6.55", "city": "Big Biabu", "lon": "-57.8833333"}, {"lat": "6.25", "city": "Blairmont", "lon": "-57.55"}, {"lat": "6.25", "city": "Blairmont Place", "lon": "-57.55"}, {"lat": "6.4", "city": "Bush Lot", "lon": "-57.6"}, {"lat": "5.85", "city": "De Vigilante", "lon": "-57.7"}, {"lat": "6.3833333", "city": "First Savannah", "lon": "-57.7833333"}, {"lat": "6.4", "city": "Fort Wellington", "lon": "-57.6"}, {"lat": "6.3833333", "city": "Gordon Table", "lon": "-57.7833333"}, {"lat": "6.45", "city": "Governor Light", "lon": "-57.7833333"}, {"lat": "6.5333333", "city": "Grass Hook", "lon": "-57.9166667"}, {"lat": "6.6833333", "city": "Helena", "lon": "-57.9166667"}, {"lat": "6.7", "city": "Helena Number Two", "lon": "-57.9333333"}, {"lat": "6.3833333", "city": "Hopetown", "lon": "-57.6166667"}, {"lat": "6.45", "city": "Jacoba", "lon": "-57.6666667"}, {"lat": "6.4833333", "city": "Lichfield", "lon": "-57.65"}, {"lat": "6.6833333", "city": "Mahaica Village", "lon": "-57.9166667"}, {"lat": "6.55", "city": "Mahaicony", "lon": "-57.8"}, {"lat": "6.55", "city": "Mahaicony Village", "lon": "-57.8"}, {"lat": "6.1", "city": "Moraikobe", "lon": "-57.95"}, {"lat": "6.5", "city": "Mortice", "lon": "-57.8"}, {"lat": "6.3833333", "city": "New Found Out", "lon": "-58.0666667"}, {"lat": "6.7", "city": "Number 2", "lon": "-57.9333333"}, {"lat": "6.4666667", "city": "Number Forty", "lon": "-57.6666667"}, {"lat": "6.4666667", "city": "Number Forty-one", "lon": "-57.6666667"}, {"lat": "6.35", "city": "Number Twelve", "lon": "-57.5833333"}, {"lat": "5.85", "city": "Old Vigilante", "lon": "-57.7"}, {"lat": "5.85", "city": "Old Vigilantie", "lon": "-57.7"}, {"lat": "6.55", "city": "Perth", "lon": "-57.8"}, {"lat": "6.55", "city": "Perth Village", "lon": "-57.8"}, {"lat": "6.4166667", "city": "Pine Ground", "lon": "-57.7833333"}, {"lat": "6.2833333", "city": "Rosignal", "lon": "-57.5333333"}, {"lat": "6.2833333", "city": "Rosignol", "lon": "-57.5333333"}, {"lat": "6.3666667", "city": "Saint Cuthberts Mission", "lon": "-58.0833333"}, {"lat": "6.3666667", "city": "Saint Cuthberts", "lon": "-58.0833333"}, {"lat": "6.3666667", "city": "Saint Cuthberts Village", "lon": "-58.0833333"}, {"lat": "6.1", "city": "Saint Francis Mission", "lon": "-57.95"}, {"lat": "6.3833333", "city": "Saint John", "lon": "-57.6166667"}, {"lat": "6.3333333", "city": "Sinking Ground", "lon": "-57.8833333"}, {"lat": "6.2833333", "city": "Sir James", "lon": "-57.5333333"}, {"lat": "5.85", "city": "Vigilantie", "lon": "-57.7"}, {"lat": "6.5", "city": "Weldaad", "lon": "-57.6833333"}], "14": [{"lat": "6.5", "city": "Ampa", "lon": "-58.5833333"}, {"lat": "6.8333333", "city": "Amstel", "lon": "-58.25"}, {"lat": "6.7666667", "city": "Anna Catherina", "lon": "-58.2666667"}, {"lat": "6.6166667", "city": "Banakari", "lon": "-58.6166667"}, {"lat": "6.6666667", "city": "Berebisibali", "lon": "-58.5666667"}, {"lat": "6.6666667", "city": "Berebisiballi", "lon": "-58.5666667"}, {"lat": "6.6666667", "city": "Beribissibali", "lon": "-58.5666667"}, {"lat": "6.6666667", "city": "Beribissiballi", "lon": "-58.5666667"}, {"lat": "6.8", "city": "Bethany", "lon": "-58.6"}, {"lat": "7.0", "city": "Caledonia", "lon": "-58.4333333"}, {"lat": "6.4833333", "city": "Dalli", "lon": "-58.5833333"}, {"lat": "6.7", "city": "De Jonge Rachael", "lon": "-58.2"}, {"lat": "6.8333333", "city": "Den Amstel", "lon": "-58.25"}, {"lat": "6.8333333", "city": "Den Amstel Village", "lon": "-58.25"}, {"lat": "6.9166667", "city": "Elizabeth", "lon": "-58.4333333"}, {"lat": "6.9333333", "city": "Enterprise", "lon": "-58.4"}, {"lat": "6.95", "city": "Fredericksburg", "lon": "-58.4333333"}, {"lat": "6.8166667", "city": "Hooboo", "lon": "-58.4666667"}, {"lat": "6.5333333", "city": "Hopetown", "lon": "-58.2833333"}, {"lat": "6.8166667", "city": "Hubu", "lon": "-58.4666667"}, {"lat": "6.8333333", "city": "Karia", "lon": "-58.5833333"}, {"lat": "6.8333333", "city": "Kariakaria", "lon": "-58.5833333"}, {"lat": "6.6", "city": "Lanaballi", "lon": "-58.5666667"}, {"lat": "6.7", "city": "Lorenza", "lon": "-58.2"}, {"lat": "6.9", "city": "Louisiana", "lon": "-58.4333333"}, {"lat": "6.4666667", "city": "Makouria", "lon": "-58.5833333"}, {"lat": "6.7", "city": "Manaka", "lon": "-58.6166667"}, {"lat": "6.9333333", "city": "Maria Johanna", "lon": "-58.4666667"}, {"lat": "6.7833333", "city": "McDoom Village", "lon": "-58.1833333"}, {"lat": "6.8", "city": "Meadow Bank", "lon": "-58.1833333"}, {"lat": "6.9666667", "city": "Melville", "lon": "-58.4666667"}, {"lat": "6.75", "city": "Morasi", "lon": "-58.5"}, {"lat": "6.75", "city": "Nismes", "lon": "-58.2"}, {"lat": "6.8666667", "city": "Parika", "lon": "-58.4166667"}, {"lat": "6.7", "city": "Patentia", "lon": "-58.2"}, {"lat": "6.8", "city": "Phoenix Town", "lon": "-58.2"}, {"lat": "6.5", "city": "Post Ampa", "lon": "-58.5833333"}, {"lat": "6.5833333", "city": "Primrose Hill", "lon": "-58.6166667"}, {"lat": "6.9166667", "city": "Ridge", "lon": "-58.4833333"}, {"lat": "6.9666667", "city": "Sarah", "lon": "-58.4666667"}, {"lat": "6.5833333", "city": "Saxacalli", "lon": "-58.6166667"}, {"lat": "6.5833333", "city": "Saxakalli", "lon": "-58.6166667"}, {"lat": "6.5833333", "city": "Saxsacali", "lon": "-58.6166667"}, {"lat": "6.5166667", "city": "Simirie", "lon": "-58.5833333"}, {"lat": "6.5333333", "city": "Soesdyke", "lon": "-58.25"}, {"lat": "6.5333333", "city": "Soesdyk", "lon": "-58.25"}, {"lat": "6.7333333", "city": "Stanleytown", "lon": "-58.2"}, {"lat": "6.8833333", "city": "Tuschen", "lon": "-58.35"}, {"lat": "6.8666667", "city": "Uitvlugt", "lon": "-58.3"}, {"lat": "6.8666667", "city": "Vergenoegen", "lon": "-58.35"}, {"lat": "6.8", "city": "Vreed en Hoop", "lon": "-58.1833333"}, {"lat": "6.7", "city": "Wales", "lon": "-58.2"}, {"lat": "6.85", "city": "Windsor Forest", "lon": "-58.2333333"}], "17": [{"lat": "5.0166667", "city": "Arnik Village", "lon": "-59.5333333"}, {"lat": "4.9166667", "city": "Chenapowu Village", "lon": "-59.5666667"}, {"lat": "4.5666667", "city": "Enaruko Village", "lon": "-59.6666667"}, {"lat": "4.9666667", "city": "Holmia", "lon": "-59.5833333"}, {"lat": "4.8833333", "city": "Ipichau", "lon": "-60.0166667"}, {"lat": "4.8833333", "city": "Ipish\u00e1u", "lon": "-60.0166667"}, {"lat": "4.8833333", "city": "Ipisiau Village", "lon": "-60.0166667"}, {"lat": "4.6", "city": "Itabac", "lon": "-60.1"}, {"lat": "4.8333333", "city": "Kamana Village", "lon": "-59.9333333"}, {"lat": "4.5333333", "city": "Kanapang Village", "lon": "-60.1333333"}, {"lat": "4.9166667", "city": "Karisparu Village", "lon": "-59.45"}, {"lat": "4.6666667", "city": "Karto", "lon": "-59.8166667"}, {"lat": "4.6666667", "city": "Kato", "lon": "-59.8166667"}, {"lat": "4.6666667", "city": "Kato Village", "lon": "-59.8166667"}, {"lat": "4.9333333", "city": "Kopinang Mission", "lon": "-59.8"}, {"lat": "4.5833333", "city": "Kukuieng", "lon": "-59.6666667"}, {"lat": "4.5833333", "city": "Kukui-Eng Village", "lon": "-59.6666667"}, {"lat": "4.75", "city": "Kurikebaru", "lon": "-59.8833333"}, {"lat": "4.75", "city": "Kurikebary", "lon": "-59.8833333"}, {"lat": "4.75", "city": "Kurukabaru", "lon": "-59.8833333"}, {"lat": "4.75", "city": "Kurukabaru Village", "lon": "-59.8833333"}, {"lat": "5.2666667", "city": "Mahdia", "lon": "-59.15"}, {"lat": "4.55", "city": "Makari", "lon": "-58.55"}, {"lat": "4.4833333", "city": "Monkey Mountain", "lon": "-59.6833333"}, {"lat": "4.7", "city": "Orinduik", "lon": "-60.0166667"}, {"lat": "4.45", "city": "Owenteik", "lon": "-59.5833333"}, {"lat": "4.7166667", "city": "Paramahatoi", "lon": "-59.7"}, {"lat": "4.7166667", "city": "Paramakatoi", "lon": "-59.7"}, {"lat": "4.5166667", "city": "Puwa", "lon": "-59.9833333"}, {"lat": "4.5166667", "city": "Puwa Village", "lon": "-59.9833333"}, {"lat": "5.2", "city": "Saint Mary", "lon": "-59.0166667"}, {"lat": "5.2", "city": "Saint Mary's", "lon": "-59.0166667"}, {"lat": "4.65", "city": "Sisipelin", "lon": "-59.55"}, {"lat": "4.65", "city": "Sisipelin Village", "lon": "-59.55"}, {"lat": "4.8", "city": "Taruka", "lon": "-59.6333333"}, {"lat": "4.8666667", "city": "Velgrad", "lon": "-59.8"}, {"lat": "4.9333333", "city": "Waipa Village", "lon": "-60.0"}, {"lat": "4.45", "city": "Wandaik Village", "lon": "-59.5833333"}, {"lat": "4.45", "city": "Wandaik", "lon": "-59.5833333"}, {"lat": "4.55", "city": "Wandapa Village", "lon": "-59.7166667"}, {"lat": "4.55", "city": "Wandapa", "lon": "-59.7166667"}, {"lat": "4.55", "city": "Waudapa Village", "lon": "-59.7166667"}, {"lat": "4.95", "city": "Wiapri", "lon": "-59.9833333"}], "16": [{"lat": "7.0833333", "city": "Adventure", "lon": "-58.4833333"}, {"lat": "7.3666667", "city": "Akawini Mission", "lon": "-58.7333333"}, {"lat": "7.3833333", "city": "Amazon", "lon": "-58.5833333"}, {"lat": "7.0", "city": "Aurora", "lon": "-58.5"}, {"lat": "7.4", "city": "Berks", "lon": "-58.5666667"}, {"lat": "6.9666667", "city": "Bethany", "lon": "-58.5833333"}, {"lat": "7.3666667", "city": "Bounty Hall", "lon": "-58.5166667"}, {"lat": "7.2", "city": "Capoey", "lon": "-58.4333333"}, {"lat": "7.4", "city": "Charity", "lon": "-58.6"}, {"lat": "7.3", "city": "Danielstown", "lon": "-58.4833333"}, {"lat": "7.3666667", "city": "Dartmouth", "lon": "-58.5"}, {"lat": "7.2", "city": "Dawa", "lon": "-58.6"}, {"lat": "7.25", "city": "Durung Bang", "lon": "-58.8833333"}, {"lat": "7.4", "city": "Eurowa", "lon": "-58.6"}, {"lat": "7.3", "city": "Fear Not", "lon": "-58.4833333"}, {"lat": "7.15", "city": "Golden Fleece", "lon": "-58.4833333"}, {"lat": "7.15", "city": "Golden Fleece Plantation", "lon": "-58.4833333"}, {"lat": "7.1833333", "city": "Hoff Van Aurich", "lon": "-58.4833333"}, {"lat": "7.25", "city": "Issororo", "lon": "-58.8833333"}, {"lat": "7.05", "city": "Machabo", "lon": "-58.55"}, {"lat": "7.4833333", "city": "Marlborough", "lon": "-58.6333333"}, {"lat": "7.1", "city": "Onderneeming", "lon": "-58.4833333"}, {"lat": "7.2666667", "city": "Pickersgill", "lon": "-58.7166667"}, {"lat": "7.2666667", "city": "Pickersgil", "lon": "-58.7166667"}, {"lat": "7.0666667", "city": "Pomona", "lon": "-58.4833333"}, {"lat": "7.2", "city": "Queenstown", "lon": "-58.4833333"}, {"lat": "7.2", "city": "Queenstown Village", "lon": "-58.4833333"}, {"lat": "7.0666667", "city": "Riverstown", "lon": "-58.5"}, {"lat": "7.5", "city": "Saint Nicholas Mission", "lon": "-58.95"}, {"lat": "7.5", "city": "Saint Nicholas", "lon": "-58.95"}, {"lat": "7.2166667", "city": "Simiri", "lon": "-58.6666667"}, {"lat": "7.3", "city": "Sirikie", "lon": "-58.6666667"}, {"lat": "7.4", "city": "Somerset", "lon": "-58.5666667"}, {"lat": "7.1166667", "city": "Suddie", "lon": "-58.4833333"}, {"lat": "7.5166667", "city": "Wakapau Village", "lon": "-58.8"}], "19": [{"lat": "2.3", "city": "Achiwib", "lon": "-59.5833333"}, {"lat": "2.3", "city": "Achiwuib Village", "lon": "-59.5833333"}, {"lat": "2.1333333", "city": "Adelair", "lon": "-59.6333333"}, {"lat": "2.5166667", "city": "Aishalton", "lon": "-59.25"}, {"lat": "2.5166667", "city": "Aishalton Village", "lon": "-59.25"}, {"lat": "2.4833333", "city": "Altora Village", "lon": "-59.1666667"}, {"lat": "3.0333333", "city": "Ambrose Village", "lon": "-59.7666667"}, {"lat": "3.95", "city": "Annai", "lon": "-59.1333333"}, {"lat": "3.95", "city": "Anwai", "lon": "-59.1333333"}, {"lat": "4.0333333", "city": "Apoteri", "lon": "-58.5833333"}, {"lat": "2.7666667", "city": "Arakwai Outstation", "lon": "-59.4833333"}, {"lat": "3.0", "city": "Atamadpau", "lon": "-59.7166667"}, {"lat": "2.6666667", "city": "Awariwaunau", "lon": "-59.2"}, {"lat": "2.6666667", "city": "Awaruwaunawa", "lon": "-59.2"}, {"lat": "3.3333333", "city": "Basha Village", "lon": "-59.8"}, {"lat": "1.7666667", "city": "Biloku", "lon": "-58.55"}, {"lat": "3.3833333", "city": "Bom Sucesso", "lon": "-59.8"}, {"lat": "3.3833333", "city": "Bon Success", "lon": "-59.8"}, {"lat": "2.35", "city": "Burisanawa Village", "lon": "-59.35"}, {"lat": "3.8", "city": "Cajueiro", "lon": "-59.4"}, {"lat": "2.8333333", "city": "Dadanawa", "lon": "-59.5166667"}, {"lat": "3.6666667", "city": "Eupukari", "lon": "-59.35"}, {"lat": "3.8666667", "city": "Good Hope", "lon": "-59.5833333"}, {"lat": "3.75", "city": "Hart", "lon": "-59.5833333"}, {"lat": "3.4833333", "city": "Hawkins Mission", "lon": "-59.55"}, {"lat": "3.4", "city": "Hiawa", "lon": "-59.6333333"}, {"lat": "2.2666667", "city": "Illimir Village", "lon": "-59.45"}, {"lat": "3.1333333", "city": "Imprenza", "lon": "-59.8333333"}, {"lat": "2.5166667", "city": "Ishalton", "lon": "-59.25"}, {"lat": "2.3166667", "city": "Isherton", "lon": "-59.3666667"}, {"lat": "3.5166667", "city": "Jacaretinga", "lon": "-59.6666667"}, {"lat": "3.5166667", "city": "Jakaretinga", "lon": "-59.6666667"}, {"lat": "1.85", "city": "Johi", "lon": "-58.5333333"}, {"lat": "1.85", "city": "Johi Village", "lon": "-58.5333333"}, {"lat": "3.5666667", "city": "Kaibarupai Village", "lon": "-59.8666667"}, {"lat": "3.75", "city": "Karanambo", "lon": "-59.3"}, {"lat": "4.0333333", "city": "Karasabai", "lon": "-59.5333333"}, {"lat": "4.0333333", "city": "Karasabai Village", "lon": "-59.5333333"}, {"lat": "2.8166667", "city": "Kataliriwau Outstation", "lon": "-59.25"}, {"lat": "1.5666667", "city": "Konashen", "lon": "-58.6833333"}, {"lat": "2.3", "city": "Kotoewau", "lon": "-59.15"}, {"lat": "3.3333333", "city": "Kumu Village", "lon": "-59.8"}, {"lat": "1.7333333", "city": "Kurukuru-Baibari", "lon": "-58.6166667"}, {"lat": "3.8166667", "city": "Kwaimatta", "lon": "-59.3333333"}, {"lat": "3.8166667", "city": "Kwaimatta Village", "lon": "-59.3333333"}, {"lat": "3.8166667", "city": "Kwaiwatta Village", "lon": "-59.3333333"}, {"lat": "3.8166667", "city": "Kwamatta", "lon": "-59.3333333"}, {"lat": "3.6333333", "city": "Kwatata", "lon": "-59.5"}, {"lat": "3.3833333", "city": "Lethem", "lon": "-59.8"}, {"lat": "3.3833333", "city": "Lethen", "lon": "-59.8"}, {"lat": "2.4", "city": "Lumidpau", "lon": "-59.4833333"}, {"lat": "3.5166667", "city": "MacDonald", "lon": "-59.55"}, {"lat": "3.0666667", "city": "Macusi Village", "lon": "-59.7166667"}, {"lat": "1.9666667", "city": "Mamir Pawa", "lon": "-59.7333333"}, {"lat": "3.4333333", "city": "Manari", "lon": "-59.7666667"}, {"lat": "3.6", "city": "Marakanata", "lon": "-59.55"}, {"lat": "3.05", "city": "Mariwa Village", "lon": "-59.6666667"}, {"lat": "2.75", "city": "Maruranau", "lon": "-59.1666667"}, {"lat": "2.75", "city": "Maruranawa", "lon": "-59.1666667"}, {"lat": "2.75", "city": "Marurawaunawa", "lon": "-59.1666667"}, {"lat": "2.75", "city": "Marurawaunawa Village", "lon": "-59.1666667"}, {"lat": "3.9", "city": "Massara", "lon": "-59.3"}, {"lat": "3.9", "city": "Massara Village", "lon": "-59.3"}, {"lat": "3.8", "city": "McTurk", "lon": "-59.4"}, {"lat": "2.8333333", "city": "Melvilles Ranch", "lon": "-59.5166667"}, {"lat": "3.75", "city": "Meritizero", "lon": "-59.5833333"}, {"lat": "3.3333333", "city": "Moco-Moco", "lon": "-59.6666667"}, {"lat": "3.3333333", "city": "Moco-Moco Village", "lon": "-59.6666667"}, {"lat": "3.9", "city": "Moreiro", "lon": "-59.55"}, {"lat": "3.9", "city": "Moreiru", "lon": "-59.55"}, {"lat": "3.0", "city": "Mountain Point", "lon": "-59.6333333"}, {"lat": "3.5166667", "city": "Mountain View", "lon": "-59.55"}, {"lat": "3.05", "city": "Muriwa Village", "lon": "-59.6666667"}, {"lat": "3.4166667", "city": "Nappi Village", "lon": "-59.5666667"}, {"lat": "2.2166667", "city": "Parabara", "lon": "-59.3"}, {"lat": "3.5666667", "city": "Paricaranal", "lon": "-59.5833333"}, {"lat": "3.5666667", "city": "Parikaranal", "lon": "-59.5833333"}, {"lat": "3.45", "city": "Parishara", "lon": "-59.5666667"}, {"lat": "3.45", "city": "Parishara Village", "lon": "-59.5666667"}, {"lat": "3.0333333", "city": "Patarinau", "lon": "-59.7666667"}, {"lat": "4.1333333", "city": "Peropo", "lon": "-59.1166667"}, {"lat": "2.7666667", "city": "Pilanawa", "lon": "-59.6833333"}, {"lat": "2.7666667", "city": "Pilinawa", "lon": "-59.6833333"}, {"lat": "3.6166667", "city": "Pirara", "lon": "-59.6666667"}, {"lat": "2.5333333", "city": "Powisanau Village", "lon": "-59.45"}, {"lat": "3.0666667", "city": "Pukasanta Village", "lon": "-58.9"}, {"lat": "3.6333333", "city": "Quatata", "lon": "-59.5"}, {"lat": "2.3333333", "city": "Sabernawau Village", "lon": "-59.2333333"}, {"lat": "3.3333333", "city": "Saint Ignatius Mission", "lon": "-59.8"}, {"lat": "3.3333333", "city": "Saint Ignatius", "lon": "-59.8"}, {"lat": "3.0", "city": "Sand Creek Village", "lon": "-59.5166667"}, {"lat": "3.7833333", "city": "Santa F\u00e9 Ranch", "lon": "-59.6"}, {"lat": "3.7833333", "city": "Santa Fe", "lon": "-59.6"}, {"lat": "2.6833333", "city": "Sawariwaunawa", "lon": "-59.65"}, {"lat": "2.6833333", "city": "Sawariwau", "lon": "-59.65"}, {"lat": "2.8166667", "city": "Shea", "lon": "-59.1333333"}, {"lat": "2.8166667", "city": "Shea Village", "lon": "-59.1333333"}, {"lat": "2.8166667", "city": "Shoa", "lon": "-59.1333333"}, {"lat": "3.0833333", "city": "Shulinab", "lon": "-59.7833333"}, {"lat": "3.0833333", "city": "Shulinab Village", "lon": "-59.7833333"}, {"lat": "3.7", "city": "Sunnyside", "lon": "-59.65"}, {"lat": "4.1666667", "city": "Surama", "lon": "-59.0833333"}, {"lat": "4.1666667", "city": "Surama Village", "lon": "-59.0833333"}, {"lat": "4.1666667", "city": "Surumatra", "lon": "-59.0666667"}, {"lat": "2.35", "city": "Tamtom", "lon": "-59.7166667"}, {"lat": "2.35", "city": "Tamton", "lon": "-59.7166667"}, {"lat": "2.0833333", "city": "Taruma", "lon": "-58.3833333"}, {"lat": "2.0833333", "city": "Taruma Village", "lon": "-58.3833333"}, {"lat": "4.05", "city": "Tiger Pond Village", "lon": "-59.4333333"}, {"lat": "4.2166667", "city": "Tipuru", "lon": "-59.5666667"}, {"lat": "4.2166667", "city": "Tipuru Village", "lon": "-59.5666667"}, {"lat": "3.9166667", "city": "Toka", "lon": "-59.3833333"}, {"lat": "3.9166667", "city": "Toka Village", "lon": "-59.3833333"}, {"lat": "3.9166667", "city": "Tuka", "lon": "-59.3833333"}, {"lat": "2.35", "city": "Village Burisanawa", "lon": "-59.35"}, {"lat": "3.4166667", "city": "Village Nappita", "lon": "-59.5666667"}, {"lat": "3.0833333", "city": "Village Shulinab", "lon": "-59.7833333"}, {"lat": "1.5833333", "city": "Wai-Wai", "lon": "-58.65"}, {"lat": "1.4333333", "city": "Waiwoi Village", "lon": "-58.8"}, {"lat": "1.9833333", "city": "Wakadanawa", "lon": "-59.7166667"}, {"lat": "1.3833333", "city": "Wakakulud Village", "lon": "-58.75"}, {"lat": "1.3833333", "city": "Wakakulud", "lon": "-58.75"}, {"lat": "2.9333333", "city": "Warimure", "lon": "-59.4833333"}, {"lat": "2.7166667", "city": "Wariwau", "lon": "-59.2"}, {"lat": "2.7166667", "city": "Wariwiau Village", "lon": "-59.2"}, {"lat": "3.1", "city": "Waruma Outstation", "lon": "-59.9"}, {"lat": "3.1", "city": "Waruma", "lon": "-59.9"}, {"lat": "2.8666667", "city": "Wichabai", "lon": "-59.5333333"}, {"lat": "3.9833333", "city": "Woweta Village", "lon": "-59.0833333"}, {"lat": "3.9833333", "city": "Woweta", "lon": "-59.0833333"}, {"lat": "3.9", "city": "Yakarinta", "lon": "-59.25"}, {"lat": "1.35", "city": "Yepi Village", "lon": "-58.6666667"}, {"lat": "1.3666667", "city": "Yepu Village", "lon": "-58.6333333"}, {"lat": "3.6666667", "city": "Yupukari", "lon": "-59.35"}, {"lat": "3.6666667", "city": "Yupukarri", "lon": "-59.35"}], "18": [{"lat": "5.0833333", "city": "Attai", "lon": "-58.5166667"}, {"lat": "5.0833333", "city": "Attai Village", "lon": "-58.5166667"}, {"lat": "6.0166667", "city": "Christianburg", "lon": "-58.3166667"}, {"lat": "6.0", "city": "Cockatara Village", "lon": "-58.3"}, {"lat": "5.5666667", "city": "Coomacka", "lon": "-57.9166667"}, {"lat": "5.6666667", "city": "Ebini Downs", "lon": "-57.7833333"}, {"lat": "5.6666667", "city": "Ebini", "lon": "-57.7833333"}, {"lat": "5.6166667", "city": "GNS Kimbia", "lon": "-57.7333333"}, {"lat": "5.8", "city": "Hitia", "lon": "-57.75"}, {"lat": "5.8", "city": "Hittia Settlement", "lon": "-57.75"}, {"lat": "5.3666667", "city": "Hururu", "lon": "-58.0"}, {"lat": "5.5333333", "city": "Itoni Township", "lon": "-58.25"}, {"lat": "5.5333333", "city": "Ituni", "lon": "-58.25"}, {"lat": "5.5333333", "city": "Ituni Townsite", "lon": "-58.25"}, {"lat": "5.55", "city": "Kalkuni", "lon": "-57.9166667"}, {"lat": "6.0", "city": "Kokatara Village", "lon": "-58.3"}, {"lat": "5.5666667", "city": "Kumaka", "lon": "-57.9166667"}, {"lat": "5.2833333", "city": "Kwakwani", "lon": "-58.05"}, {"lat": "5.8333333", "city": "Lancaster", "lon": "-58.25"}, {"lat": "6.0", "city": "Linden", "lon": "-58.3"}, {"lat": "6.0", "city": "Mackenzie", "lon": "-58.2833333"}, {"lat": "5.6166667", "city": "Malali", "lon": "-58.35"}, {"lat": "5.6", "city": "Masabona", "lon": "-58.3833333"}, {"lat": "6.0", "city": "McKenzie", "lon": "-58.2833333"}, {"lat": "6.0", "city": "Noitgedacht", "lon": "-58.3"}, {"lat": "5.5666667", "city": "Paradise", "lon": "-57.9166667"}, {"lat": "5.2333333", "city": "Pubu", "lon": "-58.6166667"}, {"lat": "5.9833333", "city": "Rockstone", "lon": "-58.55"}, {"lat": "5.8", "city": "Sand Hills", "lon": "-57.75"}, {"lat": "5.6833333", "city": "Sion", "lon": "-57.85"}, {"lat": "5.5666667", "city": "Tacama", "lon": "-57.9166667"}, {"lat": "5.6", "city": "Takama Battle School", "lon": "-57.9666667"}, {"lat": "5.5666667", "city": "Takama", "lon": "-57.9166667"}, {"lat": "6.4333333", "city": "Urisirima", "lon": "-58.6"}, {"lat": "6.0", "city": "Watooka Village", "lon": "-58.3"}, {"lat": "6.0", "city": "Watuka", "lon": "-58.3"}, {"lat": "5.5", "city": "Wiribisirikanali", "lon": "-58.3833333"}, {"lat": "6.0", "city": "Wisemar", "lon": "-58.3166667"}, {"lat": "6.0", "city": "Wismar", "lon": "-58.3166667"}, {"lat": "5.6833333", "city": "Zion", "lon": "-57.85"}]}}