{"IT": {"02": [{"lat": "40.5", "city": "Abriola", "lon": "15.816667"}, {"lat": "40.483333", "city": "Accettura", "lon": "16.15"}, {"lat": "40.883333", "city": "Accio", "lon": "15.816667"}, {"lat": "40.8", "city": "Acerenza", "lon": "15.933333"}, {"lat": "40.033333", "city": "Acquafredda", "lon": "15.666667"}, {"lat": "40.95", "city": "Acqua Santa", "lon": "15.583333"}, {"lat": "40.583333", "city": "Albano di Lucania", "lon": "16.033333"}, {"lat": "40.266667", "city": "Alianello", "lon": "16.25"}, {"lat": "40.316667", "city": "Aliano", "lon": "16.233333"}, {"lat": "40.316667", "city": "Allano", "lon": "16.233333"}, {"lat": "40.516667", "city": "Anzi", "lon": "15.916667"}, {"lat": "40.3", "city": "Armento", "lon": "16.066667"}, {"lat": "40.866667", "city": "Atella", "lon": "15.65"}, {"lat": "40.733333", "city": "Avigliano", "lon": "15.716667"}, {"lat": "40.733333", "city": "Avigliano Lucana", "lon": "15.716667"}, {"lat": "40.75", "city": "Bagni San Cataldo", "lon": "15.65"}, {"lat": "40.65", "city": "Balvano", "lon": "15.516667"}, {"lat": "40.866667", "city": "Banzi", "lon": "16.016667"}, {"lat": "40.683333", "city": "Baragiano", "lon": "15.583333"}, {"lat": "40.95", "city": "Barile", "lon": "15.666667"}, {"lat": "40.05", "city": "Battipiedi", "lon": "16.183333"}, {"lat": "40.75", "city": "Bella", "lon": "15.533333"}, {"lat": "40.4", "city": "Bernalda", "lon": "16.683333"}, {"lat": "40.833333", "city": "Bochicchio", "lon": "15.883333"}, {"lat": "39.983333", "city": "Brefaro", "lon": "15.766667"}, {"lat": "40.6", "city": "Brindisi di Montagna", "lon": "15.933333"}, {"lat": "40.583333", "city": "Calciano", "lon": "16.183333"}, {"lat": "40.466667", "city": "Calvello", "lon": "15.85"}, {"lat": "40.15", "city": "Calvera", "lon": "16.15"}, {"lat": "40.55", "city": "Campomaggiore", "lon": "16.1"}, {"lat": "40.733333", "city": "Cancellara", "lon": "15.933333"}, {"lat": "40.75", "city": "Capodigiano", "lon": "15.483333"}, {"lat": "40.15", "city": "Carbone", "lon": "16.083333"}, {"lat": "40.75", "city": "Carriera", "lon": "15.783333"}, {"lat": "40.75", "city": "Carriero", "lon": "15.783333"}, {"lat": "39.916667", "city": "Casa Castellana", "lon": "16.066667"}, {"lat": "40.9", "city": "Casa Galluccio", "lon": "15.633333"}, {"lat": "40.066667", "city": "Casalnuovo Lucano", "lon": "16.366667"}, {"lat": "40.066667", "city": "Casalnuoyo Lucano", "lon": "16.366667"}, {"lat": "39.933333", "city": "Casa Sarafa", "lon": "16.066667"}, {"lat": "40.783333", "city": "Castelgrande", "lon": "15.433333"}, {"lat": "40.816667", "city": "Castel Lagopesole", "lon": "15.733333"}, {"lat": "40.816667", "city": "Castello di Lago Pesole", "lon": "15.733333"}, {"lat": "40", "city": "Castelluccio", "lon": "15.966667"}, {"lat": "40", "city": "Castelluccio Inferiore", "lon": "15.966667"}, {"lat": "40.016667", "city": "Castelluccio Superiore", "lon": "15.983333"}, {"lat": "40.533333", "city": "Castelmezzano", "lon": "16.05"}, {"lat": "40.166667", "city": "Castelsaraceno", "lon": "16"}, {"lat": "40.183333", "city": "Castronuovo di Sant'Andrea", "lon": "16.183333"}, {"lat": "40.05", "city": "Cersosimo", "lon": "16.35"}, {"lat": "40.116667", "city": "Chiaramonte", "lon": "16.216667"}, {"lat": "40.116667", "city": "Chiaromonte", "lon": "16.216667"}, {"lat": "40.683333", "city": "Chirico", "lon": "16.083333"}, {"lat": "40.4", "city": "Cirigliano", "lon": "16.166667"}, {"lat": "40.183333", "city": "Colobraro", "lon": "16.416667"}, {"lat": "39.966667", "city": "Conocchiella", "lon": "16.166667"}, {"lat": "40.716667", "city": "Contrada Lavangone", "lon": "15.8"}, {"lat": "40.383333", "city": "Corleto Perticara", "lon": "16.033333"}, {"lat": "40.383333", "city": "Craco", "lon": "16.433333"}, {"lat": "40.05", "city": "Cropani", "lon": "16.116667"}, {"lat": "40.833333", "city": "Dragonetti", "lon": "15.716667"}, {"lat": "40.066667", "city": "Episcopia", "lon": "16.1"}, {"lat": "40.116667", "city": "Fardella", "lon": "16.166667"}, {"lat": "40.483333", "city": "Ferrandina", "lon": "16.45"}, {"lat": "40.816667", "city": "Filiano", "lon": "15.7"}, {"lat": "40.85", "city": "Forenza", "lon": "15.85"}, {"lat": "40.083333", "city": "Francavilla", "lon": "16.2"}, {"lat": "40.083333", "city": "Francavilla in Sinni", "lon": "16.2"}, {"lat": "40.083333", "city": "Francavilla sul Sinni", "lon": "16.2"}, {"lat": "40.783333", "city": "Frusci", "lon": "15.733333"}, {"lat": "40.283333", "city": "Gallicchio", "lon": "16.133333"}, {"lat": "40.9", "city": "Galluccio", "lon": "15.633333"}, {"lat": "40.55", "city": "Garaguso", "lon": "16.233333"}, {"lat": "41.1", "city": "Gaudiano", "lon": "15.9"}, {"lat": "40.85", "city": "Genzano di Lucania", "lon": "16.033333"}, {"lat": "40.85", "city": "Genzano", "lon": "16.033333"}, {"lat": "40.933333", "city": "Ginestra", "lon": "15.733333"}, {"lat": "40.383333", "city": "Gorgoglione", "lon": "16.15"}, {"lat": "40.633333", "city": "Grassano", "lon": "16.283333"}, {"lat": "40.6", "city": "Grottole", "lon": "16.383333"}, {"lat": "40.283333", "city": "Grumento Nova", "lon": "15.883333"}, {"lat": "40.366667", "city": "Guardia Perticara", "lon": "16.1"}, {"lat": "40.8", "city": "I Masi", "lon": "15.716667"}, {"lat": "40.7", "city": "Incassaturo", "lon": "15.716667"}, {"lat": "39.983333", "city": "Ioppola", "lon": "16.066667"}, {"lat": "39.983333", "city": "Ioppoli", "lon": "16.066667"}, {"lat": "40.75", "city": "Irsina", "lon": "16.233333"}, {"lat": "40.116667", "city": "Lagonegro", "lon": "15.766667"}, {"lat": "40.816667", "city": "Lagopesole", "lon": "15.733333"}, {"lat": "39.95", "city": "La Marinella", "lon": "15.733333"}, {"lat": "40.683333", "city": "La Martella", "lon": "16.533333"}, {"lat": "39.983333", "city": "La Torre", "lon": "16.166667"}, {"lat": "40.083333", "city": "Latronico", "lon": "16.016667"}, {"lat": "40.466667", "city": "Laurenzana", "lon": "15.966667"}, {"lat": "40.033333", "city": "Lauria Inferiore", "lon": "15.833333"}, {"lat": "40.033333", "city": "Lauria", "lon": "15.833333"}, {"lat": "40.716667", "city": "Lavancone", "lon": "15.8"}, {"lat": "40.716667", "city": "Lavangone", "lon": "15.8"}, {"lat": "41.05", "city": "Lavello", "lon": "15.8"}, {"lat": "40.066667", "city": "Manca di Sopra", "lon": "16.1"}, {"lat": "40.033333", "city": "Mancine", "lon": "16.166667"}, {"lat": "40.033333", "city": "Mancini", "lon": "16.166667"}, {"lat": "39.983333", "city": "Maratea", "lon": "15.716667"}, {"lat": "40.416667", "city": "Marsico Nuovo", "lon": "15.733333"}, {"lat": "40.383333", "city": "Marsico Vetere", "lon": "15.816667"}, {"lat": "40.666667", "city": "Martella", "lon": "16.55"}, {"lat": "40.9", "city": "Maschito", "lon": "15.833333"}, {"lat": "40.8", "city": "Masi", "lon": "15.716667"}, {"lat": "39.983333", "city": "Massa", "lon": "15.733333"}, {"lat": "39.966667", "city": "Masseria di Rusciano", "lon": "16.25"}, {"lat": "40.783333", "city": "Masseria Priore", "lon": "15.65"}, {"lat": "39.966667", "city": "Masseria Rusciano", "lon": "16.25"}, {"lat": "39.95", "city": "Masseria Tempa del Pertagio", "lon": "16.116667"}, {"lat": "40.066667", "city": "Masulda", "lon": "16"}, {"lat": "40.066667", "city": "Masuldo", "lon": "16"}, {"lat": "40.666667", "city": "Matera", "lon": "16.6"}, {"lat": "41", "city": "Melfi", "lon": "15.65"}, {"lat": "40.366667", "city": "Metaponto", "lon": "16.8"}, {"lat": "39.966667", "city": "Mezzana", "lon": "16.166667"}, {"lat": "40.566667", "city": "Miglionico", "lon": "16.5"}, {"lat": "40.05", "city": "Mileo", "lon": "16.016667"}, {"lat": "40.283333", "city": "Missanello", "lon": "16.166667"}, {"lat": "40.233333", "city": "Moliterno", "lon": "15.866667"}, {"lat": "40.066667", "city": "Montagnola", "lon": "15.95"}, {"lat": "40.283333", "city": "Montalbano Ionico", "lon": "16.566667"}, {"lat": "40.283333", "city": "Montalbano Jonico", "lon": "16.566667"}, {"lat": "41.033333", "city": "Montemilone", "lon": "15.966667"}, {"lat": "40.3", "city": "Montemurro", "lon": "15.983333"}, {"lat": "40.55", "city": "Montescaglioso", "lon": "16.666667"}, {"lat": "40.95", "city": "Monticchio", "lon": "15.583333"}, {"lat": "40.916667", "city": "Monticchio Sgarroni", "lon": "15.566667"}, {"lat": "40.75", "city": "Muro Lucano", "lon": "15.483333"}, {"lat": "40.066667", "city": "Nemoli", "lon": "15.8"}, {"lat": "40.083333", "city": "Noepoli", "lon": "16.333333"}, {"lat": "40.15", "city": "Nova Siri", "lon": "16.533333"}, {"lat": "40.533333", "city": "Oliveto Lucano", "lon": "16.183333"}, {"lat": "40.783333", "city": "Oppido Lucano", "lon": "16"}, {"lat": "40.233333", "city": "Orsoleo", "lon": "16.25"}, {"lat": "40.933333", "city": "Palazzo San Gervasio", "lon": "15.983333"}, {"lat": "40.783333", "city": "Palinira", "lon": "16"}, {"lat": "40.783333", "city": "Palmira", "lon": "16"}, {"lat": "40.016667", "city": "Parrutta", "lon": "15.8"}, {"lat": "40.383333", "city": "Paterno", "lon": "15.733333"}, {"lat": "40.35", "city": "Pedale", "lon": "15.816667"}, {"lat": "39.983333", "city": "Pedali", "lon": "16.05"}, {"lat": "40.833333", "city": "Pescopagano", "lon": "15.4"}, {"lat": "39.983333", "city": "Piano dei Peri", "lon": "15.783333"}, {"lat": "40.183333", "city": "Piano di Santa Laura", "lon": "16.566667"}, {"lat": "40.183333", "city": "Piano Santa Laura", "lon": "16.566667"}, {"lat": "40.633333", "city": "Picerno", "lon": "15.633333"}, {"lat": "40.75", "city": "Pietragalla", "lon": "15.883333"}, {"lat": "40.516667", "city": "Pietrapertosa", "lon": "16.066667"}, {"lat": "40.566667", "city": "Pignola di Basilicata", "lon": "15.783333"}, {"lat": "40.566667", "city": "Pignola di Lucania", "lon": "15.783333"}, {"lat": "40.566667", "city": "Pignola", "lon": "15.783333"}, {"lat": "40.383333", "city": "Pisticci", "lon": "16.55"}, {"lat": "40.216667", "city": "Policoro", "lon": "16.683333"}, {"lat": "40.516667", "city": "Pomarico", "lon": "16.55"}, {"lat": "39.983333", "city": "Porto di Maratea", "lon": "15.7"}, {"lat": "41.1", "city": "Posta di Gaudiano", "lon": "15.883333"}, {"lat": "41.1", "city": "Posta Gaudiano", "lon": "15.883333"}, {"lat": "40.633333", "city": "Potenza", "lon": "15.8"}, {"lat": "40.783333", "city": "Priore", "lon": "15.65"}, {"lat": "40.966667", "city": "Rapolla", "lon": "15.683333"}, {"lat": "40.85", "city": "Rapone", "lon": "15.5"}, {"lat": "40.25", "city": "Recoleta", "lon": "16.65"}, {"lat": "40.666667", "city": "Ricigliano", "lon": "15.483333"}, {"lat": "40.25", "city": "Ricoleta", "lon": "16.65"}, {"lat": "40.916667", "city": "Rionero in Vulture", "lon": "15.666667"}, {"lat": "40.916667", "city": "Ripacandida", "lon": "15.716667"}, {"lat": "40.066667", "city": "Rivello", "lon": "15.75"}, {"lat": "40.216667", "city": "Roccanova", "lon": "16.2"}, {"lat": "39.95", "city": "Rotonda", "lon": "16.033333"}, {"lat": "40.033333", "city": "Rotondella", "lon": "15.666667"}, {"lat": "40.716667", "city": "Ruoti", "lon": "15.683333"}, {"lat": "40.85", "city": "Ruvo del Monte", "lon": "15.533333"}, {"lat": "40.516667", "city": "Salandra", "lon": "16.316667"}, {"lat": "40.75", "city": "San Cataldo", "lon": "15.65"}, {"lat": "40.683333", "city": "San Chirico Nuovo", "lon": "16.083333"}, {"lat": "40.183333", "city": "San Chirico Raparo", "lon": "16.083333"}, {"lat": "40.033333", "city": "San Costantino Albanese", "lon": "16.3"}, {"lat": "40.083333", "city": "San Costantino di Rivello", "lon": "15.683333"}, {"lat": "40.083333", "city": "San Costantino", "lon": "15.683333"}, {"lat": "40.816667", "city": "San Fele", "lon": "15.533333"}, {"lat": "40.116667", "city": "San Giorgio Lucano", "lon": "16.383333"}, {"lat": "39.966667", "city": "San Giuseppe", "lon": "15.716667"}, {"lat": "40.233333", "city": "San Martino d'Agri", "lon": "16.066667"}, {"lat": "40.483333", "city": "San Mauro Forte", "lon": "16.25"}, {"lat": "40.066667", "city": "San Paolo Albanese", "lon": "16.366667"}, {"lat": "39.95", "city": "San Pasquale", "lon": "16.116667"}, {"lat": "40.016667", "city": "San Severino Lucano", "lon": "16.133333"}, {"lat": "40.016667", "city": "San Severino", "lon": "16.133333"}, {"lat": "40.55", "city": "Sant'Angelo le Fratte", "lon": "15.55"}, {"lat": "40.25", "city": "Sant'Arcangelo", "lon": "16.266667"}, {"lat": "40.8", "city": "Sant'Ilario", "lon": "15.666667"}, {"lat": "40.283333", "city": "Saponaradi Grumento", "lon": "15.883333"}, {"lat": "40.25", "city": "Sarconi", "lon": "15.883333"}, {"lat": "40.783333", "city": "Sarnelli", "lon": "15.75"}, {"lat": "40.5", "city": "Sasso di Castalda", "lon": "15.666667"}, {"lat": "40.55", "city": "Satriano di Lucania", "lon": "15.633333"}, {"lat": "40.566667", "city": "Savoia di Lucania", "lon": "15.55"}, {"lat": "40.25", "city": "Scanzano", "lon": "16.7"}, {"lat": "40.9", "city": "Scaraiazzi", "lon": "15.75"}, {"lat": "39.983333", "city": "Scarpaleggia", "lon": "16.066667"}, {"lat": "40.033333", "city": "Schettini", "lon": "15.783333"}, {"lat": "40.733333", "city": "Sciosci", "lon": "15.683333"}, {"lat": "40.15", "city": "Senise", "lon": "16.283333"}, {"lat": "40.916667", "city": "Sgarroni", "lon": "15.566667"}, {"lat": "39.95", "city": "Sorgenti di Frido", "lon": "16.183333"}, {"lat": "39.95", "city": "Sorgenti Frido", "lon": "16.183333"}, {"lat": "40.266667", "city": "Spinoso", "lon": "15.966667"}, {"lat": "40.783333", "city": "Sterpeto", "lon": "15.683333"}, {"lat": "40.4", "city": "Stigliano", "lon": "16.233333"}, {"lat": "40.783333", "city": "Stuozzi", "lon": "15.633333"}, {"lat": "40.133333", "city": "Teana", "lon": "16.15"}, {"lat": "40.066667", "city": "Tempone", "lon": "15.966667"}, {"lat": "39.983333", "city": "Terranova di Pollino", "lon": "16.3"}, {"lat": "39.966667", "city": "Terranovo di Pollino", "lon": "16.3"}, {"lat": "39.966667", "city": "Terranovo", "lon": "16.3"}, {"lat": "39.966667", "city": "Terranovo ti Pollino", "lon": "16.3"}, {"lat": "40.583333", "city": "Tito", "lon": "15.666667"}, {"lat": "40.7", "city": "Tolve", "lon": "16.016667"}, {"lat": "39.983333", "city": "Torre Larderia", "lon": "16.133333"}, {"lat": "40.316667", "city": "Tramutola", "lon": "15.783333"}, {"lat": "40.033333", "city": "Trecchina", "lon": "15.766667"}, {"lat": "40.616667", "city": "Tricarico", "lon": "16.15"}, {"lat": "40.583333", "city": "Trivigno", "lon": "15.983333"}, {"lat": "40.25", "city": "Tursi", "lon": "16.466667"}, {"lat": "40.666667", "city": "Vaglio Basilicata", "lon": "15.916667"}, {"lat": "40.666667", "city": "Vaglio di Basilicata", "lon": "15.916667"}, {"lat": "40.666667", "city": "Vaglio Lucano", "lon": "15.916667"}, {"lat": "40.166667", "city": "Valsinni", "lon": "16.433333"}, {"lat": "39.966667", "city": "Varco", "lon": "16.15"}, {"lat": "40.966667", "city": "Venosa", "lon": "15.816667"}, {"lat": "40.6", "city": "Vietri di Potenza", "lon": "15.5"}, {"lat": "39.966667", "city": "Viggianello", "lon": "16.083333"}, {"lat": "40.333333", "city": "Viggiano", "lon": "15.9"}, {"lat": "40.05", "city": "Villaneto", "lon": "16.2"}, {"lat": "39.933333", "city": "Zarafa", "lon": "16.066667"}], "10": [{"lat": "43.216667", "city": "Abbadia", "lon": "13.4"}, {"lat": "43.216667", "city": "Abbadia di Fiastra", "lon": "13.4"}, {"lat": "43.316667", "city": "Abbazia di Santa Maria in Selva", "lon": "13.4"}, {"lat": "42.85", "city": "Abetito", "lon": "13.366667"}, {"lat": "43.616667", "city": "Acqualagna", "lon": "12.666667"}, {"lat": "42.766667", "city": "Acquasanta", "lon": "13.4"}, {"lat": "42.766667", "city": "Acquasanta Terme", "lon": "13.4"}, {"lat": "43.3", "city": "Acquatina", "lon": "12.916667"}, {"lat": "42.933333", "city": "Acquaviva Picena", "lon": "13.8"}, {"lat": "43.25", "city": "Acquosi", "lon": "13.05"}, {"lat": "42.833333", "city": "Agelli", "lon": "13.416667"}, {"lat": "43.533333", "city": "Agugliano", "lon": "13.383333"}, {"lat": "43.35", "city": "Albacina", "lon": "13.016667"}, {"lat": "42.95", "city": "Al\u00ec", "lon": "12.933333"}, {"lat": "43.65", "city": "Alta Marina", "lon": "13.333333"}, {"lat": "43.1", "city": "Altidona", "lon": "13.8"}, {"lat": "42.866667", "city": "Altino", "lon": "13.3"}, {"lat": "43.333333", "city": "Alviano", "lon": "13.683333"}, {"lat": "42.983333", "city": "Amandola", "lon": "13.35"}, {"lat": "43.633333", "city": "Ancona", "lon": "13.5"}, {"lat": "43.85", "city": "Antico", "lon": "12.3"}, {"lat": "43.85", "city": "Antico di Maiolo", "lon": "12.3"}, {"lat": "43.55", "city": "Apecchio", "lon": "12.416667"}, {"lat": "43.383333", "city": "Apiro", "lon": "13.133333"}, {"lat": "42.966667", "city": "Appennino", "lon": "13.066667"}, {"lat": "43.35", "city": "Appignano", "lon": "13.333333"}, {"lat": "42.9", "city": "Appignano del Tronto", "lon": "13.666667"}, {"lat": "42.766667", "city": "Aquasanta", "lon": "13.416667"}, {"lat": "42.95", "city": "Aquaviva Picena", "lon": "13.816667"}, {"lat": "43.5", "city": "Arcevia", "lon": "12.933333"}, {"lat": "42.866667", "city": "Arena", "lon": "13.433333"}, {"lat": "43.333333", "city": "Argignano", "lon": "12.95"}, {"lat": "42.8", "city": "Arli", "lon": "13.45"}, {"lat": "42.766667", "city": "Arola", "lon": "13.45"}, {"lat": "42.766667", "city": "Arquata del Tronto", "lon": "13.3"}, {"lat": "42.966667", "city": "Aschio", "lon": "13.05"}, {"lat": "42.85", "city": "Ascoli", "lon": "13.566667"}, {"lat": "42.85", "city": "Ascoli Piceno", "lon": "13.566667"}, {"lat": "43.316667", "city": "Attiggio", "lon": "12.916667"}, {"lat": "43.733333", "city": "Auditore", "lon": "12.566667"}, {"lat": "43.466667", "city": "Avacelli", "lon": "12.983333"}, {"lat": "43.35", "city": "Avenale", "lon": "13.233333"}, {"lat": "43.416667", "city": "Bagnola", "lon": "13.5"}, {"lat": "42.833333", "city": "Balzo", "lon": "13.316667"}, {"lat": "43.75", "city": "Barbara", "lon": "13.016667"}, {"lat": "43.866667", "city": "Barberini", "lon": "12.183333"}, {"lat": "43.35", "city": "Bastia", "lon": "12.816667"}, {"lat": "43.716667", "city": "Belforte all'Isauro", "lon": "12.366667"}, {"lat": "43.166667", "city": "Belforte", "lon": "13.233333"}, {"lat": "43.166667", "city": "Belforte del Chienti", "lon": "13.233333"}, {"lat": "43.166667", "city": "Belforte sul Chienti", "lon": "13.233333"}, {"lat": "43.533333", "city": "Bellisio di Sopra", "lon": "12.833333"}, {"lat": "43.716667", "city": "Belloca", "lon": "12.783333"}, {"lat": "43.8", "city": "Bellocchi", "lon": "12.983333"}, {"lat": "43.083333", "city": "Belmonte Piceno", "lon": "13.533333"}, {"lat": "43.233333", "city": "Belvedere", "lon": "12.85"}, {"lat": "43.566667", "city": "Belvedere Ostrense", "lon": "13.15"}, {"lat": "43.65", "city": "Bettolelle", "lon": "13.166667"}, {"lat": "42.833333", "city": "Bisignano", "lon": "13.35"}, {"lat": "43.333333", "city": "Bivio Sant'Angelo", "lon": "13.183333"}, {"lat": "42.983333", "city": "Bolognola", "lon": "13.233333"}, {"lat": "43.583333", "city": "Borghetto", "lon": "13.283333"}, {"lat": "43.566667", "city": "Borghetto di Fenigli", "lon": "12.783333"}, {"lat": "43.15", "city": "Borgianello", "lon": "13.183333"}, {"lat": "43.15", "city": "Borgiano", "lon": "13.2"}, {"lat": "42.983333", "city": "Borgo", "lon": "13.866667"}, {"lat": "43.766667", "city": "Borgo Lucrezia", "lon": "12.933333"}, {"lat": "43.65", "city": "Borgo Pace", "lon": "12.283333"}, {"lat": "43.866667", "city": "Borgo Santa Maria", "lon": "12.8"}, {"lat": "43.816667", "city": "Bronzo", "lon": "12.5"}, {"lat": "43.516667", "city": "Cabernardi", "lon": "12.866667"}, {"lat": "43.816667", "city": "Ca Boano", "lon": "12.266667"}, {"lat": "43.45", "city": "Cacciampone", "lon": "12.9"}, {"lat": "43.55", "city": "Cagli", "lon": "12.65"}, {"lat": "42.933333", "city": "Calcara", "lon": "13.15"}, {"lat": "43.75", "city": "Calcinelli", "lon": "12.916667"}, {"lat": "43.133333", "city": "Caldarola", "lon": "13.216667"}, {"lat": "43.883333", "city": "Calibano", "lon": "12.866667"}, {"lat": "43.883333", "city": "Calibano San Pietro", "lon": "12.866667"}, {"lat": "43.816667", "city": "Calvillano", "lon": "12.35"}, {"lat": "43.533333", "city": "Camerano", "lon": "13.55"}, {"lat": "43.566667", "city": "Camerata Picena", "lon": "13.35"}, {"lat": "43.133333", "city": "Camerino", "lon": "13.066667"}, {"lat": "43.233333", "city": "Campodonico", "lon": "12.866667"}, {"lat": "43.066667", "city": "Campofilone", "lon": "13.8"}, {"lat": "43.133333", "city": "Campolarzo", "lon": "13.15"}, {"lat": "42.85", "city": "Campolungo", "lon": "13.683333"}, {"lat": "43.133333", "city": "Camporotondo di Fiastrone", "lon": "13.266667"}, {"lat": "43.3", "city": "Cancelli", "lon": "12.833333"}, {"lat": "43.85", "city": "Candelara", "lon": "12.883333"}, {"lat": "43.566667", "city": "Candia", "lon": "13.483333"}, {"lat": "43.566667", "city": "Candia di Ancona", "lon": "13.483333"}, {"lat": "43.7", "city": "Cannella", "lon": "13.166667"}, {"lat": "43.366667", "city": "Cantia", "lon": "12.85"}, {"lat": "43.466667", "city": "Cantiano", "lon": "12.633333"}, {"lat": "43.916667", "city": "Capicchia", "lon": "12.4"}, {"lat": "43.916667", "city": "Capicchio", "lon": "12.4"}, {"lat": "42.733333", "city": "Capodacqua", "lon": "13.233333"}, {"lat": "43.183333", "city": "Capodarco", "lon": "13.766667"}, {"lat": "43.183333", "city": "Capodarso", "lon": "13.766667"}, {"lat": "42.75", "city": "Capodirigo", "lon": "13.333333"}, {"lat": "42.933333", "city": "Capradosso", "lon": "13.566667"}, {"lat": "43.766667", "city": "Caprazzino", "lon": "12.45"}, {"lat": "43.766667", "city": "Caprazzino Strada", "lon": "12.45"}, {"lat": "42.983333", "city": "Capriglia", "lon": "13.433333"}, {"lat": "43.783333", "city": "Ca Raffaele", "lon": "12.216667"}, {"lat": "43.016667", "city": "Carassai", "lon": "13.666667"}, {"lat": "43.566667", "city": "Cardella", "lon": "12.55"}, {"lat": "43.816667", "city": "Carignano", "lon": "12.933333"}, {"lat": "43.766667", "city": "Ca Romana", "lon": "12.233333"}, {"lat": "43.766667", "city": "Ca Romano", "lon": "12.233333"}, {"lat": "43.783333", "city": "Carpegna", "lon": "12.333333"}, {"lat": "43.616667", "city": "Cartoceto", "lon": "12.816667"}, {"lat": "43.633333", "city": "Casa Albonetti", "lon": "13.25"}, {"lat": "43.683333", "city": "Casa Allegretti", "lon": "12.9"}, {"lat": "43.533333", "city": "Casa Cappanera", "lon": "13.35"}, {"lat": "43.75", "city": "Casa Castellani", "lon": "13.1"}, {"lat": "43.516667", "city": "Casa del Vento", "lon": "13.133333"}, {"lat": "43.266667", "city": "Casa Gagliano", "lon": "13.383333"}, {"lat": "43.9", "city": "Casalbano", "lon": "12.216667"}, {"lat": "42.9", "city": "Casale", "lon": "13.416667"}, {"lat": "42.95", "city": "Casali", "lon": "13.166667"}, {"lat": "43.383333", "city": "Casalvento", "lon": "12.783333"}, {"lat": "43.516667", "city": "Casa Monte Adamo", "lon": "13.133333"}, {"lat": "43.533333", "city": "Casa Montesecco", "lon": "13.2"}, {"lat": "43", "city": "Casa Monti", "lon": "13.466667"}, {"lat": "43.533333", "city": "Casa Monticelli", "lon": "13.233333"}, {"lat": "43.733333", "city": "Casa Nuova", "lon": "12.366667"}, {"lat": "43.5", "city": "Casa Petromilli", "lon": "13.583333"}, {"lat": "42.866667", "city": "Casa Regnano", "lon": "13.733333"}, {"lat": "42.966667", "city": "Casaricchio", "lon": "13.3"}, {"lat": "43.766667", "city": "Casa Rotonda", "lon": "12.783333"}, {"lat": "43.016667", "city": "Casa San Giovanni", "lon": "13.766667"}, {"lat": "43.666667", "city": "Casa Santa Lucia", "lon": "13.15"}, {"lat": "43.416667", "city": "Casa Saraceni", "lon": "13.55"}, {"lat": "43.466667", "city": "Casa Serranello", "lon": "13.6"}, {"lat": "43.566667", "city": "Casa Vici", "lon": "13.1"}, {"lat": "43.366667", "city": "Cascina Mogliani", "lon": "13.566667"}, {"lat": "43.366667", "city": "Cascina Moiani", "lon": "13.566667"}, {"lat": "43.333333", "city": "Cascina Monte Serico", "lon": "13.666667"}, {"lat": "43.85", "city": "Case Arzilla", "lon": "12.883333"}, {"lat": "43.283333", "city": "Case Avenale", "lon": "12.933333"}, {"lat": "43.65", "city": "Case Bruciate", "lon": "13.35"}, {"lat": "43.616667", "city": "Case Selva Grande", "lon": "13.016667"}, {"lat": "43.633333", "city": "Casine", "lon": "13.133333"}, {"lat": "43.566667", "city": "Cassero", "lon": "13.383333"}, {"lat": "42.833333", "city": "Castagneto", "lon": "13.583333"}, {"lat": "43.483333", "city": "Castelbellino", "lon": "13.15"}, {"lat": "43.683333", "city": "Castel Colonna", "lon": "13.1"}, {"lat": "43.566667", "city": "Castel d'Emilio", "lon": "13.366667"}, {"lat": "42.933333", "city": "Castel di Croce", "lon": "13.516667"}, {"lat": "42.816667", "city": "Castel di Folignano", "lon": "13.633333"}, {"lat": "43.966667", "city": "Castel di Mezzo", "lon": "12.8"}, {"lat": "43.6", "city": "Castelferretti", "lon": "13.35"}, {"lat": "43.466667", "city": "Castelfidardo", "lon": "13.55"}, {"lat": "42.816667", "city": "Castel Folignano", "lon": "13.633333"}, {"lat": "43.833333", "city": "Castello", "lon": "12.283333"}, {"lat": "42.816667", "city": "Castello di Folignano", "lon": "13.633333"}, {"lat": "43.783333", "city": "Castello Ripalta", "lon": "12.866667"}, {"lat": "43.4", "city": "Castelnuovo", "lon": "13.533333"}, {"lat": "43.483333", "city": "Castelplanio", "lon": "13.083333"}, {"lat": "43.2", "city": "Castelraimondo", "lon": "13.066667"}, {"lat": "43.316667", "city": "Castel San Pietro", "lon": "13.133333"}, {"lat": "43.216667", "city": "Castel Santa Maria", "lon": "13"}, {"lat": "42.883333", "city": "Castelsantangelo", "lon": "13.15"}, {"lat": "43.333333", "city": "Castel Sant'Angelo", "lon": "13.166667"}, {"lat": "42.883333", "city": "Castelsantangelo sul Nera", "lon": "13.15"}, {"lat": "43.7", "city": "Castelvecchio", "lon": "13.05"}, {"lat": "42.933333", "city": "Castiglioni", "lon": "13.633333"}, {"lat": "42.933333", "city": "Castignano", "lon": "13.616667"}, {"lat": "42.9", "city": "Castorano", "lon": "13.716667"}, {"lat": "42.833333", "city": "Castro", "lon": "13.316667"}, {"lat": "43.483333", "city": "Catobagli", "lon": "12.85"}, {"lat": "43.516667", "city": "Caudino", "lon": "12.9"}, {"lat": "43.766667", "city": "Cavallino", "lon": "12.6"}, {"lat": "43.75", "city": "Cavoleto", "lon": "12.4"}, {"lat": "43.433333", "city": "Centofinestre", "lon": "13.383333"}, {"lat": "42.916667", "city": "Ceretana", "lon": "13.333333"}, {"lat": "42.866667", "city": "Cerqueto", "lon": "13.416667"}, {"lat": "43.316667", "city": "Cerreto", "lon": "12.983333"}, {"lat": "43.316667", "city": "Cerreto d'Esi", "lon": "12.983333"}, {"lat": "43.433333", "city": "Cervidone", "lon": "13.25"}, {"lat": "42.9", "city": "Cese", "lon": "13.316667"}, {"lat": "43.25", "city": "Cesolo", "lon": "13.183333"}, {"lat": "43.1", "city": "Cessapalombo", "lon": "13.25"}, {"lat": "43.6", "city": "Chiaravalle", "lon": "13.316667"}, {"lat": "43.6", "city": "Chiaravalle Marche", "lon": "13.316667"}, {"lat": "43.45", "city": "Chiaserna", "lon": "12.666667"}, {"lat": "43.566667", "city": "Chiesa di Porto Nuovo", "lon": "13.6"}, {"lat": "43.3", "city": "Chigiano", "lon": "13.133333"}, {"lat": "43.8", "city": "Cicognaia", "lon": "12.216667"}, {"lat": "43.366667", "city": "Cingoli", "lon": "13.216667"}, {"lat": "43.316667", "city": "Civitanova Alta", "lon": "13.666667"}, {"lat": "43.316667", "city": "Civitanova", "lon": "13.666667"}, {"lat": "43.316667", "city": "Civitanova Marche Alta", "lon": "13.666667"}, {"lat": "43.3", "city": "Civitanova Marche", "lon": "13.733333"}, {"lat": "42.783333", "city": "Cocoscia", "lon": "13.4"}, {"lat": "43.816667", "city": "Colbordolo", "lon": "12.716667"}, {"lat": "43.233333", "city": "Colbuccaro", "lon": "13.433333"}, {"lat": "43.45", "city": "Colcanino", "lon": "12.816667"}, {"lat": "43.316667", "city": "Colcerasa", "lon": "13.183333"}, {"lat": "43.4", "city": "Coldellanoce", "lon": "12.816667"}, {"lat": "43.35", "city": "Coldigioco", "lon": "13.116667"}, {"lat": "43.283333", "city": "Collamato", "lon": "12.95"}, {"lat": "42.983333", "city": "Collattoni", "lon": "12.966667"}, {"lat": "42.8", "city": "Colle", "lon": "13.5"}, {"lat": "43.366667", "city": "Collegiglioni", "lon": "12.916667"}, {"lat": "42.766667", "city": "Collegrato", "lon": "13.5"}, {"lat": "42.833333", "city": "Colleluce", "lon": "13.3"}, {"lat": "43.55", "city": "Colle San Luigi", "lon": "13.416667"}, {"lat": "42.866667", "city": "Colli del Tronto", "lon": "13.733333"}, {"lat": "43.166667", "city": "Colmurano", "lon": "13.35"}, {"lat": "43.516667", "city": "Colombara", "lon": "12.716667"}, {"lat": "43.516667", "city": "Colombaro", "lon": "12.716667"}, {"lat": "42.95", "city": "Comunanza", "lon": "13.416667"}, {"lat": "42.95", "city": "Comunanza del Littorio", "lon": "13.416667"}, {"lat": "42.916667", "city": "Consilvano", "lon": "13.366667"}, {"lat": "42.983333", "city": "Conti", "lon": "13.4"}, {"lat": "43.483333", "city": "Contrada i Monti", "lon": "13.333333"}, {"lat": "43.65", "city": "Corinaldo", "lon": "13.05"}, {"lat": "43.266667", "city": "Corneto", "lon": "13.433333"}, {"lat": "43.25", "city": "Corridonia", "lon": "13.5"}, {"lat": "42.983333", "city": "Cossignano", "lon": "13.683333"}, {"lat": "43.2", "city": "Crispiero", "lon": "13.083333"}, {"lat": "43.133333", "city": "Croce", "lon": "13.183333"}, {"lat": "43.7", "city": "Crocicchia", "lon": "12.633333"}, {"lat": "43.8", "city": "Cuccurano", "lon": "12.966667"}, {"lat": "42.983333", "city": "Cupi", "lon": "13.1"}, {"lat": "43.016667", "city": "Cupra Marittima", "lon": "13.85"}, {"lat": "43.45", "city": "Cupramontana", "lon": "13.116667"}, {"lat": "43.933333", "city": "Doccia", "lon": "12.383333"}, {"lat": "43.5", "city": "Doglio", "lon": "12.85"}, {"lat": "43.4", "city": "Domo", "lon": "13.05"}, {"lat": "43.333333", "city": "Elviano", "lon": "13.683333"}, {"lat": "43.25", "city": "Esanatoglia", "lon": "12.95"}, {"lat": "43.333333", "city": "Fabriano", "lon": "12.9"}, {"lat": "42.766667", "city": "Faete", "lon": "13.3"}, {"lat": "43.416667", "city": "Falcioni", "lon": "12.983333"}, {"lat": "43.616667", "city": "Falconara Alta", "lon": "13.4"}, {"lat": "43.616667", "city": "Falconara Marittima", "lon": "13.4"}, {"lat": "43.1", "city": "Falerone", "lon": "13.466667"}, {"lat": "43.833333", "city": "Fano", "lon": "13.016667"}, {"lat": "42.75", "city": "Favalanciata", "lon": "13.366667"}, {"lat": "42.916667", "city": "Fematre", "lon": "13"}, {"lat": "43.666667", "city": "Fermignano", "lon": "12.65"}, {"lat": "43.15", "city": "Fermo", "lon": "13.716667"}, {"lat": "43.05", "city": "Fiastra", "lon": "13.15"}, {"lat": "43.433333", "city": "Filottrano", "lon": "13.35"}, {"lat": "43.9", "city": "Fiorentino", "lon": "12.45"}, {"lat": "43.033333", "city": "Fiume", "lon": "13.166667"}, {"lat": "43.633333", "city": "Fiumesino", "lon": "13.366667"}, {"lat": "42.866667", "city": "Foce", "lon": "13.266667"}, {"lat": "42.816667", "city": "Folignano", "lon": "13.616667"}, {"lat": "43.766667", "city": "Fontecorniale", "lon": "12.816667"}, {"lat": "42.816667", "city": "Forca", "lon": "13.333333"}, {"lat": "43.15", "city": "Forcatura", "lon": "12.883333"}, {"lat": "42.95", "city": "Forcella", "lon": "12.95"}, {"lat": "43.683333", "city": "Fossombrone", "lon": "12.8"}, {"lat": "43.183333", "city": "Francavilla d'Ete", "lon": "13.533333"}, {"lat": "43.35", "city": "Frontale", "lon": "13.1"}, {"lat": "43.766667", "city": "Frontino", "lon": "12.366667"}, {"lat": "43.516667", "city": "Frontone", "lon": "12.733333"}, {"lat": "42.8", "city": "Funti", "lon": "13.5"}, {"lat": "42.883333", "city": "Gabbiano", "lon": "13.4"}, {"lat": "43.966667", "city": "Gabicce", "lon": "12.766667"}, {"lat": "43.233333", "city": "Gagliole", "lon": "13.05"}, {"lat": "42.833333", "city": "Gaico", "lon": "13.4"}, {"lat": "42.983333", "city": "Garalla", "lon": "13.283333"}, {"lat": "42.983333", "city": "Garulla", "lon": "13.283333"}, {"lat": "43.4", "city": "Gaville", "lon": "12.816667"}, {"lat": "43.433333", "city": "Genga", "lon": "12.933333"}, {"lat": "43.9", "city": "Gesso", "lon": "12.5"}, {"lat": "42.866667", "city": "Gimigliano", "lon": "13.533333"}, {"lat": "43.833333", "city": "Ginestreto", "lon": "12.816667"}, {"lat": "43.466667", "city": "Gli Angeli", "lon": "13.066667"}, {"lat": "43.95", "city": "Gradara", "lon": "12.766667"}, {"lat": "43.583333", "city": "Grancetta", "lon": "13.35"}, {"lat": "42.733333", "city": "Grisciano", "lon": "13.25"}, {"lat": "42.983333", "city": "Grottammare", "lon": "13.866667"}, {"lat": "43.1", "city": "Grottazzolina", "lon": "13.6"}, {"lat": "43.533333", "city": "Grumale", "lon": "12.683333"}, {"lat": "43.066667", "city": "Gualdo di Macerata", "lon": "13.333333"}, {"lat": "42.883333", "city": "Gualdo", "lon": "13.166667"}, {"lat": "43.516667", "city": "Iesi", "lon": "13.233333"}, {"lat": "43.233333", "city": "Il Castello", "lon": "13.516667"}, {"lat": "42.9", "city": "Illice", "lon": "13.4"}, {"lat": "43.75", "city": "Il Palazzone", "lon": "12.65"}, {"lat": "43.416667", "city": "Il Ritiro", "lon": "13.133333"}, {"lat": "43.733333", "city": "Isola del Piano", "lon": "12.783333"}, {"lat": "43.65", "city": "Isola di Fano", "lon": "12.85"}, {"lat": "43.333333", "city": "Isola", "lon": "13.116667"}, {"lat": "42.9", "city": "Isola San Biagio", "lon": "13.3"}, {"lat": "43.516667", "city": "Jesi", "lon": "13.233333"}, {"lat": "43.816667", "city": "La Casinina", "lon": "12.583333"}, {"lat": "43.716667", "city": "La Figurina", "lon": "13.016667"}, {"lat": "42.9", "city": "Lanciatoio", "lon": "13.333333"}, {"lat": "43.1", "city": "Lapedona", "lon": "13.766667"}, {"lat": "43.566667", "city": "La Pieve", "lon": "13.133333"}, {"lat": "43.75", "city": "La Torraccia", "lon": "12.7"}, {"lat": "43.75", "city": "La Torrazza", "lon": "12.7"}, {"lat": "43.133333", "city": "Laverino", "lon": "12.883333"}, {"lat": "43.483333", "city": "La Villa", "lon": "13.416667"}, {"lat": "43.566667", "city": "Le Casine", "lon": "13.416667"}, {"lat": "43.6", "city": "Le Grazie di Ancona", "lon": "13.5"}, {"lat": "43.6", "city": "Le Gr\u00e1zie", "lon": "13.5"}, {"lat": "43.366667", "city": "Le Rucce", "lon": "12.783333"}, {"lat": "42.816667", "city": "Lisciano", "lon": "13.6"}, {"lat": "43.45", "city": "L'Isola", "lon": "12.9"}, {"lat": "42.9", "city": "Lontignano", "lon": "13.366667"}, {"lat": "43.566667", "city": "Loretello", "lon": "12.95"}, {"lat": "43.433333", "city": "Loreto", "lon": "13.6"}, {"lat": "43.166667", "city": "Loro", "lon": "13.416667"}, {"lat": "43.166667", "city": "Loro Piceno", "lon": "13.416667"}, {"lat": "42.766667", "city": "Luco", "lon": "13.416667"}, {"lat": "43.766667", "city": "Lucrezia", "lon": "12.933333"}, {"lat": "43.733333", "city": "Lunano", "lon": "12.433333"}, {"lat": "42.9", "city": "Macchie", "lon": "13.183333"}, {"lat": "43.8", "city": "Macerata Feltria", "lon": "12.433333"}, {"lat": "43.3", "city": "Macerata", "lon": "13.45"}, {"lat": "42.966667", "city": "Macereto", "lon": "13.1"}, {"lat": "43.85", "city": "Maciano", "lon": "12.283333"}, {"lat": "43.716667", "city": "Maciolla", "lon": "12.6"}, {"lat": "43.133333", "city": "Magliano di Tenna", "lon": "13.566667"}, {"lat": "43.9", "city": "Maiano", "lon": "12.183333"}, {"lat": "43.466667", "city": "Maiolati", "lon": "13.1"}, {"lat": "43.466667", "city": "Maiolati Spontini", "lon": "13.1"}, {"lat": "43.866667", "city": "Maiolo", "lon": "12.3"}, {"lat": "43.65", "city": "Marina Alta", "lon": "13.333333"}, {"lat": "43.65", "city": "Marina di Montemarciano", "lon": "13.35"}, {"lat": "43.15", "city": "Marina Palmense", "lon": "13.8"}, {"lat": "42.833333", "city": "Marino", "lon": "13.65"}, {"lat": "43.333333", "city": "Marischio", "lon": "12.866667"}, {"lat": "43.766667", "city": "Marotta", "lon": "13.133333"}, {"lat": "42.85", "city": "Marsia", "lon": "13.466667"}, {"lat": "43.15", "city": "Massa Fermana", "lon": "13.466667"}, {"lat": "43.183333", "city": "Massa", "lon": "12.933333"}, {"lat": "43.05", "city": "Massignano", "lon": "13.783333"}, {"lat": "43.25", "city": "Matelica", "lon": "13"}, {"lat": "42.75", "city": "Matera", "lon": "13.383333"}, {"lat": "43.516667", "city": "Mazzangrugno", "lon": "13.316667"}, {"lat": "43.783333", "city": "Mercatale di Sassocorvato", "lon": "12.483333"}, {"lat": "43.783333", "city": "Mercatale", "lon": "12.483333"}, {"lat": "43.65", "city": "Mercatello", "lon": "12.333333"}, {"lat": "43.65", "city": "Mercatello sul Metauro", "lon": "12.333333"}, {"lat": "43.883333", "city": "Mercatino Marecchia", "lon": "12.283333"}, {"lat": "43.883333", "city": "Mercatino", "lon": "12.283333"}, {"lat": "43.8", "city": "Mercato Vecchio", "lon": "12.366667"}, {"lat": "43.466667", "city": "Mergo", "lon": "13.033333"}, {"lat": "42.9", "city": "Mevale", "lon": "12.983333"}, {"lat": "43.183333", "city": "Mogliano", "lon": "13.466667"}, {"lat": "42.966667", "city": "Moglietta", "lon": "13.3"}, {"lat": "43.5", "city": "Moie di Maiolati", "lon": "13.116667"}, {"lat": "43.5", "city": "Moie", "lon": "13.116667"}, {"lat": "43.85", "city": "Moleto", "lon": "12.316667"}, {"lat": "43.6", "city": "Molino Abbadia", "lon": "12.35"}, {"lat": "43.583333", "city": "Molino Americano", "lon": "13.333333"}, {"lat": "43.583333", "city": "Molino Apolloni", "lon": "13.083333"}, {"lat": "43.683333", "city": "Molino Cesano", "lon": "13.05"}, {"lat": "43.616667", "city": "Molino Cesaretti", "lon": "13.333333"}, {"lat": "43.283333", "city": "Molino Ciccolini", "lon": "13.683333"}, {"lat": "43.566667", "city": "Molino d'Agugliano", "lon": "13.333333"}, {"lat": "43.616667", "city": "Molino di Ancona", "lon": "13.366667"}, {"lat": "43.033333", "city": "Molino di Carassai", "lon": "13.666667"}, {"lat": "43.183333", "city": "Molino di Monte Urano", "lon": "13.683333"}, {"lat": "43.583333", "city": "Molino di Piano", "lon": "12.45"}, {"lat": "43.366667", "city": "Molino di Recanati", "lon": "13.583333"}, {"lat": "43.65", "city": "Molino di Ripe", "lon": "13.116667"}, {"lat": "43.716667", "city": "Molino di San Costanzo", "lon": "13.083333"}, {"lat": "43.166667", "city": "Molino Gigliucci", "lon": "13.666667"}, {"lat": "43.016667", "city": "Molino", "lon": "13.45"}, {"lat": "43.483333", "city": "Molino Paolini", "lon": "13.15"}, {"lat": "43.066667", "city": "Molino Penna", "lon": "13.45"}, {"lat": "43.633333", "city": "Molino Santinelli", "lon": "13.35"}, {"lat": "43.8", "city": "Mombaroccio", "lon": "12.85"}, {"lat": "43.666667", "city": "Mondavio", "lon": "12.966667"}, {"lat": "43.75", "city": "Mondolfo", "lon": "13.1"}, {"lat": "43.183333", "city": "Monsampietr\u00e1ngeli", "lon": "13.566667"}, {"lat": "42.9", "city": "Monsampietro", "lon": "13.5"}, {"lat": "43.066667", "city": "Monsampietro Morico", "lon": "13.55"}, {"lat": "42.9", "city": "Monsampolo del Tronto", "lon": "13.783333"}, {"lat": "43.55", "city": "Monsano", "lon": "13.25"}, {"lat": "43.583333", "city": "Montacuto di Ancona", "lon": "13.55"}, {"lat": "43.583333", "city": "Montacuto", "lon": "13.55"}, {"lat": "42.9", "city": "Montadamo", "lon": "13.533333"}, {"lat": "42.983333", "city": "Montalto delle Marche", "lon": "13.6"}, {"lat": "43.133333", "city": "Montappone", "lon": "13.466667"}, {"lat": "43.416667", "city": "Montarice", "lon": "13.633333"}, {"lat": "42.933333", "city": "Montatteglia", "lon": "13.383333"}, {"lat": "43.85", "city": "Monte Altavelio", "lon": "12.5"}, {"lat": "43.85", "city": "Monte Benedetto", "lon": "12.233333"}, {"lat": "43.816667", "city": "Monteboaggine", "lon": "12.35"}, {"lat": "43.816667", "city": "Montecalvo in Foglia", "lon": "12.633333"}, {"lat": "43.35", "city": "Monte Canepino", "lon": "13.633333"}, {"lat": "43.516667", "city": "Montecarotto", "lon": "13.066667"}, {"lat": "43.35", "city": "Montecassiano", "lon": "13.433333"}, {"lat": "43.85", "city": "Montecchio", "lon": "12.766667"}, {"lat": "43.833333", "city": "Monte Cerignone", "lon": "12.416667"}, {"lat": "43.816667", "city": "Monteciccardo", "lon": "12.8"}, {"lat": "43.316667", "city": "Montecosaro", "lon": "13.616667"}, {"lat": "42.966667", "city": "Montedinove", "lon": "13.583333"}, {"lat": "43.816667", "city": "Monte Fabbri", "lon": "12.7"}, {"lat": "42.983333", "city": "Montefalcone Appennino", "lon": "13.466667"}, {"lat": "43.416667", "city": "Montefano", "lon": "13.433333"}, {"lat": "43.4", "city": "Montefano Vecchio", "lon": "13.416667"}, {"lat": "43.4", "city": "Monte Fanovecchio", "lon": "13.416667"}, {"lat": "43.033333", "city": "Montefiore dell'Aso", "lon": "13.733333"}, {"lat": "42.933333", "city": "Montefortino", "lon": "13.333333"}, {"lat": "43.933333", "city": "Montefotogno", "lon": "12.35"}, {"lat": "43.516667", "city": "Monte Gallo", "lon": "13.466667"}, {"lat": "43.8", "city": "Montegaudio", "lon": "12.783333"}, {"lat": "43.9", "city": "Monte Giardino", "lon": "12.5"}, {"lat": "43.083333", "city": "Monte Giberto", "lon": "13.616667"}, {"lat": "43.133333", "city": "Montegiorgio", "lon": "13.533333"}, {"lat": "43.233333", "city": "Montegranaro", "lon": "13.633333"}, {"lat": "43.766667", "city": "Monte Guiduccio", "lon": "12.766667"}, {"lat": "43.85", "city": "Montelabate", "lon": "12.8"}, {"lat": "43.85", "city": "Montelabbate", "lon": "12.8"}, {"lat": "43.883333", "city": "Monte Licciano", "lon": "12.466667"}, {"lat": "43.016667", "city": "Montelparo", "lon": "13.533333"}, {"lat": "43.333333", "city": "Montelupone", "lon": "13.566667"}, {"lat": "43.916667", "city": "Monteluro", "lon": "12.766667"}, {"lat": "43.916667", "city": "Montelurro", "lon": "12.766667"}, {"lat": "43.9", "city": "Montemaggio", "lon": "12.4"}, {"lat": "43.75", "city": "Montemaggiore al Metauro", "lon": "12.933333"}, {"lat": "43.633333", "city": "Montemarciano", "lon": "13.316667"}, {"lat": "42.9", "city": "Montemonaco", "lon": "13.316667"}, {"lat": "43.733333", "city": "Monte Nuovo", "lon": "12.466667"}, {"lat": "42.916667", "city": "Monteprandone", "lon": "13.833333"}, {"lat": "43.7", "city": "Monterado", "lon": "13.083333"}, {"lat": "43.016667", "city": "Monte Rinaldo", "lon": "13.566667"}, {"lat": "43.466667", "city": "Monte Roberto", "lon": "13.116667"}, {"lat": "43.716667", "city": "Monterone", "lon": "12.35"}, {"lat": "42.816667", "city": "Monte Rosara", "lon": "13.533333"}, {"lat": "43.833333", "city": "Monterotto", "lon": "12.366667"}, {"lat": "43.083333", "city": "Monterubbiano", "lon": "13.716667"}, {"lat": "43.233333", "city": "Monte San Giustano", "lon": "13.6"}, {"lat": "43.233333", "city": "Monte San Giusto", "lon": "13.6"}, {"lat": "43.033333", "city": "Monte San Martino", "lon": "13.433333"}, {"lat": "43.183333", "city": "Monte San Pietrangeli", "lon": "13.566667"}, {"lat": "43.6", "city": "Monte San Vito", "lon": "13.266667"}, {"lat": "43.55", "city": "Montesciuro", "lon": "13.45"}, {"lat": "43.55", "city": "Montesicuro", "lon": "13.45"}, {"lat": "43.85", "city": "Montetassi", "lon": "12.433333"}, {"lat": "43.2", "city": "Monte Urano", "lon": "13.666667"}, {"lat": "43.033333", "city": "Monte Vidon Combatte", "lon": "13.45"}, {"lat": "43.116667", "city": "Monte Vidon Corrado", "lon": "13.483333"}, {"lat": "43.45", "city": "Montoro", "lon": "13.416667"}, {"lat": "43.05", "city": "Montottone", "lon": "13.566667"}, {"lat": "43.483333", "city": "Morello", "lon": "12.8"}, {"lat": "43.083333", "city": "Moresco", "lon": "13.716667"}, {"lat": "43.083333", "city": "Morichella", "lon": "13.266667"}, {"lat": "43.6", "city": "Morro d'Alba", "lon": "13.2"}, {"lat": "43.316667", "city": "Morrovalle", "lon": "13.566667"}, {"lat": "43.083333", "city": "Muccia", "lon": "13.033333"}, {"lat": "43.083333", "city": "M\u00faccia Vallicchio", "lon": "13.033333"}, {"lat": "43.983333", "city": "Muraglia", "lon": "12.933333"}, {"lat": "43.383333", "city": "Nebbiano", "lon": "12.9"}, {"lat": "42.883333", "city": "Nocelleto", "lon": "13.15"}, {"lat": "42.9", "city": "Nocria", "lon": "13.133333"}, {"lat": "43.883333", "city": "Novafeltria", "lon": "12.283333"}, {"lat": "42.766667", "city": "Novele", "lon": "13.366667"}, {"lat": "43.866667", "city": "Novilara", "lon": "12.933333"}, {"lat": "43.516667", "city": "Numana", "lon": "13.616667"}, {"lat": "43.516667", "city": "Offagna", "lon": "13.433333"}, {"lat": "42.933333", "city": "Offida", "lon": "13.683333"}, {"lat": "42.866667", "city": "Olibra Incinante", "lon": "13.45"}, {"lat": "42.866667", "city": "Olibra Incinesca", "lon": "13.516667"}, {"lat": "43.683333", "city": "Orciano di Pesaro", "lon": "12.966667"}, {"lat": "43.033333", "city": "Ortezzano", "lon": "13.6"}, {"lat": "42.916667", "city": "Orvano", "lon": "13.033333"}, {"lat": "43.483333", "city": "Osimo", "lon": "13.483333"}, {"lat": "42.85", "city": "Osoli", "lon": "13.433333"}, {"lat": "43.6", "city": "Ostra", "lon": "13.05"}, {"lat": "43.6", "city": "Ostra Vetere", "lon": "13.05"}, {"lat": "43.666667", "city": "Pagino", "lon": "12.733333"}, {"lat": "43.766667", "city": "Palazzo dei Maschi", "lon": "12.566667"}, {"lat": "43.216667", "city": "Palazzo", "lon": "12.933333"}, {"lat": "43.766667", "city": "Pallino", "lon": "12.65"}, {"lat": "42.9", "city": "Palmiano", "lon": "13.45"}, {"lat": "43.616667", "city": "Palombina Nuova", "lon": "13.4"}, {"lat": "43.616667", "city": "Palombina Vecchia", "lon": "13.433333"}, {"lat": "42.966667", "city": "Paradisi", "lon": "13.35"}, {"lat": "43.4", "city": "Parrochia di Chiarino", "lon": "13.6"}, {"lat": "43.7", "city": "Parrochia di Croc\u00edcchia", "lon": "12.633333"}, {"lat": "43.816667", "city": "Parrochia di Ripe", "lon": "12.75"}, {"lat": "43.283333", "city": "Passo di Treia", "lon": "13.333333"}, {"lat": "43.283333", "city": "Passo di Treja", "lon": "13.333333"}, {"lat": "42.833333", "city": "Pastina", "lon": "13.416667"}, {"lat": "43.566667", "city": "Paterno d' Ancona", "lon": "13.4"}, {"lat": "42.966667", "city": "Paterno", "lon": "13.316667"}, {"lat": "42.966667", "city": "Patrignone", "lon": "13.6"}, {"lat": "42.8", "city": "Pedana", "lon": "13.483333"}, {"lat": "43.1", "city": "Pedaso", "lon": "13.833333"}, {"lat": "43.7", "city": "Peglio", "lon": "12.483333"}, {"lat": "43.816667", "city": "Penn\u00e1bili", "lon": "12.266667"}, {"lat": "43.816667", "city": "Pennabilli", "lon": "12.266667"}, {"lat": "43.05", "city": "Penna San Giovanni", "lon": "13.416667"}, {"lat": "43.85", "city": "Pereto", "lon": "12.2"}, {"lat": "43.566667", "city": "Pergola", "lon": "12.833333"}, {"lat": "43.9", "city": "Perticara", "lon": "12.233333"}, {"lat": "43.9", "city": "Pesaro", "lon": "12.916667"}, {"lat": "42.75", "city": "Pescara", "lon": "13.266667"}, {"lat": "42.883333", "city": "Pescoglia", "lon": "13.733333"}, {"lat": "42.883333", "city": "Pescolla", "lon": "13.733333"}, {"lat": "43.85", "city": "Petrella Guidi", "lon": "12.25"}, {"lat": "43.783333", "city": "Petriano", "lon": "12.733333"}, {"lat": "43.216667", "city": "Petriolo", "lon": "13.466667"}, {"lat": "43.066667", "city": "Petritoli", "lon": "13.65"}, {"lat": "42.833333", "city": "Piagge", "lon": "13.55"}, {"lat": "43.733333", "city": "Piaggie", "lon": "12.966667"}, {"lat": "43.766667", "city": "Piagnano", "lon": "12.45"}, {"lat": "42.8", "city": "Piana di Forcella", "lon": "13.416667"}, {"lat": "43.716667", "city": "Piandimeleto", "lon": "12.416667"}, {"lat": "43.583333", "city": "Pian di Mulino", "lon": "12.45"}, {"lat": "43.516667", "city": "Pianello", "lon": "12.55"}, {"lat": "43.3", "city": "Piane", "lon": "13.016667"}, {"lat": "43.333333", "city": "Piani di Cassia", "lon": "13.416667"}, {"lat": "42.85", "city": "Piano", "lon": "13.333333"}, {"lat": "42.883333", "city": "Piantabete", "lon": "13.366667"}, {"lat": "43.016667", "city": "Pi\u00e8 del Colle", "lon": "13.166667"}, {"lat": "42.983333", "city": "Pi\u00e8 del Sasso", "lon": "12.983333"}, {"lat": "42.783333", "city": "Piedilama", "lon": "13.283333"}, {"lat": "43.95", "city": "Pietracuta", "lon": "12.366667"}, {"lat": "43.6", "city": "Pietra la Croce", "lon": "13.533333"}, {"lat": "43.916667", "city": "Pietramaura", "lon": "12.366667"}, {"lat": "43.066667", "city": "Pievebovigliana", "lon": "13.083333"}, {"lat": "43.783333", "city": "Pieve di Carpegna", "lon": "12.35"}, {"lat": "43.033333", "city": "Pieve Torina", "lon": "13.05"}, {"lat": "43.833333", "city": "Pieve Vecchia", "lon": "12.833333"}, {"lat": "43.583333", "city": "Pinocchio di Ancona", "lon": "13.5"}, {"lat": "43.583333", "city": "Pinocchio", "lon": "13.5"}, {"lat": "43.583333", "city": "Piobbico", "lon": "12.516667"}, {"lat": "43.183333", "city": "Pioraco", "lon": "12.983333"}, {"lat": "42.933333", "city": "Pippiete", "lon": "13.383333"}, {"lat": "43.533333", "city": "Piticchio", "lon": "12.966667"}, {"lat": "42.733333", "city": "Pito", "lon": "13.416667"}, {"lat": "42.95", "city": "Poggio Canoso", "lon": "13.516667"}, {"lat": "43.45", "city": "Poggio Cupro", "lon": "13.083333"}, {"lat": "42.916667", "city": "Poggio", "lon": "13.366667"}, {"lat": "43.833333", "city": "Poggio San Giovanni", "lon": "12.55"}, {"lat": "43.366667", "city": "Poggio San Vicino", "lon": "13.066667"}, {"lat": "43.15", "city": "Poggio Sorifa", "lon": "12.85"}, {"lat": "42.9", "city": "Polesia", "lon": "13.55"}, {"lat": "43.266667", "city": "Pollenza", "lon": "13.35"}, {"lat": "43.516667", "city": "Polverigi", "lon": "13.383333"}, {"lat": "42.866667", "city": "Polverina", "lon": "13.366667"}, {"lat": "42.75", "city": "Pomaro", "lon": "13.4"}, {"lat": "43.866667", "city": "Ponte Molino Baffoni", "lon": "12.283333"}, {"lat": "43.433333", "city": "Pontericcioli", "lon": "12.633333"}, {"lat": "43.7", "city": "Ponticelli", "lon": "13.166667"}, {"lat": "43.183333", "city": "Pontile", "lon": "12.933333"}, {"lat": "43.083333", "city": "Ponzano di Fermo", "lon": "13.633333"}, {"lat": "42.9", "city": "Porchiano", "lon": "13.566667"}, {"lat": "42.983333", "city": "Porchia", "lon": "13.616667"}, {"lat": "43.3", "city": "Porto Civitanova", "lon": "13.733333"}, {"lat": "42.916667", "city": "Porto d'Ascoli", "lon": "13.883333"}, {"lat": "43.35", "city": "Porto di Potenza Picena", "lon": "13.7"}, {"lat": "43.583333", "city": "Portonovo", "lon": "13.583333"}, {"lat": "43.583333", "city": "Porto Novo", "lon": "13.583333"}, {"lat": "43.583333", "city": "Porto Nuovo", "lon": "13.583333"}, {"lat": "43.35", "city": "Porto Potenza Picena", "lon": "13.7"}, {"lat": "43.433333", "city": "Porto Recanati", "lon": "13.666667"}, {"lat": "43.183333", "city": "Porto San Giorgio", "lon": "13.8"}, {"lat": "43.25", "city": "Porto Sant'Elpidio a Mare", "lon": "13.75"}, {"lat": "43.25", "city": "Porto Sant'Elpidio", "lon": "13.75"}, {"lat": "43.6", "city": "Posatora", "lon": "13.466667"}, {"lat": "43.366667", "city": "Potenza Picena", "lon": "13.616667"}, {"lat": "43.883333", "city": "Pozzo Alto", "lon": "12.783333"}, {"lat": "43.4", "city": "Precicchie", "lon": "13.033333"}, {"lat": "42.866667", "city": "Propezzano", "lon": "13.35"}, {"lat": "43.866667", "city": "Pugliano", "lon": "12.366667"}, {"lat": "43.483333", "city": "Radicosa", "lon": "12.85"}, {"lat": "43.15", "city": "Rapagnano", "lon": "13.583333"}, {"lat": "42.866667", "city": "Rapegna", "lon": "13.15"}, {"lat": "43.4", "city": "Recanati", "lon": "13.533333"}, {"lat": "42.816667", "city": "Rigo", "lon": "13.316667"}, {"lat": "42.95", "city": "Riofreddo", "lon": "12.983333"}, {"lat": "42.916667", "city": "Ripaberarda", "lon": "13.583333"}, {"lat": "43", "city": "Ripatransone", "lon": "13.766667"}, {"lat": "43.15", "city": "Ripe", "lon": "13.366667"}, {"lat": "43.15", "city": "Ripe San Ginesio", "lon": "13.366667"}, {"lat": "43.633333", "city": "Rocca Priora", "lon": "13.366667"}, {"lat": "42.883333", "city": "Rocca", "lon": "13.3"}, {"lat": "42.85", "city": "Ronciglione", "lon": "13.4"}, {"lat": "43.7", "city": "Roncitelli", "lon": "13.133333"}, {"lat": "42.883333", "city": "Ropaga", "lon": "13.333333"}, {"lat": "42.833333", "city": "Rosara Pescara", "lon": "13.533333"}, {"lat": "43.816667", "city": "Rosciano", "lon": "12.983333"}, {"lat": "43.416667", "city": "Rosenga", "lon": "12.95"}, {"lat": "43.483333", "city": "Rosora", "lon": "13.05"}, {"lat": "42.95", "city": "Rotella", "lon": "13.55"}, {"lat": "43.416667", "city": "Rotorscio", "lon": "13.05"}, {"lat": "42.966667", "city": "Rovetino", "lon": "13.533333"}, {"lat": "42.95", "city": "Rovitolo", "lon": "13.333333"}, {"lat": "42.916667", "city": "Rubbiano", "lon": "13.3"}, {"lat": "42.983333", "city": "Rustici", "lon": "13.333333"}, {"lat": "43.5", "city": "Rustico", "lon": "13.35"}, {"lat": "43.2", "city": "Salmaregia", "lon": "12.866667"}, {"lat": "43.75", "city": "Saltara", "lon": "12.9"}, {"lat": "43.633333", "city": "Sampiano", "lon": "12.283333"}, {"lat": "43.666667", "city": "San Angelo in Vado", "lon": "12.416667"}, {"lat": "43.816667", "city": "San Angelo", "lon": "12.8"}, {"lat": "42.95", "city": "San Benedetto del Tronto", "lon": "13.883333"}, {"lat": "43.866667", "city": "San Biagio", "lon": "12.3"}, {"lat": "43.7", "city": "San Cipriano", "lon": "12.6"}, {"lat": "43.766667", "city": "San Costanzo", "lon": "13.066667"}, {"lat": "43.7", "city": "San Cristoforo de Valli", "lon": "12.733333"}, {"lat": "43.7", "city": "San Cristof\u00f3ro", "lon": "12.733333"}, {"lat": "43.133333", "city": "San Croce", "lon": "13.466667"}, {"lat": "43.2", "city": "San Crocifisso", "lon": "13.383333"}, {"lat": "43.783333", "city": "San Donato in Taviglione", "lon": "12.533333"}, {"lat": "43.883333", "city": "San Donato", "lon": "12.2"}, {"lat": "43.233333", "city": "San Elpido a Mare", "lon": "13.683333"}, {"lat": "43.4", "city": "San Filippo", "lon": "13.6"}, {"lat": "42.95", "city": "San Francesco", "lon": "13.533333"}, {"lat": "43.7", "city": "San Gaudenzio", "lon": "13.2"}, {"lat": "43.1", "city": "San Ginesio", "lon": "13.316667"}, {"lat": "43.716667", "city": "San Giorgio di Pesaro", "lon": "12.966667"}, {"lat": "43.816667", "city": "San Giorgio", "lon": "12.683333"}, {"lat": "42.95", "city": "San Giovanni in Strada", "lon": "13.733333"}, {"lat": "43.05", "city": "San Girolamo di Sopra", "lon": "13.366667"}, {"lat": "43.05", "city": "San Gir\u00f3lamo", "lon": "13.366667"}, {"lat": "42.75", "city": "San Gregorio", "lon": "13.466667"}, {"lat": "43.9", "city": "San Leo", "lon": "12.35"}, {"lat": "43.6", "city": "San Lorenzo in Campo", "lon": "12.933333"}, {"lat": "42.866667", "city": "San Lorenzo", "lon": "13.3"}, {"lat": "43.566667", "city": "San Marcello", "lon": "13.2"}, {"lat": "43.45", "city": "San Marco", "lon": "13.116667"}, {"lat": "43.533333", "city": "San Mariano", "lon": "12.966667"}, {"lat": "42.983333", "city": "San Martino al Foggio", "lon": "13.4"}, {"lat": "43.633333", "city": "San Martino dei Muri", "lon": "12.8"}, {"lat": "42.966667", "city": "San Martino", "lon": "12.916667"}, {"lat": "43.266667", "city": "San Mauro", "lon": "13.15"}, {"lat": "43.45", "city": "San Paolo di Iesi", "lon": "13.166667"}, {"lat": "43.5", "city": "San Paterniano", "lon": "13.433333"}, {"lat": "43.383333", "city": "San Pietro di Recanati", "lon": "13.55"}, {"lat": "43.2", "city": "San Pietro", "lon": "13.5"}, {"lat": "42.916667", "city": "San Placido", "lon": "13.133333"}, {"lat": "43.533333", "city": "San Savino", "lon": "12.733333"}, {"lat": "43.216667", "city": "San Severino Marche", "lon": "13.166667"}, {"lat": "43.65", "city": "San Silvestro", "lon": "12.583333"}, {"lat": "43.75", "city": "San Sisto", "lon": "12.35"}, {"lat": "43.866667", "city": "Sant'Agata Feltria", "lon": "12.2"}, {"lat": "43.116667", "city": "Santa Luca", "lon": "13.083333"}, {"lat": "42.916667", "city": "Santa Lucia in Consilvano", "lon": "13.383333"}, {"lat": "42.916667", "city": "Santa Lucia", "lon": "13.383333"}, {"lat": "43.45", "city": "Santa Margherita", "lon": "13.383333"}, {"lat": "42.816667", "city": "Santa Maria a Corte", "lon": "13.6"}, {"lat": "43.483333", "city": "Santa Maria a Potenza", "lon": "13.65"}, {"lat": "43.666667", "city": "Santa Maria della Valle", "lon": "12.833333"}, {"lat": "43.333333", "city": "Santa Maria di Paterno", "lon": "13.266667"}, {"lat": "43.566667", "city": "Santa Maria di Porto Novo", "lon": "13.6"}, {"lat": "43.566667", "city": "Santa Maria di Porto Nuovo", "lon": "13.6"}, {"lat": "42.833333", "city": "Santa Maria in Lapide", "lon": "13.333333"}, {"lat": "43.483333", "city": "Santa Maria Nuova", "lon": "13.3"}, {"lat": "42.766667", "city": "Santa Maria", "lon": "13.4"}, {"lat": "43.933333", "city": "Santa Marina", "lon": "12.866667"}, {"lat": "43.816667", "city": "Sant'Angelo in Lizzola", "lon": "12.8"}, {"lat": "43.1", "city": "Sant'Angelo in Pontano", "lon": "13.4"}, {"lat": "43.666667", "city": "Sant'Angelo in Vado", "lon": "12.416667"}, {"lat": "42.95", "city": "Sant'Angelo", "lon": "13.816667"}, {"lat": "43.75", "city": "Sant'Apollinare in Girfalco", "lon": "12.55"}, {"lat": "43.883333", "city": "Sant'Apollinare", "lon": "12.333333"}, {"lat": "43.016667", "city": "Santa Vittoria in Matenano", "lon": "13.483333"}, {"lat": "43.233333", "city": "Sant'Elpidio a Mare", "lon": "13.683333"}, {"lat": "43.033333", "city": "Sant'Elpidio Morico", "lon": "13.55"}, {"lat": "43.683333", "city": "Sant'Ippolito", "lon": "12.866667"}, {"lat": "43.1", "city": "Sant'Isidoro", "lon": "13.583333"}, {"lat": "43.683333", "city": "San Venanzio", "lon": "12.783333"}, {"lat": "42.95", "city": "San Venanzo", "lon": "13.633333"}, {"lat": "43.016667", "city": "San Vittoria", "lon": "13.483333"}, {"lat": "43.033333", "city": "Sarnano", "lon": "13.3"}, {"lat": "43.783333", "city": "Sassocorvaro", "lon": "12.5"}, {"lat": "43.9", "city": "Sasso Feltrio", "lon": "12.5"}, {"lat": "43.433333", "city": "Sassoferrato", "lon": "12.85"}, {"lat": "43.45", "city": "Sasso", "lon": "13.05"}, {"lat": "43.716667", "city": "Scapezzano", "lon": "13.15"}, {"lat": "43.816667", "city": "Scavolino", "lon": "12.3"}, {"lat": "43.783333", "city": "Schieti", "lon": "12.633333"}, {"lat": "43.55", "city": "Secchiano", "lon": "12.6"}, {"lat": "43.15", "city": "Sefro", "lon": "12.95"}, {"lat": "43.716667", "city": "Senigallia", "lon": "13.216667"}, {"lat": "43.066667", "city": "Sentino", "lon": "13.1"}, {"lat": "43.166667", "city": "Seppio", "lon": "13.016667"}, {"lat": "43.55", "city": "Serra de' Conti", "lon": "13.033333"}, {"lat": "43.266667", "city": "Serradica", "lon": "12.85"}, {"lat": "43.866667", "city": "Serra di Maiolo", "lon": "12.3"}, {"lat": "43.3", "city": "Serralta", "lon": "13.183333"}, {"lat": "43.183333", "city": "Serrapetrona", "lon": "13.183333"}, {"lat": "43.45", "city": "Serra San Quirico", "lon": "13.016667"}, {"lat": "43.483333", "city": "Serra Sant'Abbondio", "lon": "12.766667"}, {"lat": "43.066667", "city": "Serravalle di Chienti", "lon": "12.95"}, {"lat": "43.083333", "city": "Servigliano", "lon": "13.483333"}, {"lat": "43.25", "city": "Sforzacosta", "lon": "13.416667"}, {"lat": "43.533333", "city": "Sirolo", "lon": "13.616667"}, {"lat": "43.583333", "city": "Smirra", "lon": "12.666667"}, {"lat": "43.85", "city": "Soanne", "lon": "12.316667"}, {"lat": "43.633333", "city": "Sompiano", "lon": "12.283333"}, {"lat": "43.683333", "city": "Sorbolongo", "lon": "12.9"}, {"lat": "43.116667", "city": "Sorti", "lon": "12.95"}, {"lat": "42.75", "city": "Spelonca", "lon": "13.283333"}, {"lat": "42.75", "city": "Spelonga", "lon": "13.283333"}, {"lat": "43.2", "city": "Spindoli", "lon": "12.9"}, {"lat": "42.883333", "city": "Spinetoli", "lon": "13.766667"}, {"lat": "43.433333", "city": "Staffolo", "lon": "13.183333"}, {"lat": "43.716667", "city": "Sterpeti", "lon": "12.85"}, {"lat": "43.25", "city": "Stigliano", "lon": "13.133333"}, {"lat": "43.516667", "city": "Tabano", "lon": "13.2"}, {"lat": "43.833333", "city": "Talacchio", "lon": "12.716667"}, {"lat": "43.9", "city": "Talamello", "lon": "12.283333"}, {"lat": "42.8", "city": "Tallacano", "lon": "13.383333"}, {"lat": "42.783333", "city": "Talvacchia", "lon": "13.5"}, {"lat": "43.933333", "city": "Tausano", "lon": "12.35"}, {"lat": "42.916667", "city": "Tavernelle", "lon": "13.433333"}, {"lat": "43.033333", "city": "Taverne", "lon": "12.916667"}, {"lat": "43.833333", "city": "Tavoleto", "lon": "12.583333"}, {"lat": "43.9", "city": "Tavullia", "lon": "12.75"}, {"lat": "43.233333", "city": "Terricoli", "lon": "12.966667"}, {"lat": "42.883333", "city": "Tofe", "lon": "13.3"}, {"lat": "43.2", "city": "Tolentino", "lon": "13.283333"}, {"lat": "43.9", "city": "Tomba di Pesaro", "lon": "12.75"}, {"lat": "43.433333", "city": "Tornasano", "lon": "13.35"}, {"lat": "43.166667", "city": "Torre San Patrizio", "lon": "13.6"}, {"lat": "42.983333", "city": "Torricchio", "lon": "13.05"}, {"lat": "43.866667", "city": "Torricella", "lon": "12.266667"}, {"lat": "43.733333", "city": "Torriola", "lon": "12.35"}, {"lat": "43.166667", "city": "Torrone", "lon": "13.1"}, {"lat": "43.866667", "city": "Trebbiantico", "lon": "12.95"}, {"lat": "43.316667", "city": "Treia", "lon": "13.316667"}, {"lat": "42.766667", "city": "Trisungo", "lon": "13.3"}, {"lat": "43.45", "city": "Trivio", "lon": "12.95"}, {"lat": "43.366667", "city": "Troviggiano", "lon": "13.25"}, {"lat": "43.95", "city": "Uffogliano", "lon": "12.333333"}, {"lat": "43.283333", "city": "Ugliano", "lon": "13.133333"}, {"lat": "43.9", "city": "Ugrigno", "lon": "12.233333"}, {"lat": "42.733333", "city": "Umito", "lon": "13.4"}, {"lat": "43.666667", "city": "Urbania", "lon": "12.516667"}, {"lat": "43.716667", "city": "Urbino", "lon": "12.633333"}, {"lat": "43.2", "city": "Urbisaglia Bonservizi", "lon": "13.383333"}, {"lat": "43.2", "city": "Urbisaglia", "lon": "13.383333"}, {"lat": "43.583333", "city": "Vaccarile", "lon": "13.1"}, {"lat": "42.85", "city": "Vaglie", "lon": "13.366667"}, {"lat": "43.4", "city": "Valcarecce", "lon": "13.166667"}, {"lat": "43.4", "city": "Valcareccie", "lon": "13.166667"}, {"lat": "43.75", "city": "Valdazzo", "lon": "12.616667"}, {"lat": "42.866667", "city": "Valentina", "lon": "13.366667"}, {"lat": "43.833333", "city": "Valle Avellana", "lon": "12.533333"}, {"lat": "42.866667", "city": "Vallegrascia", "lon": "13.3"}, {"lat": "42.816667", "city": "Valle Orsara", "lon": "13.316667"}, {"lat": "43.3", "city": "Valleremita", "lon": "12.866667"}, {"lat": "42.95", "city": "Vallestretta", "lon": "13.133333"}, {"lat": "43.066667", "city": "Vallicchio", "lon": "13.05"}, {"lat": "42.883333", "city": "Vallinfante", "lon": "13.166667"}, {"lat": "43.683333", "city": "Vallone", "lon": "13.183333"}, {"lat": "43.383333", "city": "Valtreara", "lon": "12.983333"}, {"lat": "43.183333", "city": "Varco", "lon": "13.416667"}, {"lat": "43.216667", "city": "Vasconi", "lon": "12.983333"}, {"lat": "42.783333", "city": "Venamartello", "lon": "13.416667"}, {"lat": "42.883333", "city": "Venapiccola", "lon": "13.533333"}, {"lat": "42.883333", "city": "Venarotta", "lon": "13.483333"}, {"lat": "42.95", "city": "Verri", "lon": "13.366667"}, {"lat": "43.016667", "city": "Vesciano", "lon": "13.35"}, {"lat": "43.116667", "city": "Vestignano", "lon": "13.216667"}, {"lat": "42.95", "city": "Vetice", "lon": "13.3"}, {"lat": "42.75", "city": "Vezzano", "lon": "13.266667"}, {"lat": "42.983333", "city": "Vidoni", "lon": "13.316667"}, {"lat": "42.766667", "city": "Vignatico", "lon": "13.5"}, {"lat": "42.983333", "city": "Villa Bentivoglio", "lon": "13.216667"}, {"lat": "43.516667", "city": "Villa Colle Onorato", "lon": "13.183333"}, {"lat": "42.983333", "city": "Villa da capo", "lon": "13.216667"}, {"lat": "42.983333", "city": "Villa Dapiedi", "lon": "13.216667"}, {"lat": "43.683333", "city": "Villadelmonte", "lon": "12.883333"}, {"lat": "42.983333", "city": "Villa di mezzo", "lon": "13.216667"}, {"lat": "43.833333", "city": "Villagrande", "lon": "12.35"}, {"lat": "42.983333", "city": "Villa Malvezzi", "lon": "13.216667"}, {"lat": "43.733333", "city": "Villa Maria", "lon": "12.633333"}, {"lat": "43.95", "city": "Villa Nuova", "lon": "12.366667"}, {"lat": "42.983333", "city": "Villa Pepoli", "lon": "13.216667"}, {"lat": "43.316667", "city": "Villa Potenza", "lon": "13.416667"}, {"lat": "42.933333", "city": "Villa Sant'Antonio", "lon": "13.083333"}, {"lat": "42.883333", "city": "Vindola", "lon": "13.383333"}, {"lat": "42.933333", "city": "Visso", "lon": "13.083333"}], "13": [{"lat": "40.333333", "city": "Acaia", "lon": "18.283333"}, {"lat": "40.333333", "city": "Acaja", "lon": "18.283333"}, {"lat": "41.166667", "city": "Accadia", "lon": "15.333333"}, {"lat": "39.9", "city": "Acquarica", "lon": "18.25"}, {"lat": "39.9", "city": "Acquarica del Capo", "lon": "18.25"}, {"lat": "40.3", "city": "Acquarica di Lecce", "lon": "18.316667"}, {"lat": "40.9", "city": "Acquaviva delle Fonti", "lon": "16.833333"}, {"lat": "41", "city": "Adelfia", "lon": "16.866667"}, {"lat": "40.783333", "city": "Alberobello", "lon": "17.266667"}, {"lat": "41.433333", "city": "Alberona", "lon": "15.116667"}, {"lat": "39.883333", "city": "Alessano", "lon": "18.333333"}, {"lat": "40.066667", "city": "Alezio", "lon": "18.05"}, {"lat": "39.95", "city": "Alliste", "lon": "18.083333"}, {"lat": "40.816667", "city": "Altamura", "lon": "16.55"}, {"lat": "39.983333", "city": "Andrano", "lon": "18.383333"}, {"lat": "41.216667", "city": "Andria", "lon": "16.283333"}, {"lat": "41.116667", "city": "Anzano di Puglia", "lon": "15.283333"}, {"lat": "41.783333", "city": "Apricena", "lon": "15.45"}, {"lat": "40.133333", "city": "Aradeo", "lon": "18.133333"}, {"lat": "39.85", "city": "Arigliano", "lon": "18.35"}, {"lat": "40.333333", "city": "Arnesano", "lon": "18.083333"}, {"lat": "41.2", "city": "Ascoli Satriano", "lon": "15.566667"}, {"lat": "40.35", "city": "Avetrana", "lon": "17.716667"}, {"lat": "40.15", "city": "Bagnolo", "lon": "18.35"}, {"lat": "40.15", "city": "Bagnolo del Salenio", "lon": "18.35"}, {"lat": "40.15", "city": "Bagnolo del Salento", "lon": "18.35"}, {"lat": "40.416667", "city": "Baldassarri", "lon": "17.966667"}, {"lat": "39.866667", "city": "Barbarano", "lon": "18.316667"}, {"lat": "41.133333", "city": "Bari", "lon": "16.85"}, {"lat": "41.316667", "city": "Barletta", "lon": "16.283333"}, {"lat": "41.4", "city": "Biccari", "lon": "15.183333"}, {"lat": "41.233333", "city": "Bisceglie", "lon": "16.5"}, {"lat": "41.033333", "city": "Bitetto", "lon": "16.75"}, {"lat": "41.1", "city": "Bitonto", "lon": "16.683333"}, {"lat": "41.05", "city": "Bitritto", "lon": "16.833333"}, {"lat": "40.233333", "city": "Borgagne", "lon": "18.366667"}, {"lat": "40.05", "city": "Borgo", "lon": "17.983333"}, {"lat": "40.65", "city": "Borgo Casale", "lon": "17.95"}, {"lat": "41.7", "city": "Borgo Celano", "lon": "15.65"}, {"lat": "40.483333", "city": "Borgo della Stazione", "lon": "17.233333"}, {"lat": "40.415833", "city": "Borgo Piave", "lon": "18.2175"}, {"lat": "40.05", "city": "Botrugno", "lon": "18.316667"}, {"lat": "41.25", "city": "Bovino", "lon": "15.333333"}, {"lat": "40.633333", "city": "Brindisi", "lon": "17.933333"}, {"lat": "41.816667", "city": "Cagnano Varano", "lon": "15.783333"}, {"lat": "40.25", "city": "Calimera", "lon": "18.283333"}, {"lat": "40.399444", "city": "Campi Salentina", "lon": "18.018611"}, {"lat": "41.133333", "city": "Candela", "lon": "15.516667"}, {"lat": "41", "city": "Canneto di Bari", "lon": "16.883333"}, {"lat": "40.166667", "city": "Cannole", "lon": "18.35"}, {"lat": "41.216667", "city": "Canosa di Puglia", "lon": "16.066667"}, {"lat": "39.916667", "city": "Caprarica", "lon": "18.35"}, {"lat": "39.916667", "city": "Caprarica del Capo", "lon": "18.35"}, {"lat": "40.266667", "city": "Caprarica di Lecce", "lon": "18.25"}, {"lat": "41.05", "city": "Capurso", "lon": "16.916667"}, {"lat": "41.366667", "city": "Carapelle", "lon": "15.683333"}, {"lat": "41.066667", "city": "Carbonara di Bari", "lon": "16.866667"}, {"lat": "41.6", "city": "Carlantino", "lon": "14.983333"}, {"lat": "40.35", "city": "Carmiano", "lon": "18.05"}, {"lat": "40.45", "city": "Carosino", "lon": "17.383333"}, {"lat": "40.7", "city": "Carovigno", "lon": "17.65"}, {"lat": "40.2", "city": "Carpignano Salentino", "lon": "18.333333"}, {"lat": "41.85", "city": "Carpino", "lon": "15.85"}, {"lat": "40.485278", "city": "Casa Galeone", "lon": "17.268611"}, {"lat": "40.497222", "city": "Casalabate", "lon": "18.121667"}, {"lat": "40.816667", "city": "Casale Sabini", "lon": "16.666667"}, {"lat": "41.616667", "city": "Casalnuovo Monterotaro", "lon": "15.1"}, {"lat": "41.6", "city": "Casalvecchio di Puglia", "lon": "15.116667"}, {"lat": "40.116667", "city": "Casamassella", "lon": "18.45"}, {"lat": "40.95", "city": "Casamassima", "lon": "16.916667"}, {"lat": "40.577222", "city": "Casa Monte dei T\u00e8rmiti", "lon": "17.214722"}, {"lat": "40", "city": "Casarano", "lon": "18.166667"}, {"lat": "39.8", "city": "Cascine di Leuca", "lon": "18.35"}, {"lat": "41.1", "city": "Casino De Crescenzio", "lon": "16.55"}, {"lat": "40.816667", "city": "Cassale Sabini", "lon": "16.666667"}, {"lat": "40.95", "city": "Cassamassima", "lon": "16.916667"}, {"lat": "40.883333", "city": "Cassano", "lon": "16.766667"}, {"lat": "40.883333", "city": "Cassano delle Murge", "lon": "16.766667"}, {"lat": "40.883333", "city": "Castellana", "lon": "17.166667"}, {"lat": "40.883333", "city": "Castellana Grotte", "lon": "17.166667"}, {"lat": "40.633333", "city": "Castellaneta", "lon": "16.933333"}, {"lat": "41.333333", "city": "Castelluccio", "lon": "15.2"}, {"lat": "41.333333", "city": "Castelluccio Valmaggiore", "lon": "15.2"}, {"lat": "41.583333", "city": "Castelnuovo della Daunia", "lon": "15.116667"}, {"lat": "39.983333", "city": "Castiglione", "lon": "18.35"}, {"lat": "39.983333", "city": "Castiglione d'Otranto", "lon": "18.35"}, {"lat": "39.833333", "city": "Castignano del Capo", "lon": "18.333333"}, {"lat": "40.266667", "city": "Castri di Lecce", "lon": "18.25"}, {"lat": "40.166667", "city": "Castrignano de' Greci", "lon": "18.283333"}, {"lat": "39.833333", "city": "Castrignano del Capo", "lon": "18.333333"}, {"lat": "40.3", "city": "Cavallino", "lon": "18.2"}, {"lat": "41.05", "city": "Ceglie del Campo", "lon": "16.866667"}, {"lat": "41.05", "city": "Ceglie di Campo", "lon": "16.866667"}, {"lat": "40.65", "city": "C\u00e9glie Mess\u00e1pica", "lon": "17.516667"}, {"lat": "40.65", "city": "Ceglie Messapico", "lon": "17.516667"}, {"lat": "41.566667", "city": "Celenza Valfortore", "lon": "14.966667"}, {"lat": "41.016667", "city": "Cellamare", "lon": "16.916667"}, {"lat": "41.016667", "city": "Cellammare", "lon": "16.916667"}, {"lat": "41.316667", "city": "Celle San Vito", "lon": "15.183333"}, {"lat": "40.466667", "city": "Cellino San Marco", "lon": "17.966667"}, {"lat": "40.05", "city": "Cerfignano", "lon": "18.433333"}, {"lat": "41.266667", "city": "Cerignola", "lon": "15.9"}, {"lat": "40.4375", "city": "Chiapparo", "lon": "17.25"}, {"lat": "40.083333", "city": "Chiesanuova", "lon": "18.05"}, {"lat": "41.85", "city": "Chieuti", "lon": "15.166667"}, {"lat": "40.733333", "city": "Cisternino", "lon": "17.416667"}, {"lat": "40.466667", "city": "Citt\u00e0 Nuova", "lon": "17.25"}, {"lat": "40.466667", "city": "Citt\u00e0 Vecchia", "lon": "17.233333"}, {"lat": "40.8", "city": "Cocolicchio", "lon": "17.333333"}, {"lat": "40.066667", "city": "Cocumola", "lon": "18.416667"}, {"lat": "40.2", "city": "Collemeto", "lon": "18.1"}, {"lat": "40.066667", "city": "Collepasso", "lon": "18.166667"}, {"lat": "40.366667", "city": "Convento", "lon": "18.066667"}, {"lat": "40.966667", "city": "Conversano", "lon": "17.116667"}, {"lat": "40.266667", "city": "Copertino", "lon": "18.05"}, {"lat": "41.15", "city": "Corato", "lon": "16.416667"}, {"lat": "40.15", "city": "Corigliano d'Otranto", "lon": "18.25"}, {"lat": "41.266667", "city": "Corignola", "lon": "15.9"}, {"lat": "39.883333", "city": "Corsano", "lon": "18.366667"}, {"lat": "40.933333", "city": "Cozzana", "lon": "17.2"}, {"lat": "40.605833", "city": "Crispiano", "lon": "17.230278"}, {"lat": "40.8", "city": "Cuccolicchio", "lon": "17.333333"}, {"lat": "40.15", "city": "Cursi", "lon": "18.3"}, {"lat": "40.116667", "city": "Cutrofiano", "lon": "18.2"}, {"lat": "41.633333", "city": "D'Ardes", "lon": "15.083333"}, {"lat": "40.116667", "city": "Datti", "lon": "18.1"}, {"lat": "41.1", "city": "De Crescenzio", "lon": "16.55"}, {"lat": "41.216667", "city": "Deliceto", "lon": "15.383333"}, {"lat": "39.966667", "city": "Depressa", "lon": "18.366667"}, {"lat": "40", "city": "Diso", "lon": "18.383333"}, {"lat": "40.3", "city": "Dragoni", "lon": "18.133333"}, {"lat": "40.536944", "city": "Elena Marina", "lon": "17.0875"}, {"lat": "40.433333", "city": "Erchie", "lon": "17.733333"}, {"lat": "40.883333", "city": "Faccia di Trippa di Monte", "lon": "17.25"}, {"lat": "40.883333", "city": "Faccia di Trippa", "lon": "17.316667"}, {"lat": "41.316667", "city": "Faeto", "lon": "15.15"}, {"lat": "40.416667", "city": "Faggiano", "lon": "17.383333"}, {"lat": "41.783333", "city": "Faro di Pugnochiuso", "lon": "16.2"}, {"lat": "40.833333", "city": "Fasano", "lon": "17.366667"}, {"lat": "39.933333", "city": "Felline", "lon": "18.116667"}, {"lat": "39.933333", "city": "Fellini", "lon": "18.116667"}, {"lat": "41.45", "city": "Foggia", "lon": "15.566667"}, {"lat": "40.433333", "city": "Fragagnano", "lon": "17.466667"}, {"lat": "40.533333", "city": "Francavilla Fontana", "lon": "17.583333"}, {"lat": "40.266667", "city": "Francone", "lon": "18.25"}, {"lat": "40.266667", "city": "Franconi", "lon": "18.25"}, {"lat": "40.425833", "city": "Frigole", "lon": "18.240278"}, {"lat": "40.425833", "city": "Frigule", "lon": "18.240278"}, {"lat": "39.833333", "city": "Gagliano del Capo", "lon": "18.366667"}, {"lat": "41.816667", "city": "Gagnano Varano", "lon": "15.783333"}, {"lat": "40.166667", "city": "Galatina", "lon": "18.166667"}, {"lat": "40.15", "city": "Galatone", "lon": "18.066667"}, {"lat": "40.055556", "city": "Gallipoli", "lon": "17.976389"}, {"lat": "40.25", "city": "Galugnano", "lon": "18.2"}, {"lat": "39.916667", "city": "Gemini", "lon": "18.183333"}, {"lat": "40.15", "city": "Gentiluomo", "lon": "18.116667"}, {"lat": "40.412222", "city": "Gesuiti", "lon": "17.245278"}, {"lat": "41.316667", "city": "Giardinetto", "lon": "15.4"}, {"lat": "40.583333", "city": "Ginosa", "lon": "16.75"}, {"lat": "40.433333", "city": "Ginosa Marina", "lon": "16.883333"}, {"lat": "40.8", "city": "Gioia del Colle", "lon": "16.916667"}, {"lat": "40.8", "city": "Gioja del Colle", "lon": "16.916667"}, {"lat": "41.7", "city": "Giovanni Rotondo", "lon": "15.733333"}, {"lat": "41.183333", "city": "Giovinazzo", "lon": "16.666667"}, {"lat": "40.083333", "city": "Giuggianello", "lon": "18.366667"}, {"lat": "41.3", "city": "Giuilia", "lon": "15.85"}, {"lat": "39.85", "city": "Giuliano", "lon": "18.333333"}, {"lat": "40.116667", "city": "Giurdignano", "lon": "18.416667"}, {"lat": "40.816667", "city": "Gravina in Puglia", "lon": "16.416667"}, {"lat": "40.533333", "city": "Grottaglie", "lon": "17.433333"}, {"lat": "41.016667", "city": "Grumo Appula", "lon": "16.7"}, {"lat": "40.4", "city": "Guagnano", "lon": "17.95"}, {"lat": "40.465278", "city": "I Bacini", "lon": "18.19"}, {"lat": "40.816667", "city": "Il Casale", "lon": "16.666667"}, {"lat": "40.066667", "city": "Il Monte", "lon": "18.016667"}, {"lat": "40.866667", "city": "Impalata", "lon": "17.266667"}, {"lat": "41.433333", "city": "Inacquata", "lon": "15.85"}, {"lat": "41.9", "city": "Ischitella", "lon": "15.9"}, {"lat": "42.116667", "city": "Isole San Nicola", "lon": "15.516667"}, {"lat": "40.552778", "city": "La Batteria", "lon": "17.2"}, {"lat": "40.546667", "city": "La Colombaia", "lon": "17.171389"}, {"lat": "40.8", "city": "La Coreggia", "lon": "17.266667"}, {"lat": "40.8", "city": "La Correggia", "lon": "17.266667"}, {"lat": "40.405278", "city": "Lama", "lon": "17.246944"}, {"lat": "40.1", "city": "La Palascia", "lon": "18.533333"}, {"lat": "40.816667", "city": "La Selva", "lon": "17.316667"}, {"lat": "39.916667", "city": "La Serra", "lon": "18.4"}, {"lat": "40.616667", "city": "Laterza", "lon": "16.8"}, {"lat": "40.55", "city": "Latiano", "lon": "17.716667"}, {"lat": "40.383333", "city": "Lecce", "lon": "18.183333"}, {"lat": "40.417778", "city": "Le Fontane", "lon": "17.246667"}, {"lat": "40.783333", "city": "Le Lame di Olimpe", "lon": "17.35"}, {"lat": "40.783333", "city": "Le Lamie di Olimpe", "lon": "17.35"}, {"lat": "40.519444", "city": "Lendinuso", "lon": "18.089167"}, {"lat": "40.383333", "city": "Leporano", "lon": "17.333333"}, {"lat": "40.3", "city": "Lequile", "lon": "18.15"}, {"lat": "40.3", "city": "Lequille", "lon": "18.15"}, {"lat": "41.866667", "city": "Lesina", "lon": "15.35"}, {"lat": "39.8", "city": "Leuca", "lon": "18.35"}, {"lat": "40.283333", "city": "Leverano", "lon": "18"}, {"lat": "40.3", "city": "Librari", "lon": "17.483333"}, {"lat": "40.3", "city": "Lizzanello", "lon": "18.216667"}, {"lat": "40.383333", "city": "Lizzano", "lon": "17.45"}, {"lat": "40.75", "city": "Locorotondo", "lon": "17.333333"}, {"lat": "41.033333", "city": "Loseto", "lon": "16.833333"}, {"lat": "41.5", "city": "Lucera", "lon": "15.333333"}, {"lat": "39.933333", "city": "Lucugnano", "lon": "18.316667"}, {"lat": "41.866667", "city": "Lupetto", "lon": "16.166667"}, {"lat": "40.659722", "city": "Lu Prema", "lon": "17.925"}, {"lat": "40.883333", "city": "Macchia di Monte", "lon": "17.3"}, {"lat": "40.883333", "city": "Macchie di Monte", "lon": "17.3"}, {"lat": "41.133333", "city": "Macchie", "lon": "16.766667"}, {"lat": "40.333333", "city": "Magliano", "lon": "18.05"}, {"lat": "40.116667", "city": "Maglie", "lon": "18.3"}, {"lat": "39.883333", "city": "Magorano", "lon": "18.35"}, {"lat": "40.4", "city": "Manduria", "lon": "17.633333"}, {"lat": "41.633333", "city": "Manfredonia", "lon": "15.916667"}, {"lat": "41.366667", "city": "Margherita di Savoia", "lon": "16.15"}, {"lat": "40.433333", "city": "Marina di Ginosa", "lon": "16.883333"}, {"lat": "39.933333", "city": "Marina Porto", "lon": "18.4"}, {"lat": "39.916667", "city": "Marina Serra", "lon": "18.4"}, {"lat": "41.05", "city": "Mariotta", "lon": "16.566667"}, {"lat": "41.05", "city": "Mariotto", "lon": "16.566667"}, {"lat": "40", "city": "Marittima", "lon": "18.4"}, {"lat": "40.2", "city": "Martano", "lon": "18.3"}, {"lat": "40.233333", "city": "Martignano", "lon": "18.233333"}, {"lat": "40.7", "city": "Martina Franca", "lon": "17.333333"}, {"lat": "40.316667", "city": "Maruggio", "lon": "17.566667"}, {"lat": "40.591944", "city": "Massafra", "lon": "17.115278"}, {"lat": "41.633333", "city": "Masseria d'Ardes", "lon": "15.083333"}, {"lat": "40.425833", "city": "Masseria Frigole", "lon": "18.240278"}, {"lat": "40.425833", "city": "Masseria Frigule", "lon": "18.240278"}, {"lat": "41.433333", "city": "Masseria Inacquata", "lon": "15.85"}, {"lat": "40.698056", "city": "Masseria Orimini", "lon": "17.216944"}, {"lat": "40.216667", "city": "Masseria Santa Barbara", "lon": "18.066667"}, {"lat": "40.576111", "city": "Masseriola", "lon": "17.191667"}, {"lat": "40.033333", "city": "Matino", "lon": "18.133333"}, {"lat": "41.7", "city": "Mattinata", "lon": "16.05"}, {"lat": "40.266667", "city": "Melendugno", "lon": "18.333333"}, {"lat": "39.966667", "city": "Melissano", "lon": "18.116667"}, {"lat": "40.15", "city": "Melpignano", "lon": "18.283333"}, {"lat": "40.333333", "city": "Merine", "lon": "18.233333"}, {"lat": "40.566667", "city": "Mesagne", "lon": "17.8"}, {"lat": "39.966667", "city": "Miggiano", "lon": "18.3"}, {"lat": "40.083333", "city": "Minervino di Lecce", "lon": "18.416667"}, {"lat": "41.083333", "city": "Minervino Murge", "lon": "16.083333"}, {"lat": "41.083333", "city": "Modugno", "lon": "16.783333"}, {"lat": "41.066667", "city": "Mola di Bari", "lon": "17.083333"}, {"lat": "41.2", "city": "Molfetta", "lon": "16.6"}, {"lat": "40.333333", "city": "Monacizzo", "lon": "17.5"}, {"lat": "40.95", "city": "Monopoli", "lon": "17.3"}, {"lat": "40.453611", "city": "Monte Grappa", "lon": "18.209722"}, {"lat": "40.5", "city": "Monteiasi", "lon": "17.383333"}, {"lat": "40.5", "city": "Montejasi", "lon": "17.383333"}, {"lat": "41.166667", "city": "Monteleone di Puglia", "lon": "15.25"}, {"lat": "40.566667", "city": "Montemesola", "lon": "17.333333"}, {"lat": "40.066667", "city": "Monte", "lon": "18.016667"}, {"lat": "40.45", "city": "Monteparano", "lon": "17.416667"}, {"lat": "40.316667", "city": "Monteroni di Lecce", "lon": "18.1"}, {"lat": "39.966667", "city": "Montesano", "lon": "18.333333"}, {"lat": "39.966667", "city": "Montesano Salentino", "lon": "18.333333"}, {"lat": "41.7", "city": "Monte Sant'Angelo", "lon": "15.95"}, {"lat": "39.883333", "city": "Montesardo", "lon": "18.333333"}, {"lat": "41", "city": "Montrone", "lon": "16.883333"}, {"lat": "39.85", "city": "Morciano di Leuca", "lon": "18.316667"}, {"lat": "39.85", "city": "Morciano", "lon": "18.316667"}, {"lat": "40.133333", "city": "Morigino", "lon": "18.3"}, {"lat": "41.5", "city": "Motta Montecorvino", "lon": "15.116667"}, {"lat": "40.635278", "city": "Mottola", "lon": "17.035278"}, {"lat": "40.1", "city": "Muro Leccese", "lon": "18.333333"}, {"lat": "40.183333", "city": "Nard\u00f2", "lon": "18.033333"}, {"lat": "40.1", "city": "Neviano", "lon": "18.1"}, {"lat": "40.033333", "city": "Nociglia", "lon": "18.333333"}, {"lat": "40.033333", "city": "Nocilia", "lon": "18.333333"}, {"lat": "40.8", "city": "Noci", "lon": "17.116667"}, {"lat": "40.15", "city": "Noha", "lon": "18.166667"}, {"lat": "41.033333", "city": "Noicattaro", "lon": "16.983333"}, {"lat": "40.383333", "city": "Novoli", "lon": "18.05"}, {"lat": "40.129167", "city": "Nuovomondo", "lon": "17.995833"}, {"lat": "41.316667", "city": "Ordona", "lon": "15.616667"}, {"lat": "40.5", "city": "Oria", "lon": "17.633333"}, {"lat": "40.698056", "city": "Orimini", "lon": "17.216944"}, {"lat": "41.283333", "city": "Orsara Danno Irpina", "lon": "15.266667"}, {"lat": "41.283333", "city": "Orsara di Puglia", "lon": "15.266667"}, {"lat": "41.316667", "city": "Orta Nova", "lon": "15.7"}, {"lat": "40.016667", "city": "Ortelle", "lon": "18.383333"}, {"lat": "40.733333", "city": "Ostuni", "lon": "17.583333"}, {"lat": "40.15", "city": "Otranto", "lon": "18.5"}, {"lat": "40.916667", "city": "Padresergio", "lon": "17.2"}, {"lat": "40.616667", "city": "Palagianello", "lon": "16.966667"}, {"lat": "40.578889", "city": "Palagiano", "lon": "17.038611"}, {"lat": "40.1", "city": "Palascia", "lon": "18.533333"}, {"lat": "41.15", "city": "Palese", "lon": "16.766667"}, {"lat": "40.133333", "city": "Pallanzano", "lon": "18.4"}, {"lat": "40.116667", "city": "Palmariggi", "lon": "18.383333"}, {"lat": "41.05", "city": "Palo del Colle", "lon": "16.7"}, {"lat": "41.066667", "city": "Palombaio", "lon": "16.6"}, {"lat": "41.066667", "city": "Palombaro", "lon": "16.6"}, {"lat": "40.383333", "city": "Palumbo", "lon": "17.3"}, {"lat": "41.216667", "city": "Panni", "lon": "15.266667"}, {"lat": "40.05", "city": "Parabita", "lon": "18.133333"}, {"lat": "39.833333", "city": "Pat\u00f9", "lon": "18.333333"}, {"lat": "41.95", "city": "Peschici", "lon": "16.016667"}, {"lat": "40.8", "city": "Pezze di Greco", "lon": "17.416667"}, {"lat": "41.533333", "city": "Pietra Montecorvino", "lon": "15.116667"}, {"lat": "40.3", "city": "Pisignano", "lon": "18.266667"}, {"lat": "40.05", "city": "Poggiardo", "lon": "18.383333"}, {"lat": "41.816667", "city": "Poggio Imperiale", "lon": "15.366667"}, {"lat": "41", "city": "Polignano a Mare", "lon": "17.216667"}, {"lat": "41", "city": "Polignano", "lon": "17.216667"}, {"lat": "40.25", "city": "Porto Cesareo", "lon": "17.9"}, {"lat": "40.25", "city": "Porto Cesario", "lon": "17.9"}, {"lat": "39.933333", "city": "Porto di Tricase", "lon": "18.4"}, {"lat": "41.133333", "city": "Posta Piana", "lon": "15.9"}, {"lat": "41.366667", "city": "Pozzarsogno", "lon": "15.433333"}, {"lat": "40.423611", "city": "Praia a Mare", "lon": "17.233611"}, {"lat": "39.9", "city": "Presicce", "lon": "18.266667"}, {"lat": "41.783333", "city": "Pugnochiuso", "lon": "16.2"}, {"lat": "40.383333", "city": "Pulsano", "lon": "17.35"}, {"lat": "40.85", "city": "Putignano", "lon": "17.116667"}, {"lat": "40.966667", "city": "Quasani", "lon": "16.583333"}, {"lat": "40.966667", "city": "Quasano", "lon": "16.583333"}, {"lat": "39.95", "city": "Racale", "lon": "18.1"}, {"lat": "41.283333", "city": "Radogna", "lon": "15.4"}, {"lat": "41.666667", "city": "Rignano Garganico", "lon": "15.583333"}, {"lat": "41.85", "city": "Ripalta", "lon": "15.266667"}, {"lat": "40.433333", "city": "Roccaforzata", "lon": "17.383333"}, {"lat": "40.266667", "city": "Rocca Nuova", "lon": "18.383333"}, {"lat": "41.1", "city": "Rocchetta San Antonio", "lon": "15.45"}, {"lat": "41.1", "city": "Rocchetta Sant'Antonio", "lon": "15.45"}, {"lat": "41.1", "city": "Rochetta Sant'Antonio", "lon": "15.45"}, {"lat": "41.916667", "city": "Rodi Garganico", "lon": "15.883333"}, {"lat": "41.366667", "city": "Roseto", "lon": "15.1"}, {"lat": "41.366667", "city": "Roseto Valfortore", "lon": "15.1"}, {"lat": "40.4625", "city": "Ruberto", "lon": "17.259722"}, {"lat": "39.983333", "city": "Ruffano", "lon": "18.25"}, {"lat": "41.683333", "city": "Ruggiano", "lon": "15.866667"}, {"lat": "41.683333", "city": "Rugiana", "lon": "15.866667"}, {"lat": "41.016667", "city": "Rutigliano", "lon": "17"}, {"lat": "41.116667", "city": "Ruvo di Puglia", "lon": "16.483333"}, {"lat": "40.383333", "city": "Salice Salentino", "lon": "17.966667"}, {"lat": "39.833333", "city": "Salignano", "lon": "18.35"}, {"lat": "39.85", "city": "Salve", "lon": "18.283333"}, {"lat": "40.883333", "city": "Sammichele di Bari", "lon": "16.95"}, {"lat": "40.083333", "city": "Sanarica", "lon": "18.333333"}, {"lat": "40.05", "city": "San Cassiano", "lon": "18.333333"}, {"lat": "40.383333", "city": "San Cataldo", "lon": "18.3"}, {"lat": "40.3", "city": "San Cesario di Lecce", "lon": "18.166667"}, {"lat": "40.3", "city": "San Cesario", "lon": "18.166667"}, {"lat": "40.4", "city": "San Crispieri", "lon": "17.383333"}, {"lat": "39.866667", "city": "San Dana", "lon": "18.35"}, {"lat": "40.45", "city": "San Donaci", "lon": "17.916667"}, {"lat": "40.25", "city": "San Donato di Lecce", "lon": "18.166667"}, {"lat": "40.4", "city": "San Donato", "lon": "17.3"}, {"lat": "41.3", "city": "San Ferdinando di Puglia", "lon": "16.066667"}, {"lat": "40.3", "city": "San Foca", "lon": "18.4"}, {"lat": "40.45", "city": "San Giorgio Ionico", "lon": "17.383333"}, {"lat": "40.45", "city": "San Giorgio Jonico", "lon": "17.383333"}, {"lat": "40.45", "city": "San Giorgio sotto Taranto", "lon": "17.383333"}, {"lat": "41.7", "city": "San Giovanni Rotondo", "lon": "15.733333"}, {"lat": "41.233333", "city": "San Giovanni", "lon": "15.783333"}, {"lat": "40.366667", "city": "San Ligorio", "lon": "18.2"}, {"lat": "41.716667", "city": "San Marco in Lamis", "lon": "15.633333"}, {"lat": "41.516667", "city": "San Marco la Catola", "lon": "15"}, {"lat": "40.45", "city": "San Marzano di San Giuseppe", "lon": "17.5"}, {"lat": "40.883333", "city": "San Michele di Bari", "lon": "16.95"}, {"lat": "40.633333", "city": "San Michele Salentino", "lon": "17.616667"}, {"lat": "41", "city": "Sannicandro di Bari", "lon": "16.8"}, {"lat": "41.833333", "city": "Sannicandro Garganico", "lon": "15.566667"}, {"lat": "41", "city": "San Nicandro", "lon": "16.8"}, {"lat": "40.083333", "city": "San Nicola di Gallipoli", "lon": "18.066667"}, {"lat": "40.083333", "city": "Sannicola", "lon": "18.066667"}, {"lat": "42.116667", "city": "San Nicola", "lon": "15.516667"}, {"lat": "40.416667", "city": "San Pancrazio Salentino", "lon": "17.833333"}, {"lat": "40.416667", "city": "San Pancrazio", "lon": "17.833333"}, {"lat": "41.733333", "city": "San Paolo Civitate", "lon": "15.25"}, {"lat": "41.733333", "city": "San Paolo di Civitate", "lon": "15.25"}, {"lat": "40.3", "city": "San Pietro in Lama", "lon": "18.116667"}, {"lat": "40.485278", "city": "San Pietro Vernotico", "lon": "17.999722"}, {"lat": "41.683333", "city": "San Severo", "lon": "15.383333"}, {"lat": "40.216667", "city": "Santa Barbara", "lon": "18.066667"}, {"lat": "40.140556", "city": "Santa Caterina", "lon": "17.982778"}, {"lat": "40.033333", "city": "Santa Cesarea", "lon": "18.466667"}, {"lat": "40.033333", "city": "Santa Cesarea Terme", "lon": "18.466667"}, {"lat": "41.15", "city": "Sant'Agata di Puglia", "lon": "15.383333"}, {"lat": "40.1", "city": "Sant'Agata", "lon": "18.066667"}, {"lat": "40.85", "city": "Santa Lucia", "lon": "17.266667"}, {"lat": "40.129167", "city": "Santa Maria al Bagno", "lon": "17.995833"}, {"lat": "40.6525", "city": "Santa Maria del Casale", "lon": "17.935"}, {"lat": "40.25", "city": "Sant'Andrea", "lon": "18.433333"}, {"lat": "39.833333", "city": "Sant'Antonio", "lon": "18.2"}, {"lat": "40.8", "city": "Santeramo in Colle", "lon": "16.75"}, {"lat": "39.933333", "city": "Sant'Eufemia", "lon": "18.35"}, {"lat": "41.166667", "city": "Santo Spirito", "lon": "16.75"}, {"lat": "40.65", "city": "San Vito dei Normanni", "lon": "17.7"}, {"lat": "40.65", "city": "San Vito de' Normanni", "lon": "17.7"}, {"lat": "40.416944", "city": "San Vito", "lon": "17.217778"}, {"lat": "40.4", "city": "Sava", "lon": "17.55"}, {"lat": "40.083333", "city": "Scorrano", "lon": "18.3"}, {"lat": "40.133333", "city": "Secl\u00ec", "lon": "18.1"}, {"lat": "40.816667", "city": "Selva di Fasano", "lon": "17.316667"}, {"lat": "40.816667", "city": "Selva", "lon": "17.316667"}, {"lat": "41.8", "city": "Serracapriola", "lon": "15.15"}, {"lat": "40.183333", "city": "Serrano", "lon": "18.35"}, {"lat": "41.6", "city": "Siponto", "lon": "15.9"}, {"lat": "40.15", "city": "Sogliano Cavour", "lon": "18.2"}, {"lat": "40.183333", "city": "Soleto", "lon": "18.2"}, {"lat": "41.116667", "city": "Sovereto", "lon": "16.583333"}, {"lat": "40.083333", "city": "Specchia Gallone", "lon": "18.4"}, {"lat": "39.95", "city": "Specchia", "lon": "18.3"}, {"lat": "41.05", "city": "Spiaggia di Conversano", "lon": "17.15"}, {"lat": "40.966667", "city": "Spinazzola", "lon": "16.083333"}, {"lat": "40.016667", "city": "Spongano", "lon": "18.366667"}, {"lat": "40.436111", "city": "Squinzano", "lon": "18.041667"}, {"lat": "40.564167", "city": "Statte", "lon": "17.208611"}, {"lat": "40.216667", "city": "Sternatia", "lon": "18.233333"}, {"lat": "41.6", "city": "Sterparone", "lon": "15.316667"}, {"lat": "41.283333", "city": "Stornara", "lon": "15.766667"}, {"lat": "41.25", "city": "Stornarella", "lon": "15.733333"}, {"lat": "40.316667", "city": "Struda", "lon": "18.266667"}, {"lat": "40.016667", "city": "Supersano", "lon": "18.233333"}, {"lat": "40.016667", "city": "Surano", "lon": "18.333333"}, {"lat": "40.399444", "city": "Surbo", "lon": "18.133056"}, {"lat": "40.4", "city": "Talsano", "lon": "17.283333"}, {"lat": "41.416667", "city": "Tamaricciola", "lon": "15.733333"}, {"lat": "41.416667", "city": "Tamariciola", "lon": "15.733333"}, {"lat": "39.95", "city": "Tanrisano", "lon": "18.216667"}, {"lat": "40.476111", "city": "Taranto", "lon": "17.229722"}, {"lat": "39.95", "city": "Taurisano", "lon": "18.216667"}, {"lat": "39.983333", "city": "Taviano", "lon": "18.083333"}, {"lat": "41.133333", "city": "Terlizzi", "lon": "16.533333"}, {"lat": "40.033333", "city": "Terme di Santa Cesarea", "lon": "18.466667"}, {"lat": "39.9", "city": "Tiggiano", "lon": "18.366667"}, {"lat": "41.683333", "city": "Tomaiolo", "lon": "15.883333"}, {"lat": "40.484167", "city": "Torchiarolo", "lon": "18.0525"}, {"lat": "41", "city": "Toritto", "lon": "16.683333"}, {"lat": "41.083333", "city": "Torre a Mare", "lon": "17"}, {"lat": "41.3", "city": "Torre Giulia", "lon": "15.85"}, {"lat": "41.683333", "city": "Torre Maggiore", "lon": "15.283333"}, {"lat": "41.933333", "city": "Torre Mileto", "lon": "15.633333"}, {"lat": "39.983333", "city": "Torrepaduli", "lon": "18.25"}, {"lat": "41.083333", "city": "Torre Pelosa", "lon": "17"}, {"lat": "40.466667", "city": "Torre Santa Susanna", "lon": "17.733333"}, {"lat": "40.4", "city": "Torre San Vito", "lon": "17.233333"}, {"lat": "40.35", "city": "Torricella", "lon": "17.483333"}, {"lat": "41.283333", "city": "Trani", "lon": "16.416667"}, {"lat": "40.606111", "city": "Trappeto", "lon": "17.019444"}, {"lat": "42.116667", "city": "Tr\u00e9miti", "lon": "15.516667"}, {"lat": "40.405556", "city": "Trepuzzi", "lon": "18.075556"}, {"lat": "39.933333", "city": "Tricase", "lon": "18.366667"}, {"lat": "40.916667", "city": "Triggianello", "lon": "17.166667"}, {"lat": "41.066667", "city": "Triggiano", "lon": "16.916667"}, {"lat": "41.35", "city": "Trinitapoli", "lon": "16.083333"}, {"lat": "41.366667", "city": "Troia", "lon": "15.3"}, {"lat": "40.066667", "city": "Tuglie", "lon": "18.083333"}, {"lat": "40.916667", "city": "Turi", "lon": "17.016667"}, {"lat": "39.933333", "city": "Tutino", "lon": "18.35"}, {"lat": "39.933333", "city": "Ugento", "lon": "18.166667"}, {"lat": "40.1", "city": "Uggiano la Chiesa", "lon": "18.45"}, {"lat": "40.383333", "city": "Uggiano Montefusco", "lon": "17.6"}, {"lat": "40.1", "city": "Uggiano", "lon": "18.45"}, {"lat": "41.033333", "city": "Valenzano", "lon": "16.883333"}, {"lat": "40.316667", "city": "Vanze", "lon": "18.316667"}, {"lat": "40.033333", "city": "Vaste", "lon": "18.383333"}, {"lat": "40.333333", "city": "Veglie", "lon": "17.966667"}, {"lat": "40.283333", "city": "Vernole", "lon": "18.3"}, {"lat": "41.9", "city": "Vico del Gargano", "lon": "15.95"}, {"lat": "41.9", "city": "Vico Garganico", "lon": "15.95"}, {"lat": "41.883333", "city": "Vieste", "lon": "16.166667"}, {"lat": "40.016667", "city": "Vignacastrisi", "lon": "18.4"}, {"lat": "40.416667", "city": "Villa Baldassarri", "lon": "17.966667"}, {"lat": "40.583333", "city": "Villa Castelli", "lon": "17.466667"}, {"lat": "40.016667", "city": "Villacastrisi", "lon": "18.4"}, {"lat": "40.2", "city": "Villaggio Resta", "lon": "17.95"}, {"lat": "40.415278", "city": "Villa Spartera", "lon": "17.204167"}, {"lat": "40.033333", "city": "Vitigliano", "lon": "18.4"}, {"lat": "41.5", "city": "Volturara Appula", "lon": "15.05"}, {"lat": "41.466667", "city": "Volturino", "lon": "15.116667"}, {"lat": "41.45", "city": "Zapponeta", "lon": "15.95"}, {"lat": "40.2", "city": "Zollino", "lon": "18.25"}], "12": [{"lat": "45.033333", "city": "Abbadia", "lon": "6.833333"}, {"lat": "45.1", "city": "Abbadia di Stura", "lon": "7.716667"}, {"lat": "45.1", "city": "Abbadia Stura", "lon": "7.716667"}, {"lat": "45.033333", "city": "Abbazia", "lon": "6.833333"}, {"lat": "45.033333", "city": "Abbaziz", "lon": "6.833333"}, {"lat": "44.466667", "city": "Acceglio", "lon": "7"}, {"lat": "44.683333", "city": "Acqui", "lon": "8.466667"}, {"lat": "44.683333", "city": "Acqui Citt\u00e0", "lon": "8.466667"}, {"lat": "44.683333", "city": "Acqui Terme", "lon": "8.466667"}, {"lat": "46.216667", "city": "Agaro", "lon": "8.2"}, {"lat": "45.366667", "city": "Agli\u00e8", "lon": "7.766667"}, {"lat": "45.466667", "city": "Agognate", "lon": "8.583333"}, {"lat": "45.85", "city": "Agrano", "lon": "8.416667"}, {"lat": "46.216667", "city": "Agro", "lon": "8.2"}, {"lat": "46.216667", "city": "Agro Fuori", "lon": "8.2"}, {"lat": "46.116667", "city": "Agrosa", "lon": "8.133333"}, {"lat": "44.783333", "city": "Aie", "lon": "8.433333"}, {"lat": "45.7", "city": "Ailoche", "lon": "8.216667"}, {"lat": "44.916667", "city": "Airasca", "lon": "7.483333"}, {"lat": "45.316667", "city": "Ala", "lon": "7.316667"}, {"lat": "45.316667", "city": "Ala di Stura", "lon": "7.316667"}, {"lat": "45.85", "city": "Alagna Valsesia", "lon": "7.933333"}, {"lat": "46.2", "city": "Alagua", "lon": "8.333333"}, {"lat": "44.7", "city": "Alba", "lon": "8.033333"}, {"lat": "45.433333", "city": "Albano", "lon": "8.383333"}, {"lat": "45.433333", "city": "Albano Vercellese", "lon": "8.383333"}, {"lat": "45.333333", "city": "Albaron di Sea", "lon": "7.183333"}, {"lat": "45.45", "city": "Albiano d'Ivrea", "lon": "7.95"}, {"lat": "44.9", "city": "Alessandria", "lon": "8.616667"}, {"lat": "45.05", "city": "Alfiano Natta", "lon": "8.2"}, {"lat": "46.1", "city": "Al Geccio", "lon": "8.433333"}, {"lat": "45.366667", "city": "Alice Castello", "lon": "8.066667"}, {"lat": "45.466667", "city": "Alice Superiore", "lon": "7.783333"}, {"lat": "45.7", "city": "Alloche", "lon": "8.216667"}, {"lat": "45.116667", "city": "Almese", "lon": "7.383333"}, {"lat": "45.316667", "city": "Alo di Stura", "lon": "7.316667"}, {"lat": "46.316667", "city": "Al Passo", "lon": "8.383333"}, {"lat": "46.116667", "city": "Alpe Agrosa", "lon": "8.133333"}, {"lat": "46.4", "city": "Alpe Balma Rossa", "lon": "8.4"}, {"lat": "46.05", "city": "Alpe Basciumo", "lon": "8.233333"}, {"lat": "46.1", "city": "Alpe Basso", "lon": "8.45"}, {"lat": "46.05", "city": "Alpe Busarasca", "lon": "8.483333"}, {"lat": "46.05", "city": "Alpe Campo", "lon": "8.45"}, {"lat": "46.05", "city": "Alpe Campo di Sotto", "lon": "8.45"}, {"lat": "46.1", "city": "Alpe Campolomana", "lon": "8.066667"}, {"lat": "46.05", "city": "Alpe Casarolo", "lon": "8.4"}, {"lat": "46.233333", "city": "Alpe Cavegna", "lon": "8.45"}, {"lat": "46.166667", "city": "Alpe Cazzola", "lon": "8.416667"}, {"lat": "46.083333", "city": "Alpe Cheggio", "lon": "8.116667"}, {"lat": "46.266667", "city": "Alpe Ciamporino", "lon": "8.2"}, {"lat": "46.166667", "city": "Alpe Col", "lon": "8.366667"}, {"lat": "46.233333", "city": "Alpe Cortefreddo", "lon": "8.383333"}, {"lat": "46.016667", "city": "Alpe Cortelancio", "lon": "8.116667"}, {"lat": "46.05", "city": "Alpe Cortevecchio", "lon": "8.366667"}, {"lat": "46.216667", "city": "Alpe Cortone", "lon": "8.416667"}, {"lat": "46.316667", "city": "Alpe Devero", "lon": "8.25"}, {"lat": "46.183333", "city": "Alpe di Camona", "lon": "8.166667"}, {"lat": "46.1", "city": "Alpe di Teste", "lon": "8.1"}, {"lat": "46.2", "city": "Alpe Forgnone", "lon": "8.416667"}, {"lat": "46.35", "city": "Alpe Giove", "lon": "8.366667"}, {"lat": "46.2", "city": "Alpe i Motti", "lon": "8.466667"}, {"lat": "46.016667", "city": "Alpe Lagarasc", "lon": "8.333333"}, {"lat": "46.016667", "city": "Alpe Lagarsc", "lon": "8.333333"}, {"lat": "46.216667", "city": "Alpe Larecchio", "lon": "8.5"}, {"lat": "46.033333", "city": "Alpe Lareccio", "lon": "8.066667"}, {"lat": "46.35", "city": "Alpe la Satta", "lon": "8.3"}, {"lat": "46.183333", "city": "Alpe Lorino", "lon": "8.216667"}, {"lat": "45.433333", "city": "Alpe Mandetto", "lon": "7.133333"}, {"lat": "46.166667", "city": "Alpe Marghino", "lon": "8.266667"}, {"lat": "46.25", "city": "Alpe Mattignale", "lon": "8.416667"}, {"lat": "46.05", "city": "Alpe Ogliana", "lon": "8.35"}, {"lat": "46.05", "city": "Alpe Ogliano", "lon": "8.35"}, {"lat": "45.466667", "city": "Alpe Pilocca", "lon": "7.15"}, {"lat": "45.466667", "city": "Alpe Pitocca", "lon": "7.15"}, {"lat": "46.45", "city": "Alpe Regina", "lon": "8.45"}, {"lat": "44.633333", "city": "Alpe Tartarea", "lon": "7.183333"}, {"lat": "46.1", "city": "Alpe Torcelli", "lon": "8.233333"}, {"lat": "45.416667", "city": "Alpette", "lon": "7.583333"}, {"lat": "46.033333", "city": "Alpe Valaverta", "lon": "8.083333"}, {"lat": "46.083333", "city": "Alpe Vald", "lon": "8.416667"}, {"lat": "46.083333", "city": "Alpe Valle", "lon": "8.416667"}, {"lat": "46.083333", "city": "Alpe Vauzone", "lon": "8.166667"}, {"lat": "46.066667", "city": "Alpe Zucchero", "lon": "8.483333"}, {"lat": "46.083333", "city": "Alpe Zunchi", "lon": "8.5"}, {"lat": "45.1", "city": "Alpignano", "lon": "7.516667"}, {"lat": "45.133333", "city": "Altessano", "lon": "7.65"}, {"lat": "45.566667", "city": "Alzate", "lon": "8.583333"}, {"lat": "45.566667", "city": "Alzate con Linduno", "lon": "8.583333"}, {"lat": "45.783333", "city": "Ameno", "lon": "8.433333"}, {"lat": "45.033333", "city": "Andezeno", "lon": "7.866667"}, {"lat": "44.3", "city": "Andonno", "lon": "7.433333"}, {"lat": "45.616667", "city": "Andorno Cacciorna", "lon": "8.05"}, {"lat": "45.616667", "city": "Andorno Micca", "lon": "8.05"}, {"lat": "45.533333", "city": "Andrate", "lon": "7.883333"}, {"lat": "46.05", "city": "Antronapiana", "lon": "8.116667"}, {"lat": "45.983333", "city": "Anzino", "lon": "8.15"}, {"lat": "45.983333", "city": "Anzola d'Ossola", "lon": "8.35"}, {"lat": "45.5", "city": "Arborio", "lon": "8.383333"}, {"lat": "45.5", "city": "Arboro", "lon": "8.383333"}, {"lat": "44.4", "city": "Argentera", "lon": "6.95"}, {"lat": "44.883333", "city": "Argentiera", "lon": "6.933333"}, {"lat": "46.233333", "city": "Argnai", "lon": "8.266667"}, {"lat": "45.033333", "city": "Arignano", "lon": "7.9"}, {"lat": "45.816667", "city": "Armeno", "lon": "8.433333"}, {"lat": "45.066667", "city": "Arnauds", "lon": "6.683333"}, {"lat": "45.8", "city": "Arola", "lon": "8.35"}, {"lat": "45.766667", "city": "Arona", "lon": "8.566667"}, {"lat": "44.683333", "city": "Arquata", "lon": "8.883333"},