{"JM": {"11": [{"lat": "18.2", "city": "Aberdeen", "lon": "-77.7"}, {"lat": "18.2333333", "city": "Accompong", "lon": "-77.75"}, {"lat": "18.2333333", "city": "Accompong Maroon Lands", "lon": "-77.75"}, {"lat": "18.2333333", "city": "Accompong Maroon Village", "lon": "-77.75"}, {"lat": "18.2333333", "city": "Accompong Town", "lon": "-77.75"}, {"lat": "18.05", "city": "Albert Arms", "lon": "-77.7"}, {"lat": "17.8666667", "city": "Alligator Pond", "lon": "-77.5666667"}, {"lat": "17.8666667", "city": "Alligator Pond Bay", "lon": "-77.5666667"}, {"lat": "17.8666667", "city": "Alligator Pond Village", "lon": "-77.5666667"}, {"lat": "18.15", "city": "Almondsbury", "lon": "-77.65"}, {"lat": "17.9666667", "city": "Alscot", "lon": "-77.7666667"}, {"lat": "18.0333333", "city": "Althorp", "lon": "-77.9"}, {"lat": "18.1833333", "city": "Armstrong", "lon": "-77.6333333"}, {"lat": "18.1833333", "city": "Armstrongs", "lon": "-77.6333333"}, {"lat": "18.0333333", "city": "Arthorp", "lon": "-77.9"}, {"lat": "18.05", "city": "Ashton", "lon": "-77.8666667"}, {"lat": "18.1666667", "city": "Balaclava", "lon": "-77.65"}, {"lat": "17.95", "city": "Barbary Hall", "lon": "-77.7666667"}, {"lat": "18.05", "city": "Barnes Green", "lon": "-77.8666667"}, {"lat": "18.1333333", "city": "Barton", "lon": "-77.7333333"}, {"lat": "18.1333333", "city": "Bartons", "lon": "-77.7333333"}, {"lat": "18.2", "city": "Ben Lomond", "lon": "-77.6833333"}, {"lat": "17.9166667", "city": "Berlin", "lon": "-77.65"}, {"lat": "17.9666667", "city": "Bethlehem", "lon": "-77.7"}, {"lat": "18.0166667", "city": "Black River", "lon": "-77.85"}, {"lat": "18.0833333", "city": "Braes River", "lon": "-77.65"}, {"lat": "18.0666667", "city": "Brampton", "lon": "-77.8833333"}, {"lat": "18.05", "city": "Breadnut", "lon": "-77.9"}, {"lat": "17.9166667", "city": "Bridge Pen", "lon": "-77.6"}, {"lat": "18.15", "city": "Brighton", "lon": "-77.8833333"}, {"lat": "17.9333333", "city": "Brinkley", "lon": "-77.6166667"}, {"lat": "18.0666667", "city": "Brompton", "lon": "-77.8833333"}, {"lat": "17.9666667", "city": "Browns Valley", "lon": "-77.7666667"}, {"lat": "17.9666667", "city": "Brucefield", "lon": "-77.7833333"}, {"lat": "18.2166667", "city": "Bullet Hall", "lon": "-77.7"}, {"lat": "17.8833333", "city": "Bull Savanna", "lon": "-77.6"}, {"lat": "18.05", "city": "Burnt Ground", "lon": "-77.7166667"}, {"lat": "18.0333333", "city": "Burnt Savanna", "lon": "-77.75"}, {"lat": "18.0666667", "city": "Bybrook", "lon": "-77.6833333"}, {"lat": "18.1333333", "city": "Carisbrook", "lon": "-77.7833333"}, {"lat": "18.1333333", "city": "Carrisbrook", "lon": "-77.7833333"}, {"lat": "18.0666667", "city": "Cashew", "lon": "-77.7833333"}, {"lat": "18.0333333", "city": "Cataboo", "lon": "-77.8166667"}, {"lat": "17.9333333", "city": "Cheapside", "lon": "-77.6"}, {"lat": "17.9333333", "city": "Chelsea", "lon": "-77.7"}, {"lat": "17.9166667", "city": "Claremont", "lon": "-77.7333333"}, {"lat": "17.9166667", "city": "Claremont Park", "lon": "-77.7333333"}, {"lat": "17.9166667", "city": "Clarmont Park", "lon": "-77.7333333"}, {"lat": "18.1166667", "city": "Colon", "lon": "-77.9166667"}, {"lat": "17.9166667", "city": "Comma Pen", "lon": "-77.6"}, {"lat": "18.1", "city": "Content", "lon": "-77.9"}, {"lat": "17.9", "city": "Corby Castle", "lon": "-77.6666667"}, {"lat": "18.0833333", "city": "Cotterwood", "lon": "-77.9"}, {"lat": "18.05", "city": "Crawford", "lon": "-77.9"}, {"lat": "18.05", "city": "Crawfords", "lon": "-77.9"}, {"lat": "18.1333333", "city": "Croyden", "lon": "-77.9"}, {"lat": "18.1333333", "city": "Croydon", "lon": "-77.9"}, {"lat": "18.05", "city": "Dalentobur", "lon": "-77.9333333"}, {"lat": "18.05", "city": "Dalingtober", "lon": "-77.9333333"}, {"lat": "18.05", "city": "Dallingtober", "lon": "-77.9333333"}, {"lat": "18.05", "city": "Dollingtabor", "lon": "-77.9333333"}, {"lat": "18.1833333", "city": "Donegal", "lon": "-77.8833333"}, {"lat": "17.9833333", "city": "Dorcas", "lon": "-77.8166667"}, {"lat": "17.8666667", "city": "Drummonds Run", "lon": "-77.7"}, {"lat": "18.1333333", "city": "Dumbarton", "lon": "-77.9"}, {"lat": "17.8833333", "city": "Dumblane", "lon": "-77.7333333"}, {"lat": "18.2333333", "city": "Eldersley", "lon": "-77.8"}, {"lat": "18.2333333", "city": "Elderslie", "lon": "-77.8"}, {"lat": "18.1166667", "city": "Elim", "lon": "-77.6833333"}, {"lat": "17.95", "city": "Far Enough", "lon": "-77.75"}, {"lat": "17.9833333", "city": "Fellowship", "lon": "-77.6166667"}, {"lat": "18.0666667", "city": "Font Hill", "lon": "-77.9333333"}, {"lat": "17.9166667", "city": "Fort Charles", "lon": "-77.8"}, {"lat": "18.0666667", "city": "Frenchman", "lon": "-77.8"}, {"lat": "17.9833333", "city": "Friendship", "lon": "-77.65"}, {"lat": "17.9833333", "city": "Fullerswood Beach", "lon": "-77.8"}, {"lat": "17.9833333", "city": "Fullerswood", "lon": "-77.8"}, {"lat": "17.9833333", "city": "Fullerswood Park", "lon": "-77.7833333"}, {"lat": "17.9833333", "city": "Fullerwood Park", "lon": "-77.7833333"}, {"lat": "18.0666667", "city": "Fustic Grove", "lon": "-77.9333333"}, {"lat": "18.0666667", "city": "Fyffes", "lon": "-77.8833333"}, {"lat": "18.0666667", "city": "Fyffes Pen", "lon": "-77.8833333"}, {"lat": "17.95", "city": "Gazeland", "lon": "-77.6"}, {"lat": "17.9333333", "city": "Geneva", "lon": "-77.7333333"}, {"lat": "18.1", "city": "Georges Valley", "lon": "-77.6333333"}, {"lat": "18.1", "city": "Giddy Hall", "lon": "-77.8833333"}, {"lat": "18.05", "city": "Gilnock", "lon": "-77.65"}, {"lat": "18.05", "city": "Gilnock Hall", "lon": "-77.65"}, {"lat": "18.2166667", "city": "Ginger Hill", "lon": "-77.8666667"}, {"lat": "18.0666667", "city": "Globe Mountains", "lon": "-77.8833333"}, {"lat": "18.0666667", "city": "Grasmond", "lon": "-77.65"}, {"lat": "18.0666667", "city": "Great Cashoo", "lon": "-77.7833333"}, {"lat": "18.0166667", "city": "Gutters", "lon": "-77.6"}, {"lat": "17.95", "city": "Hampton", "lon": "-77.7"}, {"lat": "18.1333333", "city": "Happy Grove", "lon": "-77.8833333"}, {"lat": "18.1", "city": "Haughton", "lon": "-77.75"}, {"lat": "18.1333333", "city": "Hazel Grove", "lon": "-77.8833333"}, {"lat": "17.9333333", "city": "Hermitage", "lon": "-77.7"}, {"lat": "17.9333333", "city": "Hermitage House", "lon": "-77.7"}, {"lat": "17.95", "city": "Hill Top", "lon": "-77.8166667"}, {"lat": "18.05", "city": "Hodges", "lon": "-77.8833333"}, {"lat": "18.1", "city": "Holland", "lon": "-77.8166667"}, {"lat": "17.9666667", "city": "Hopeton", "lon": "-77.6666667"}, {"lat": "17.95", "city": "Hopewell", "lon": "-77.7833333"}, {"lat": "18.1", "city": "Houghton", "lon": "-77.75"}, {"lat": "18.2", "city": "Ipswich", "lon": "-77.8333333"}, {"lat": "17.9666667", "city": "Iver Cottage", "lon": "-77.7166667"}, {"lat": "17.9666667", "city": "Iver", "lon": "-77.7166667"}, {"lat": "17.9666667", "city": "Johns Lodge", "lon": "-77.7333333"}, {"lat": "18.2", "city": "Jointwood", "lon": "-77.7833333"}, {"lat": "17.9", "city": "Junction", "lon": "-77.6"}, {"lat": "18.0666667", "city": "Kempshot", "lon": "-77.8666667"}, {"lat": "17.9", "city": "Kensington", "lon": "-77.65"}, {"lat": "17.9666667", "city": "Kildare", "lon": "-77.75"}, {"lat": "18.1166667", "city": "Kilmarnoch", "lon": "-77.9166667"}, {"lat": "18.05", "city": "Kilmorey", "lon": "-77.9"}, {"lat": "18.0666667", "city": "Lacovia", "lon": "-77.75"}, {"lat": "18.0666667", "city": "Lacovia Tombstone", "lon": "-77.7666667"}, {"lat": "18.1166667", "city": "Lancaster", "lon": "-77.6333333"}, {"lat": "18.0166667", "city": "Leeds", "lon": "-77.7"}, {"lat": "17.9166667", "city": "Lelitz", "lon": "-77.6"}, {"lat": "17.9166667", "city": "Letitz", "lon": "-77.6"}, {"lat": "18.05", "city": "Lewis Town", "lon": "-77.9"}, {"lat": "17.9166667", "city": "Lilitz", "lon": "-77.6"}, {"lat": "18.15", "city": "Lilliput", "lon": "-77.6333333"}, {"lat": "17.9166667", "city": "Lititz", "lon": "-77.6"}, {"lat": "17.9", "city": "Little Park", "lon": "-77.7333333"}, {"lat": "18.0333333", "city": "Longacre", "lon": "-77.9"}, {"lat": "18.0166667", "city": "Long Hill", "lon": "-77.65"}, {"lat": "18.1333333", "city": "Lookout", "lon": "-77.6333333"}, {"lat": "17.8666667", "city": "Lovers Leap", "lon": "-77.65"}, {"lat": "17.7", "city": "Lower Southfield", "lon": "-77.6833333"}, {"lat": "17.95", "city": "Lower Warminster", "lon": "-77.6333333"}, {"lat": "18.15", "city": "Maggotty", "lon": "-77.7666667"}, {"lat": "17.8833333", "city": "Malvern Chase", "lon": "-77.6833333"}, {"lat": "17.9666667", "city": "Malvern", "lon": "-77.7"}, {"lat": "17.95", "city": "Malvern Well", "lon": "-77.7333333"}, {"lat": "17.95", "city": "Malvern Wells", "lon": "-77.7333333"}, {"lat": "17.8833333", "city": "Manchioneal", "lon": "-77.75"}, {"lat": "18.1666667", "city": "Mexico", "lon": "-77.65"}, {"lat": "18.1", "city": "Middle Quarters", "lon": "-77.8333333"}, {"lat": "18.0666667", "city": "Mitcham", "lon": "-77.6166667"}, {"lat": "17.9666667", "city": "Mountain Side", "lon": "-77.75"}, {"lat": "18.0", "city": "Mount Hermon", "lon": "-77.6333333"}, {"lat": "18.0833333", "city": "Mount Pleasant", "lon": "-77.8833333"}, {"lat": "18.1", "city": "Mount Solus", "lon": "-77.8833333"}, {"lat": "17.9333333", "city": "Mount Zion", "lon": "-77.6833333"}, {"lat": "17.9666667", "city": "Myersville Church", "lon": "-77.6333333"}, {"lat": "17.9666667", "city": "Myersville", "lon": "-77.6333333"}, {"lat": "17.9666667", "city": "Nain", "lon": "-77.6"}, {"lat": "17.9", "city": "Newcombe Valley", "lon": "-77.75"}, {"lat": "17.9", "city": "New Come Valley", "lon": "-77.75"}, {"lat": "17.9166667", "city": "Newell", "lon": "-77.7333333"}, {"lat": "17.9166667", "city": "Newell Pen", "lon": "-77.7333333"}, {"lat": "18.1666667", "city": "Newmarket", "lon": "-77.9166667"}, {"lat": "18.1166667", "city": "Newton", "lon": "-77.75"}, {"lat": "17.9", "city": "Norfolk", "lon": "-77.6833333"}, {"lat": "18.0333333", "city": "Northampton", "lon": "-77.6833333"}, {"lat": "18.0333333", "city": "Northhampton", "lon": "-77.6833333"}, {"lat": "17.9666667", "city": "Paradise", "lon": "-77.75"}, {"lat": "18.2", "city": "Park Head", "lon": "-77.65"}, {"lat": "17.9833333", "city": "Park", "lon": "-77.7833333"}, {"lat": "17.8833333", "city": "Pedro Cross", "lon": "-77.7166667"}, {"lat": "17.8666667", "city": "Pedro", "lon": "-77.7333333"}, {"lat": "17.8666667", "city": "Pedro Pen", "lon": "-77.7333333"}, {"lat": "18.0333333", "city": "Pepper Pen", "lon": "-77.6"}, {"lat": "18.0166667", "city": "Pepper", "lon": "-77.6"}, {"lat": "18.2", "city": "Pisgah", "lon": "-77.8833333"}, {"lat": "17.9666667", "city": "Pond Side", "lon": "-77.8166667"}, {"lat": "17.8666667", "city": "Port Kaiser", "lon": "-77.6"}, {"lat": "18.1166667", "city": "Prospect", "lon": "-77.8833333"}, {"lat": "18.2166667", "city": "Pullet Hall", "lon": "-77.7"}, {"lat": "17.9666667", "city": "Punchbowl", "lon": "-77.6166667"}, {"lat": "18.0666667", "city": "Rectory", "lon": "-77.8833333"}, {"lat": "18.1833333", "city": "Retirement", "lon": "-77.7666667"}, {"lat": "17.8833333", "city": "Reynolds Run", "lon": "-77.7166667"}, {"lat": "17.9666667", "city": "Roseberry", "lon": "-77.6833333"}, {"lat": "17.9333333", "city": "Rose Hall", "lon": "-77.65"}, {"lat": "17.9333333", "city": "Rose Hill", "lon": "-77.65"}, {"lat": "17.9833333", "city": "Russells", "lon": "-77.6666667"}, {"lat": "17.9833333", "city": "Russels", "lon": "-77.6666667"}, {"lat": "17.9166667", "city": "Saint Mary's", "lon": "-78.6666667"}, {"lat": "18.1", "city": "Sally", "lon": "-77.7333333"}, {"lat": "18.1", "city": "Sallys Hall", "lon": "-77.7333333"}, {"lat": "18.05", "city": "Sandy Ground", "lon": "-77.9"}, {"lat": "18.05", "city": "Santa Cruz", "lon": "-77.7"}, {"lat": "18.0", "city": "Scholefield", "lon": "-77.7"}, {"lat": "18.0666667", "city": "Selington", "lon": "-77.9"}, {"lat": "18.0333333", "city": "Seven Corners", "lon": "-77.7"}, {"lat": "18.1166667", "city": "Shaws", "lon": "-77.8166667"}, {"lat": "18.1166667", "city": "Shaws Village", "lon": "-77.8166667"}, {"lat": "18.0833333", "city": "Shrewsbury", "lon": "-77.9166667"}, {"lat": "18.1666667", "city": "Siloah", "lon": "-77.7166667"}, {"lat": "18.05", "city": "Slipe", "lon": "-77.7833333"}, {"lat": "17.95", "city": "Smithfield", "lon": "-77.8166667"}, {"lat": "17.8833333", "city": "Southfield", "lon": "-77.6666667"}, {"lat": "18.0666667", "city": "Speculation", "lon": "-77.8833333"}, {"lat": "18.1333333", "city": "Springdale", "lon": "-77.85"}, {"lat": "18.1666667", "city": "Springfield", "lon": "-77.8833333"}, {"lat": "18.05", "city": "Spring Park", "lon": "-77.8666667"}, {"lat": "18.1333333", "city": "Springvale", "lon": "-77.85"}, {"lat": "17.9333333", "city": "Success Pen", "lon": "-77.75"}, {"lat": "17.9333333", "city": "Success", "lon": "-77.75"}, {"lat": "18.2", "city": "Thornton", "lon": "-77.7166667"}, {"lat": "18.0666667", "city": "Tombstone", "lon": "-77.7666667"}, {"lat": "17.8833333", "city": "Top Hill", "lon": "-77.65"}, {"lat": "17.9333333", "city": "Torrington Castle", "lon": "-77.7"}, {"lat": "17.9333333", "city": "Torrington", "lon": "-77.7"}, {"lat": "17.8833333", "city": "Treasure Beach", "lon": "-77.7333333"}, {"lat": "18.1666667", "city": "Village of Shiloah", "lon": "-77.7166667"}, {"lat": "17.9333333", "city": "Watchwell", "lon": "-77.7666667"}, {"lat": "18.0666667", "city": "Westphalia", "lon": "-77.65"}, {"lat": "18.0666667", "city": "Wharton", "lon": "-77.7333333"}, {"lat": "18.1", "city": "White Hall", "lon": "-77.85"}, {"lat": "18.15", "city": "White Hill", "lon": "-77.8"}, {"lat": "17.95", "city": "White Rock", "lon": "-77.8"}, {"lat": "18.0666667", "city": "Whorton", "lon": "-77.7333333"}, {"lat": "17.9333333", "city": "Williamsfield", "lon": "-77.7666667"}, {"lat": "18.05", "city": "Wilton", "lon": "-77.65"}, {"lat": "17.9666667", "city": "Winchester", "lon": "-77.7666667"}, {"lat": "18.15", "city": "Woodstock", "lon": "-77.9"}, {"lat": "18.0666667", "city": "Woolwich", "lon": "-77.75"}, {"lat": "18.15", "city": "Y.S. Estate", "lon": "-77.8166667"}, {"lat": "18.15", "city": "Ys House", "lon": "-77.8166667"}], "02": [{"lat": "18.3833333", "city": "Abingdon", "lon": "-78.3"}, {"lat": "18.35", "city": "Alexandria", "lon": "-78.0333333"}, {"lat": "18.3166667", "city": "Argyle", "lon": "-77.9833333"}, {"lat": "18.3166667", "city": "Argyle Pen", "lon": "-77.9833333"}, {"lat": "18.3833333", "city": "Askenish", "lon": "-78.15"}, {"lat": "18.3833333", "city": "Askinish", "lon": "-78.15"}, {"lat": "18.35", "city": "Axe Adze", "lon": "-78.0333333"}, {"lat": "18.35", "city": "Axe and Adze", "lon": "-78.0333333"}, {"lat": "18.4333333", "city": "Bachelors Hall", "lon": "-78.2"}, {"lat": "18.4333333", "city": "Bamboo", "lon": "-78.0333333"}, {"lat": "18.0666667", "city": "Banana Ground", "lon": "-77.4333333"}, {"lat": "18.45", "city": "Barbican", "lon": "-78.1166667"}, {"lat": "18.45", "city": "Barbicon", "lon": "-78.1166667"}, {"lat": "18.3166667", "city": "Belvedere", "lon": "-77.9333333"}, {"lat": "18.3166667", "city": "Belvidere House", "lon": "-77.9333333"}, {"lat": "18.45", "city": "Blue Hole", "lon": "-78.1"}, {"lat": "18.0666667", "city": "Blue Mountain", "lon": "-77.4333333"}, {"lat": "18.4", "city": "Bower Hall", "lon": "-78.1833333"}, {"lat": "18.4", "city": "Bower Hill", "lon": "-78.1833333"}, {"lat": "18.4", "city": "Bowers Hall", "lon": "-78.1833333"}, {"lat": "18.3666667", "city": "Boxton", "lon": "-78.1"}, {"lat": "18.3666667", "city": "Buxton", "lon": "-78.1"}, {"lat": "18.4166667", "city": "Cacoon", "lon": "-78.2166667"}, {"lat": "18.4", "city": "Cacoon Castle", "lon": "-78.0166667"}, {"lat": "18.3833333", "city": "Caledonia", "lon": "-78.05"}, {"lat": "18.35", "city": "Cambelton", "lon": "-78.2833333"}, {"lat": "18.35", "city": "Campbellton", "lon": "-78.2833333"}, {"lat": "18.35", "city": "Campbelton", "lon": "-78.2833333"}, {"lat": "18.35", "city": "Campbleton", "lon": "-78.2833333"}, {"lat": "18.4", "city": "Cascade", "lon": "-78.1"}, {"lat": "18.3833333", "city": "Cauldwell", "lon": "-78.2333333"}, {"lat": "18.3166667", "city": "Cave Valley", "lon": "-78.2666667"}, {"lat": "18.4", "city": "Chigwell", "lon": "-78.05"}, {"lat": "18.4333333", "city": "Commadore", "lon": "-78.0333333"}, {"lat": "18.3833333", "city": "Content", "lon": "-78.0166667"}, {"lat": "18.4166667", "city": "Cousins Cove", "lon": "-78.2333333"}, {"lat": "18.4166667", "city": "Coventry", "lon": "-78.0666667"}, {"lat": "18.4166667", "city": "Coventry Pen", "lon": "-78.0666667"}, {"lat": "18.4", "city": "Dias", "lon": "-78.2"}, {"lat": "18.4333333", "city": "Eaton", "lon": "-78.1666667"}, {"lat": "18.4", "city": "Eden", "lon": "-77.9666667"}, {"lat": "18.4333333", "city": "Elgin Town", "lon": "-78.15"}, {"lat": "18.4333333", "city": "Esher", "lon": "-78.2"}, {"lat": "18.4333333", "city": "Eton", "lon": "-78.1666667"}, {"lat": "18.3333333", "city": "Fish River", "lon": "-78.3"}, {"lat": "18.45", "city": "Flint River", "lon": "-78.05"}, {"lat": "18.45", "city": "Flint River House", "lon": "-78.05"}, {"lat": "18.4333333", "city": "Friendship", "lon": "-78.0333333"}, {"lat": "18.4333333", "city": "Friendship Grove", "lon": "-78.0333333"}, {"lat": "18.4166667", "city": "Georgia", "lon": "-78.1333333"}, {"lat": "18.35", "city": "Golden Grove", "lon": "-78.0333333"}, {"lat": "18.3666667", "city": "Grange", "lon": "-78.2333333"}, {"lat": "18.4", "city": "Great Valley", "lon": "-78.0666667"}, {"lat": "18.4", "city": "Green Island", "lon": "-78.2833333"}, {"lat": "18.4166667", "city": "Greenland", "lon": "-78.1833333"}, {"lat": "18.3666667", "city": "Green River", "lon": "-78.25"}, {"lat": "18.3166667", "city": "Greenwich House", "lon": "-77.9333333"}, {"lat": "18.4333333", "city": "Grove", "lon": "-78.0333333"}, {"lat": "18.4166667", "city": "Haddington", "lon": "-78.0"}, {"lat": "18.4333333", "city": "Haughton Court", "lon": "-78.2166667"}, {"lat": "18.3333333", "city": "Haughton Grove", "lon": "-77.9833333"}, {"lat": "18.3833333", "city": "Haughton Hall", "lon": "-78.2833333"}, {"lat": "18.4166667", "city": "Hope Hall", "lon": "-78.1833333"}, {"lat": "18.4333333", "city": "Hopewell", "lon": "-78.1333333"}, {"lat": "18.4166667", "city": "Jericho", "lon": "-78.1333333"}, {"lat": "18.4333333", "city": "Jew Hill", "lon": "-78.15"}, {"lat": "18.4333333", "city": "Johnsons Town", "lon": "-78.1666667"}, {"lat": "18.4333333", "city": "Johnson Town", "lon": "-78.1666667"}, {"lat": "18.4333333", "city": "Johnston Town", "lon": "-78.1666667"}, {"lat": "18.3166667", "city": "Jones Moreland", "lon": "-78.2666667"}, {"lat": "18.3833333", "city": "Kempshot", "lon": "-78.1166667"}, {"lat": "18.4333333", "city": "Kew", "lon": "-78.15"}, {"lat": "18.3833333", "city": "Kingsvale", "lon": "-78.2166667"}, {"lat": "18.3166667", "city": "Knockalva", "lon": "-77.9833333"}, {"lat": "18.4333333", "city": "Lances Bay", "lon": "-78.2166667"}, {"lat": "18.4333333", "city": "Lances Bay Pen", "lon": "-78.2166667"}, {"lat": "18.4", "city": "Lethe", "lon": "-77.9666667"}, {"lat": "18.3333333", "city": "Logwood", "lon": "-78.3"}, {"lat": "18.45", "city": "Lucea", "lon": "-78.1666667"}, {"lat": "18.4166667", "city": "Maggotty", "lon": "-78.1166667"}, {"lat": "18.4166667", "city": "Magotty", "lon": "-78.1166667"}, {"lat": "18.3333333", "city": "March Town", "lon": "-78.2666667"}, {"lat": "18.3833333", "city": "Maryland", "lon": "-78.1333333"}, {"lat": "18.4166667", "city": "Middlesex", "lon": "-78.1833333"}, {"lat": "18.3666667", "city": "Miles Town", "lon": "-77.9833333"}, {"lat": "18.4333333", "city": "Mosquito Cove", "lon": "-78.1166667"}, {"lat": "18.4", "city": "Mountain Valley", "lon": "-78.0666667"}, {"lat": "18.3833333", "city": "Mount Pleasant", "lon": "-78.3"}, {"lat": "18.3666667", "city": "New Green Island", "lon": "-78.2666667"}, {"lat": "18.3833333", "city": "New Paradise", "lon": "-78.2333333"}, {"lat": "18.3666667", "city": "Orange Bay", "lon": "-78.3166667"}, {"lat": "18.45", "city": "Orange Cove", "lon": "-78.2"}, {"lat": "18.45", "city": "Orchard", "lon": "-78.05"}, {"lat": "18.3833333", "city": "Paradise", "lon": "-78.2333333"}, {"lat": "18.4333333", "city": "Peak Pen", "lon": "-78.1333333"}, {"lat": "18.45", "city": "Pedro", "lon": "-78.2166667"}, {"lat": "18.45", "city": "Pedro Pen", "lon": "-78.2166667"}, {"lat": "18.35", "city": "Pennycooke", "lon": "-78.1"}, {"lat": "18.35", "city": "Penny Cooks", "lon": "-78.1"}, {"lat": "18.3666667", "city": "Phoenix", "lon": "-78.2833333"}, {"lat": "18.3666667", "city": "Phoenix Town", "lon": "-78.2833333"}, {"lat": "18.45", "city": "Point", "lon": "-78.15"}, {"lat": "18.4", "city": "Pondside", "lon": "-78.0833333"}, {"lat": "18.4", "city": "Ponside", "lon": "-78.0833333"}, {"lat": "18.3833333", "city": "Prospect", "lon": "-78.25"}, {"lat": "18.3333333", "city": "Ramble House", "lon": "-78.0166667"}, {"lat": "18.3333333", "city": "Ramble Pen", "lon": "-78.0166667"}, {"lat": "18.3166667", "city": "Ramble", "lon": "-77.9833333"}, {"lat": "18.4333333", "city": "Recovery Pen", "lon": "-78.0666667"}, {"lat": "18.3666667", "city": "Rhodes Hall", "lon": "-78.3"}, {"lat": "18.3833333", "city": "Riverside", "lon": "-78.1833333"}, {"lat": "18.3666667", "city": "Rock Spring", "lon": "-78.25"}, {"lat": "18.4166667", "city": "Rome", "lon": "-78.05"}, {"lat": "18.45", "city": "Round Hill", "lon": "-78.0166667"}, {"lat": "18.35", "city": "Saddlers Hall", "lon": "-78.0"}, {"lat": "18.35", "city": "Sadlers Hall", "lon": "-78.0"}, {"lat": "18.3666667", "city": "Salem", "lon": "-78.3"}, {"lat": "18.3833333", "city": "Salt Spring", "lon": "-78.2666667"}, {"lat": "18.45", "city": "Sandy Bay", "lon": "-78.0833333"}, {"lat": "18.45", "city": "Sandy Bay Village", "lon": "-78.0833333"}, {"lat": "18.3666667", "city": "Saxham", "lon": "-78.25"}, {"lat": "18.4", "city": "Shepperds Hall", "lon": "-78.05"}, {"lat": "18.35", "city": "Shettlewood", "lon": "-77.95"}, {"lat": "18.4", "city": "Smithfield", "lon": "-78.1"}, {"lat": "18.35", "city": "Sod Hall", "lon": "-78.0"}, {"lat": "18.4", "city": "Spring Valley", "lon": "-78.25"}, {"lat": "18.3666667", "city": "Success", "lon": "-78.05"}, {"lat": "18.3833333", "city": "Tarwood", "lon": "-78.05"}, {"lat": "18.4", "city": "Thompson Hill", "lon": "-78.05"}, {"lat": "18.4", "city": "Thompsons Bush", "lon": "-78.05"}, {"lat": "18.4", "city": "Thomson Hill", "lon": "-78.05"}, {"lat": "18.4166667", "city": "Tom Mount", "lon": "-78.15"}, {"lat": "18.4166667", "city": "Tom Spring", "lon": "-78.15"}, {"lat": "18.45", "city": "Tryall", "lon": "-78.0666667"}, {"lat": "18.45", "city": "Tryal", "lon": "-78.0666667"}, {"lat": "18.35", "city": "Westfield", "lon": "-78.25"}], "13": [{"lat": "18.2666667", "city": "Agua Alta Vale", "lon": "-76.8"}, {"lat": "18.2666667", "city": "Agualta Vale", "lon": "-76.8"}, {"lat": "18.4", "city": "Airy Hill", "lon": "-76.9333333"}, {"lat": "18.2833333", "city": "Albany", "lon": "-76.85"}, {"lat": "18.2333333", "city": "Aleppo", "lon": "-76.85"}, {"lat": "18.2666667", "city": "Annatto Bay", "lon": "-76.7666667"}, {"lat": "18.2666667", "city": "Annotta Bay", "lon": "-76.7666667"}, {"lat": "18.2666667", "city": "Annotto Bay", "lon": "-76.7666667"}, {"lat": "18.2666667", "city": "Aqua Alta Vale", "lon": "-76.8"}, {"lat": "18.3166667", "city": "Ballards Valley", "lon": "-76.9"}, {"lat": "18.4", "city": "Bantam Spring", "lon": "-77.0666667"}, {"lat": "18.2666667", "city": "Belfield", "lon": "-76.8333333"}, {"lat": "18.25", "city": "Belfield Works", "lon": "-76.8333333"}, {"lat": "18.2666667", "city": "Bellfield", "lon": "-76.8333333"}, {"lat": "18.4", "city": "Bel Renro", "lon": "-76.9"}, {"lat": "18.4", "city": "Bel Retiro", "lon": "-76.9"}, {"lat": "18.2666667", "city": "Bendish Rock", "lon": "-76.8"}, {"lat": "18.2833333", "city": "Berry Hill", "lon": "-76.9333333"}, {"lat": "18.3166667", "city": "Bishop Mount", "lon": "-76.95"}, {"lat": "18.4", "city": "Bonham Spring", "lon": "-77.0666667"}, {"lat": "18.3166667", "city": "Bonny Gate", "lon": "-76.95"}, {"lat": "18.3166667", "city": "Bonny Pen", "lon": "-76.95"}, {"lat": "18.4", "city": "Boscabel", "lon": "-76.9666667"}, {"lat": "18.4", "city": "Boscobel", "lon": "-76.9666667"}, {"lat": "18.3166667", "city": "Boyne Park", "lon": "-76.9333333"}, {"lat": "18.2666667", "city": "Brae Head", "lon": "-76.9333333"}, {"lat": "18.2", "city": "Brainerd", "lon": "-76.9"}, {"lat": "18.35", "city": "Brimmer Hall", "lon": "-76.9166667"}, {"lat": "18.2333333", "city": "Broadgate", "lon": "-76.8166667"}, {"lat": "18.35", "city": "Broadleaf", "lon": "-77.0333333"}, {"lat": "18.3833333", "city": "Brooklyn", "lon": "-76.9166667"}, {"lat": "18.2333333", "city": "Brown Hill Village", "lon": "-76.7333333"}, {"lat": "18.35", "city": "Brummer Hall", "lon": "-76.9166667"}, {"lat": "18.2333333", "city": "Camberwell", "lon": "-76.8"}, {"lat": "18.2333333", "city": "Camberwell School", "lon": "-76.8"}, {"lat": "18.2666667", "city": "Caron Hall", "lon": "-76.9333333"}, {"lat": "18.2666667", "city": "Carron Hall", "lon": "-76.9333333"}, {"lat": "18.2666667", "city": "Change Hill", "lon": "-76.95"}, {"lat": "18.25", "city": "Charlottenburgh", "lon": "-76.8833333"}, {"lat": "18.35", "city": "Chatsworth", "lon": "-77.05"}, {"lat": "18.4", "city": "Cherryfield", "lon": "-77.0333333"}, {"lat": "18.25", "city": "Chovey", "lon": "-76.8166667"}, {"lat": "18.25", "city": "Chovey House", "lon": "-76.8166667"}, {"lat": "18.2666667", "city": "Clermont", "lon": "-76.85"}, {"lat": "18.2333333", "city": "Clonmel", "lon": "-76.85"}, {"lat": "18.25", "city": "Coffee Piece", "lon": "-76.85"}, {"lat": "18.2", "city": "Cold Spring", "lon": "-76.9"}, {"lat": "18.3", "city": "Comfort Settlement", "lon": "-76.9333333"}, {"lat": "18.2666667", "city": "Content", "lon": "-76.8833333"}, {"lat": "18.3833333", "city": "Copse", "lon": "-77.9666667"}, {"lat": "18.25", "city": "Cottage", "lon": "-76.7333333"}, {"lat": "18.3", "city": "Crawle", "lon": "-76.9333333"}, {"lat": "18.2833333", "city": "Cum See", "lon": "-76.8833333"}, {"lat": "18.2833333", "city": "Decoy Estate", "lon": "-76.9833333"}, {"lat": "18.3333333", "city": "Dressikie", "lon": "-76.9833333"}, {"lat": "18.3333333", "city": "Dressiky", "lon": "-76.9833333"}, {"lat": "18.2", "city": "Drummand Orange Grove", "lon": "-76.7333333"}, {"lat": "18.4", "city": "Eden", "lon": "-76.95"}, {"lat": "18.3833333", "city": "Eden Hill", "lon": "-76.95"}, {"lat": "18.3833333", "city": "Eden Park", "lon": "-76.95"}, {"lat": "18.2833333", "city": "Egypt", "lon": "-76.85"}, {"lat": "18.3", "city": "Elgin Town", "lon": "-77.0166667"}, {"lat": "18.3666667", "city": "Endeavour", "lon": "-77.05"}, {"lat": "18.2", "city": "Enfield", "lon": "-76.7333333"}, {"lat": "18.25", "city": "Epsom", "lon": "-76.7333333"}, {"lat": "18.25", "city": "Epson", "lon": "-76.7333333"}, {"lat": "18.2833333", "city": "Esher", "lon": "-76.85"}, {"lat": "18.2333333", "city": "Essex", "lon": "-76.9333333"}, {"lat": "18.4", "city": "Exchange", "lon": "-77.0666667"}, {"lat": "18.3833333", "city": "Fellowship Hall", "lon": "-76.9833333"}, {"lat": "18.3666667", "city": "Fontabelle", "lon": "-76.95"}, {"lat": "18.2333333", "city": "Fort George", "lon": "-76.7833333"}, {"lat": "18.2333333", "city": "Fort Stewart", "lon": "-76.7333333"}, {"lat": "18.35", "city": "Free Hill", "lon": "-76.9333333"}, {"lat": "18.3166667", "city": "Friendship", "lon": "-76.85"}, {"lat": "18.3666667", "city": "Frontier", "lon": "-76.8833333"}, {"lat": "18.3166667", "city": "Gayle", "lon": "-77.0166667"}, {"lat": "18.3166667", "city": "Gayle Village", "lon": "-77.0166667"}, {"lat": "18.2333333", "city": "Georgia", "lon": "-76.8166667"}, {"lat": "18.2666667", "city": "Grantham", "lon": "-76.8833333"}, {"lat": "18.2666667", "city": "Grays Inn Estate", "lon": "-76.7833333"}, {"lat": "18.2666667", "city": "Grays Inn", "lon": "-76.7833333"}, {"lat": "18.2833333", "city": "Green Castle", "lon": "-76.8166667"}, {"lat": "18.3833333", "city": "Greenwood", "lon": "-76.9666667"}, {"lat": "18.2666667", "city": "Greys Inn", "lon": "-76.7833333"}, {"lat": "18.4", "city": "Haddersfield", "lon": "-77.0166667"}, {"lat": "18.2833333", "city": "Halifax", "lon": "-77.0333333"}, {"lat": "18.3", "city": "Hampstead", "lon": "-76.9166667"}, {"lat": "18.4", "city": "Hard Bargain", "lon": "-77.0333333"}, {"lat": "18.2833333", "city": "Harmony Hall", "lon": "-76.8833333"}, {"lat": "18.3166667", "city": "Heywood Hall", "lon": "-76.8833333"}, {"lat": "18.2666667", "city": "Highgate", "lon": "-76.8833333"}, {"lat": "18.2666667", "city": "Highgate Village", "lon": "-76.8833333"}, {"lat": "18.4", "city": "Huddersfield", "lon": "-77.0166667"}, {"lat": "18.35", "city": "Huntstown", "lon": "-76.9666667"}, {"lat": "18.2666667", "city": "Inter Boreale", "lon": "-76.7333333"}, {"lat": "18.3", "city": "Islington", "lon": "-76.85"}, {"lat": "18.2666667", "city": "Iter Boreale", "lon": "-76.7333333"}, {"lat": "18.3833333", "city": "Jack Lodge", "lon": "-76.95"}, {"lat": "18.3833333", "city": "Jack River", "lon": "-76.95"}, {"lat": "18.3833333", "city": "Jacks River", "lon": "-76.95"}, {"lat": "18.2666667", "city": "Jacks Rock", "lon": "-76.8"}, {"lat": "18.2833333", "city": "Jefferey Town", "lon": "-77.0166667"}, {"lat": "18.2833333", "city": "Jeffrey Town", "lon": "-77.0166667"}, {"lat": "18.2333333", "city": "Koeningsburg", "lon": "-76.8666667"}, {"lat": "18.2333333", "city": "Konigsberg", "lon": "-76.8666667"}, {"lat": "18.2333333", "city": "Konigsburgh", "lon": "-76.8666667"}, {"lat": "18.2333333", "city": "Konigsburg", "lon": "-76.8666667"}, {"lat": "18.2333333", "city": "Koningsbergh", "lon": "-76.8666667"}, {"lat": "18.2333333", "city": "Koningsberg", "lon": "-76.8666667"}, {"lat": "18.2333333", "city": "Koningsburgh", "lon": "-76.8666667"}, {"lat": "18.35", "city": "Labyrinth", "lon": "-77.0333333"}, {"lat": "18.3166667", "city": "Langley", "lon": "-76.9166667"}, {"lat": "18.2333333", "city": "Lewis Store", "lon": "-76.8333333"}, {"lat": "18.3333333", "city": "Lianrunney", "lon": "-76.9"}, {"lat": "18.4166667", "city": "Liberty Castle", "lon": "-76.95"}, {"lat": "18.3333333", "city": "Llanrumney", "lon": "-76.9"}, {"lat": "18.3333333", "city": "Llanrunney", "lon": "-76.9"}, {"lat": "18.3833333", "city": "Look Out", "lon": "-76.9"}, {"lat": "18.2666667", "city": "Lower Esher", "lon": "-76.8666667"}, {"lat": "18.3", "city": "Luck Hill", "lon": "-77.0166667"}, {"lat": "18.3", "city": "Lucky Hill", "lon": "-77.0166667"}, {"lat": "18.3", "city": "Lucky Hill Pen", "lon": "-77.0166667"}, {"lat": "18.2", "city": "Mahoe Hill", "lon": "-76.8166667"}, {"lat": "18.3666667", "city": "Mannings Town", "lon": "-76.9"}, {"lat": "18.3166667", "city": "Marley", "lon": "-76.9666667"}, {"lat": "18.3166667", "city": "Marlie", "lon": "-76.9666667"}, {"lat": "18.2833333", "city": "Martins", "lon": "-76.8833333"}, {"lat": "18.2833333", "city": "Martin Village", "lon": "-76.8833333"}, {"lat": "18.4", "city": "Mason Hall", "lon": "-76.9"}, {"lat": "18.3333333", "city": "Montmorency", "lon": "-76.8666667"}, {"lat": "18.3333333", "city": "Mount Morency", "lon": "-76.85"}, {"lat": "18.3666667", "city": "Mount Pleasant", "lon": "-77.0333333"}, {"lat": "18.3666667", "city": "New Ramble", "lon": "-76.9833333"}, {"lat": "18.2833333", "city": "Nonsuch", "lon": "-76.9"}, {"lat": "18.3", "city": "Old Barracks", "lon": "-76.9833333"}, {"lat": "18.4", "city": "Oracabessa", "lon": "-76.95"}, {"lat": "18.35", "city": "Orange Hall", "lon": "-77.05"}, {"lat": "18.2666667", "city": "Orange Hill", "lon": "-76.8"}, {"lat": "18.35", "city": "Orange Hill", "lon": "-77.05"}, {"lat": "18.2333333", "city": "Osbornes", "lon": "-76.7666667"}, {"lat": "18.2333333", "city": "Osborns", "lon": "-76.7666667"}, {"lat": "18.2666667", "city": "Palmetto Grove", "lon": "-76.9333333"}, {"lat": "18.2666667", "city": "Parsonage", "lon": "-76.8833333"}, {"lat": "18.25", "city": "Pear Tree Grove", "lon": "-76.9333333"}, {"lat": "18.3833333", "city": "Pemberton Valley", "lon": "-76.9666667"}, {"lat": "18.3", "city": "Pembroke Hall", "lon": "-76.9833333"}, {"lat": "18.35", "city": "Planters Hall", "lon": "-77.0333333"}, {"lat": "18.3666667", "city": "Port Maria", "lon": "-76.9"}, {"lat": "18.3666667", "city": "Prichards Pen", "lon": "-77.0166667"}, {"lat": "18.4", "city": "Prospect", "lon": "-77.05"}, {"lat": "18.3666667", "city": "Providence", "lon": "-77.0333333"}, {"lat": "18.35", "city": "Quebec", "lon": "-76.8833333"}, {"lat": "18.3666667", "city": "Ramble", "lon": "-76.9833333"}, {"lat": "18.2166667", "city": "Reddington", "lon": "-76.7333333"}, {"lat": "18.3833333", "city": "Retreat", "lon": "-77.0166667"}, {"lat": "18.3666667", "city": "Richards Pen", "lon": "-77.0166667"}, {"lat": "18.2333333", "city": "Richmond", "lon": "-76.9"}, {"lat": "18.2333333", "city": "Richmond Village", "lon": "-76.9"}, {"lat": "18.3", "city": "Robins Bay", "lon": "-76.8"}, {"lat": "18.4", "city": "Roscomman", "lon": "-77.05"}, {"lat": "18.4", "city": "Roscommon", "lon": "-77.05"}, {"lat": "18.2833333", "city": "Rosend", "lon": "-76.8333333"}, {"lat": "18.2833333", "city": "Salem", "lon": "-76.85"}, {"lat": "18.3", "city": "Salisbury", "lon": "-77.0166667"}, {"lat": "18.4", "city": "Salt Gut Pen", "lon": "-76.9833333"}, {"lat": "18.4", "city": "Salt Gut", "lon": "-76.9833333"}, {"lat": "18.3333333", "city": "Sandside", "lon": "-76.9"}, {"lat": "18.3166667", "city": "Sheerness", "lon": "-76.8"}, {"lat": "18.2333333", "city": "Spicy Grove", "lon": "-76.7333333"}, {"lat": "18.4", "city": "Spicy Grove", "lon": "-76.95"}, {"lat": "18.2166667", "city": "Springfield", "lon": "-76.7333333"}, {"lat": "18.4", "city": "Spring Grove", "lon": "-76.95"}, {"lat": "18.4", "city": "Spring Valley", "lon": "-77.0333333"}, {"lat": "18.2666667", "city": "The Cottage", "lon": "-76.8833333"}, {"lat": "18.3166667", "city": "Top Hill", "lon": "-76.9333333"}, {"lat": "18.3666667", "city": "Trinity", "lon": "-76.9"}, {"lat": "18.4", "city": "Troy", "lon": "-76.95"}, {"lat": "18.3666667", "city": "Union Hill", "lon": "-76.9833333"}, {"lat": "18.3666667", "city": "Union", "lon": "-76.9833333"}, {"lat": "18.2833333", "city": "Victoria Town", "lon": "-77.0166667"}, {"lat": "18.3833333", "city": "Villa", "lon": "-76.9"}, {"lat": "18.2666667", "city": "Walingford", "lon": "-77.0"}, {"lat": "18.2666667", "city": "Wallingford", "lon": "-77.0"}, {"lat": "18.2666667", "city": "Waltingford", "lon": "-77.0"}, {"lat": "18.2833333", "city": "Water Valley", "lon": "-76.8333333"}, {"lat": "18.3", "city": "Whitehall", "lon": "-76.8833333"}, {"lat": "18.4", "city": "White River", "lon": "-77.0666667"}, {"lat": "18.4", "city": "Wilderness", "lon": "-76.9333333"}, {"lat": "18.2833333", "city": "Williams Town", "lon": "-76.9666667"}, {"lat": "18.25", "city": "Windsor Castle", "lon": "-76.95"}, {"lat": "18.25", "city": "Woodside", "lon": "-76.9333333"}], "12": [{"lat": "18.45", "city": "Adelphi", "lon": "-77.8"}, {"lat": "18.4833333", "city": "Albion", "lon": "-77.9166667"}, {"lat": "18.4", "city": "Amity Hall", "lon": "-77.8166667"}, {"lat": "18.4", "city": "Anchovy", "lon": "-77.9333333"}, {"lat": "18.4", "city": "Anchovy Bottom", "lon": "-77.9333333"}, {"lat": "18.4", "city": "Anchovy Station", "lon": "-77.9333333"}, {"lat": "18.3666667", "city": "Bandon", "lon": "-77.8666667"}, {"lat": "18.45", "city": "Belmont", "lon": "-77.9"}, {"lat": "18.3666667", "city": "Bickerstaff", "lon": "-77.9166667"}, {"lat": "18.3666667", "city": "Bickersteth", "lon": "-77.9166667"}, {"lat": "18.4833333", "city": "Blue Hole", "lon": "-77.8333333"}, {"lat": "18.4", "city": "Bonavista", "lon": "-77.9166667"}, {"lat": "18.4666667", "city": "Box", "lon": "-77.9333333"}, {"lat": "18.3833333", "city": "Caledonia", "lon": "-77.8666667"}, {"lat": "18.3", "city": "Caley", "lon": "-77.8166667"}, {"lat": "18.3166667", "city": "Cambridge", "lon": "-77.9"}, {"lat": "18.3166667", "city": "Cambridge Station", "lon": "-77.9"}, {"lat": "18.35", "city": "Camperdown", "lon": "-77.8"}, {"lat": "18.3833333", "city": "Carey Town", "lon": "-77.9333333"}, {"lat": "18.4833333", "city": "Carlton", "lon": "-77.7666667"}, {"lat": "18.45", "city": "Carthagena", "lon": "-77.9"}, {"lat": "18.45", "city": "Carthagina", "lon": "-77.9"}, {"lat": "18.2833333", "city": "Catadupa", "lon": "-77.8833333"}, {"lat": "18.2833333", "city": "Catadupa Station", "lon": "-77.8833333"}, {"lat": "18.4833333", "city": "Charlton", "lon": "-77.7666667"}, {"lat": "18.4666667", "city": "Chatham", "lon": "-77.7666667"}, {"lat": "18.5166667", "city": "Cinnamon Hill", "lon": "-77.8166667"}, {"lat": "18.4333333", "city": "Comfort", "lon": "-77.9333333"}, {"lat": "18.4833333", "city": "Doctors Cave", "lon": "-77.9333333"}, {"lat": "18.4", "city": "Elysium", "lon": "-77.9166667"}, {"lat": "18.45", "city": "Fairfield", "lon": "-77.9166667"}, {"lat": "18.3333333", "city": "Flagstaff", "lon": "-77.7833333"}, {"lat": "18.3166667", "city": "Flamstead", "lon": "-77.8166667"}, {"lat": "18.4833333", "city": "Flower Hill", "lon": "-77.85"}, {"lat": "18.3", "city": "Garlands", "lon": "-77.8333333"}, {"lat": "18.4333333", "city": "Gilsbro", "lon": "-77.8166667"}, {"lat": "18.45", "city": "Glasgow", "lon": "-77.8"}, {"lat": "18.4833333", "city": "Glendevon", "lon": "-77.9"}, {"lat": "18.4666667", "city": "Goodwill", "lon": "-77.75"}, {"lat": "18.4666667", "city": "Green Pond", "lon": "-77.8666667"}, {"lat": "18.4333333", "city": "Guilsboro", "lon": "-77.8166667"}, {"lat": "18.4166667", "city": "Guilsbro", "lon": "-77.8"}, {"lat": "18.4333333", "city": "Hampden", "lon": "-77.75"}, {"lat": "18.3833333", "city": "Hampton", "lon": "-77.8666667"}, {"lat": "18.2666667", "city": "Hermitage", "lon": "-77.8833333"}, {"lat": "18.3833333", "city": "Hopeton", "lon": "-77.8833333"}, {"lat": "18.4333333", "city": "Industry", "lon": "-77.8"}, {"lat": "18.5166667", "city": "Ironshore", "lon": "-77.8666667"}, {"lat": "18.45", "city": "Irwin", "lon": "-77.8833333"}, {"lat": "18.3333333", "city": "Jericho", "lon": "-77.85"}, {"lat": "18.4166667", "city": "Johns Hall", "lon": "-77.8666667"}, {"lat": "18.45", "city": "Kirkpatrick Hall", "lon": "-77.8333333"}, {"lat": "18.4666667", "city": "Leagon", "lon": "-77.8333333"}, {"lat": "18.4666667", "city": "Leogan", "lon": "-77.8333333"}, {"lat": "18.45", "city": "Lima", "lon": "-77.7833333"}, {"lat": "18.5333333", "city": "Little River", "lon": "-77.8166667"}, {"lat": "18.4166667", "city": "Lottery", "lon": "-77.8166667"}, {"lat": "18.35", "city": "Maddon Village", "lon": "-77.8166667"}, {"lat": "18.35", "city": "Maldon", "lon": "-77.8166667"}, {"lat": "18.35", "city": "Maldon Village", "lon": "-77.8166667"}, {"lat": "18.4666667", "city": "Mantica Bahia", "lon": "-77.9166667"}, {"lat": "18.3333333", "city": "Maroon Town Barracks", "lon": "-77.7833333"}, {"lat": "18.35", "city": "Maroon Town", "lon": "-77.8"}, {"lat": "18.2833333", "city": "Mocho", "lon": "-77.8333333"}, {"lat": "18.4666667", "city": "Montego Bay", "lon": "-77.9166667"}, {"lat": "18.4666667", "city": "Montego", "lon": "-77.9166667"}, {"lat": "18.3666667", "city": "Montpelier", "lon": "-77.9333333"}, {"lat": "18.4", "city": "Mount Carey", "lon": "-77.95"}, {"lat": "18.35", "city": "Mount Horeb", "lon": "-77.8833333"}, {"lat": "18.5", "city": "Mount Zion", "lon": "-77.8166667"}, {"lat": "18.45", "city": "Orange", "lon": "-77.8666667"}, {"lat": "18.4833333", "city": "Palmira", "lon": "-77.8"}, {"lat": "18.4833333", "city": "Palmyra", "lon": "-77.8"}, {"lat": "18.35", "city": "Point", "lon": "-77.8166667"}, {"lat": "18.35", "city": "Prospect", "lon": "-77.8166667"}, {"lat": "18.35", "city": "Prosper", "lon": "-77.8166667"}, {"lat": "18.4166667", "city": "Providence", "lon": "-77.95"}, {"lat": "18.45", "city": "Reading", "lon": "-77.95"}, {"lat": "18.4333333", "city": "Retirement", "lon": "-77.8833333"}, {"lat": "18.3833333", "city": "Roehampton", "lon": "-77.9"}, {"lat": "18.4833333", "city": "Rose Hill", "lon": "-77.7666667"}, {"lat": "18.4666667", "city": "Rosemont", "lon": "-77.8833333"}, {"lat": "18.4666667", "city": "Rosemount", "lon": "-77.8833333"}, {"lat": "18.3666667", "city": "Roxbro", "lon": "-77.8833333"}, {"lat": "18.4166667", "city": "Sadlers Hill", "lon": "-77.8166667"}, {"lat": "18.4166667", "city": "Salters Hill", "lon": "-77.8166667"}, {"lat": "18.4833333", "city": "Salt Spring", "lon": "-77.8833333"}, {"lat": "18.3333333", "city": "Seven Rivers", "lon": "-77.9166667"}, {"lat": "18.4333333", "city": "Somerton", "lon": "-77.7833333"}, {"lat": "18.5", "city": "Spot Valley", "lon": "-77.7833333"}, {"lat": "18.3666667", "city": "Springfield", "lon": "-77.85"}, {"lat": "18.3666667", "city": "Spring Garden", "lon": "-77.8166667"}, {"lat": "18.3833333", "city": "Spring Mount Estate", "lon": "-77.85"}, {"lat": "18.3833333", "city": "Spring Mount", "lon": "-77.85"}, {"lat": "18.2333333", "city": "Stonehenge", "lon": "-77.8666667"}, {"lat": "18.3666667", "city": "Summer Hill", "lon": "-77.8166667"}, {"lat": "18.4333333", "city": "Trafalgar", "lon": "-77.9666667"}, {"lat": "18.4333333", "city": "Unity Hall", "lon": "-77.9833333"}, {"lat": "18.3166667", "city": "Vaughansfield", "lon": "-77.8"}, {"lat": "18.45", "city": "Watson Town", "lon": "-77.7666667"}, {"lat": "18.4", "city": "Wemyss", "lon": "-77.7666667"}, {"lat": "18.4166667", "city": "Wiltshire", "lon": "-77.95"}, {"lat": "18.4333333", "city": "Windsor Lodge", "lon": "-77.8"}], "15": [{"lat": "18.4333333", "city": "Acton", "lon": "-77.65"}, {"lat": "18.2833333", "city": "Albert Town", "lon": "-77.55"}, {"lat": "18.3333333", "city": "Alps", "lon": "-77.5166667"}, {"lat": "18.1666667", "city": "Appleton", "lon": "-77.7333333"}, {"lat": "18.45", "city": "Arcadia", "lon": "-77.5"}, {"lat": "18.4", "city": "Barnstaple", "lon": "-77.4666667"}, {"lat": "18.2166667", "city": "Batersea", "lon": "-77.4833333"}, {"lat": "18.2666667", "city": "Belmont Castle", "lon": "-77.7166667"}, {"lat": "18.2666667", "city": "Belmore Castle", "lon": "-77.7166667"}, {"lat": "18.4", "city": "Biddeford", "lon": "-77.4666667"}, {"lat": "18.4", "city": "Biddiford", "lon": "-77.4666667"}, {"lat": "18.2166667", "city": "Bohemia", "lon": "-77.4833333"}, {"lat": "18.2666667", "city": "Booth", "lon": "-77.6166667"}, {"lat": "18.45", "city": "Bounty Hall", "lon": "-77.7166667"}, {"lat": "18.4666667", "city": "Braco", "lon": "-77.5"}, {"lat": "18.2833333", "city": "Bristol", "lon": "-77.5333333"}, {"lat": "18.4333333", "city": "Bryan", "lon": "-77.4666667"}, {"lat": "18.45", "city": "Bryan Castle", "lon": "-77.5"}, {"lat": "18.4333333", "city": "Bryon", "lon": "-77.4666667"}, {"lat": "18.3833333", "city": "Bunker Hill", "lon": "-77.6833333"}, {"lat": "18.3833333", "city": "Bunkers Hill", "lon": "-77.6833333"}, {"lat": "18.3", "city": "Burnt Hill", "lon": "-77.55"}, {"lat": "18.45", "city": "Caenwood", "lon": "-77.6333333"}, {"lat": "18.4333333", "city": "Cambridge", "lon": "-77.6"}, {"lat": "18.4666667", "city": "Carey Park", "lon": "-77.55"}, {"lat": "18.4666667", "city": "Cary Park", "lon": "-77.55"}, {"lat": "18.4666667", "city": "Cary Park Village", "lon": "-77.55"}, {"lat": "18.4", "city": "Chesler", "lon": "-77.6166667"}, {"lat": "18.4", "city": "Chester", "lon": "-77.6166667"}, {"lat": "18.4166667", "city": "Clarks Town", "lon": "-77.5666667"}, {"lat": "18.4666667", "city": "Clifton", "lon": "-77.65"}, {"lat": "18.3833333", "city": "Content", "lon": "-77.6333333"}, {"lat": "18.45", "city": "Cornwood", "lon": "-77.6333333"}, {"lat": "18.3666667", "city": "Coxheath", "lon": "-77.6333333"}, {"lat": "18.3833333", "city": "Deep Side Village", "lon": "-77.7333333"}, {"lat": "18.3833333", "city": "Deeside", "lon": "-77.7333333"}, {"lat": "18.3833333", "city": "Dee Side Village", "lon": "-77.7333333"}, {"lat": "18.3666667", "city": "Dromilly", "lon": "-77.7166667"}, {"lat": "18.4", "city": "Duanvale", "lon": "-77.6"}, {"lat": "18.4", "city": "Duanvale Village", "lon": "-77.6"}, {"lat": "18.4666667", "city": "Dumfries", "lon": "-77.4666667"}, {"lat": "18.4666667", "city": "Duncans", "lon": "-77.5333333"}, {"lat": "18.45", "city": "Dundee", "lon": "-77.7333333"}, {"lat": "18.45", "city": "Etingdon", "lon": "-77.5666667"}, {"lat": "18.5", "city": "Falmouth", "lon": "-77.65"}, {"lat": "18.4666667", "city": "Florence Hall", "lon": "-77.6333333"}, {"lat": "18.4833333", "city": "Florida", "lon": "-77.6166667"}, {"lat": "18.3833333", "city": "Fontabelle", "lon": "-77.6333333"}, {"lat": "18.25", "city": "Foremost", "lon": "-77.7"}, {"lat": "18.4166667", "city": "Gales Valley", "lon": "-77.75"}, {"lat": "18.4666667", "city": "Georges Valley", "lon": "-77.7166667"}, {"lat": "18.45", "city": "Georgia", "lon": "-77.5333333"}, {"lat": "18.2666667", "city": "Goat Island", "lon": "-77.55"}, {"lat": "18.3833333", "city": "Good Design", "lon": "-77.55"}, {"lat": "18.4166667", "city": "Good Hope", "lon": "-77.6833333"}, {"lat": "18.4166667", "city": "Good Hope House", "lon": "-77.6833333"}, {"lat": "18.45", "city": "Greenfield", "lon": "-77.6166667"}, {"lat": "18.4666667", "city": "Green Park", "lon": "-77.7"}, {"lat": "18.4166667", "city": "Hampstead", "lon": "-77.6333333"}, {"lat": "18.4666667", "city": "Harmony Hall", "lon": "-77.5166667"}, {"lat": "18.4", "city": "Hyde and Gibraltar", "lon": "-77.55"}, {"lat": "18.4333333", "city": "Hyde Hall", "lon": "-77.5666667"}, {"lat": "18.4", "city": "Hyde", "lon": "-77.55"}, {"lat": "18.4166667", "city": "Jackson Town", "lon": "-77.4833333"}, {"lat": "18.4666667", "city": "Johnston Pen", "lon": "-77.55"}, {"lat": "18.4666667", "city": "Kent", "lon": "-77.7333333"}, {"lat": "18.4666667", "city": "Ketering", "lon": "-77.5333333"}, {"lat": "18.4666667", "city": "Kettering", "lon": "-77.5333333"}, {"lat": "18.4", "city": "Kinloss", "lon": "-77.5666667"}, {"lat": "18.4", "city": "Kinloss Village", "lon": "-77.5666667"}, {"lat": "18.4666667", "city": "Lancaster", "lon": "-77.5166667"}, {"lat": "18.25", "city": "Lichfield", "lon": "-77.5"}, {"lat": "18.25", "city": "Litchfield", "lon": "-77.5"}, {"lat": "18.4666667", "city": "Little Ease", "lon": "-77.6333333"}, {"lat": "18.4333333", "city": "Long Pond", "lon": "-77.55"}, {"lat": "18.45", "city": "Lottery", "lon": "-77.6166667"}, {"lat": "18.2333333", "city": "Lowe River", "lon": "-77.5"}, {"lat": "18.4666667", "city": "Mafield", "lon": "-77.6833333"}, {"lat": "18.3833333", "city": "Mahogany Hall", "lon": "-77.4666667"}, {"lat": "18.3833333", "city": "Mahogony Hill", "lon": "-77.4666667"}, {"lat": "18.4666667", "city": "Martha Brae", "lon": "-77.65"}, {"lat": "18.4666667", "city": "Maxfield", "lon": "-77.6833333"}, {"lat": "18.4666667", "city": "Merrywood", "lon": "-77.6666667"}, {"lat": "18.4666667", "city": "Mountain Spring", "lon": "-77.5833333"}, {"lat": "18.4333333", "city": "Nightengale Grove", "lon": "-77.4833333"}, {"lat": "18.4333333", "city": "Nightingale Grove", "lon": "-77.4833333"}, {"lat": "18.4666667", "city": "Orange Valley", "lon": "-77.7166667"}, {"lat": "18.45", "city": "Oxford", "lon": "-77.5833333"}, {"lat": "18.4833333", "city": "Oyster Bay", "lon": "-77.6333333"}, {"lat": "18.4333333", "city": "Perth Town", "lon": "-77.6333333"}, {"lat": "18.3833333", "city": "Peru", "lon": "-77.6666667"}, {"lat": "18.4166667", "city": "Phoenix", "lon": "-77.7333333"}, {"lat": "18.4166667", "city": "Phoenix Village", "lon": "-77.7333333"}, {"lat": "18.4166667", "city": "Plum Corner", "lon": "-77.4833333"}, {"lat": "18.4666667", "city": "Providence", "lon": "-77.4666667"}, {"lat": "18.25", "city": "Quick Step", "lon": "-77.7166667"}, {"lat": "18.4666667", "city": "Refuge", "lon": "-77.5666667"}, {"lat": "18.4", "city": "Reserve", "lon": "-77.6333333"}, {"lat": "18.4666667", "city": "Rio Bueno Harbor", "lon": "-77.4666667"}, {"lat": "18.4666667", "city": "Rio Bueno Harbour", "lon": "-77.4666667"}, {"lat": "18.4666667", "city": "Rio Bueno", "lon": "-77.4666667"}, {"lat": "18.4833333", "city": "Rock", "lon": "-77.6333333"}, {"lat": "18.2833333", "city": "Rock Spring", "lon": "-77.5666667"}, {"lat": "18.45", "city": "Roslin Caslin", "lon": "-77.6166667"}, {"lat": "18.45", "city": "Roslin Castle", "lon": "-77.6166667"}, {"lat": "18.3", "city": "Saint Vincent", "lon": "-77.55"}, {"lat": "18.3666667", "city": "Sawyers Market", "lon": "-77.4833333"}, {"lat": "18.3666667", "city": "Sawyers", "lon": "-77.4833333"}, {"lat": "18.45", "city": "Schawfield", "lon": "-77.6833333"}, {"lat": "18.4833333", "city": "Seafield", "lon": "-77.7"}, {"lat": "18.3833333", "city": "Sherwood Content", "lon": "-77.6333333"}, {"lat": "18.45", "city": "Showfield", "lon": "-77.6833333"}, {"lat": "18.4833333", "city": "Silver Sands", "lon": "-77.5333333"}, {"lat": "18.4", "city": "Spotfield", "lon": "-77.5666667"}, {"lat": "18.3", "city": "Spring Garden", "lon": "-77.5666667"}, {"lat": "18.4666667", "city": "Spring Rises", "lon": "-77.5833333"}, {"lat": "18.3833333", "city": "Spring Vale House", "lon": "-77.7666667"}, {"lat": "18.3833333", "city": "Spring Vale", "lon": "-77.7666667"}, {"lat": "18.45", "city": "Steelfield", "lon": "-77.55"}, {"lat": "18.2833333", "city": "Stettin", "lon": "-77.5333333"}, {"lat": "18.3833333", "city": "Stewart Town", "lon": "-77.45"}, {"lat": "18.3833333", "city": "Stonehenge", "lon": "-77.55"}, {"lat": "18.3333333", "city": "The Alps", "lon": "-77.5166667"}, {"lat": "18.4833333", "city": "The Rock", "lon": "-77.6333333"}, {"lat": "18.25", "city": "Troy", "lon": "-77.6166667"}, {"lat": "18.25", "city": "Troy Village", "lon": "-77.6166667"}, {"lat": "18.25", "city": "Tyre", "lon": "-77.6"}, {"lat": "18.3166667", "city": "Ulster Spring", "lon": "-77.5166667"}, {"lat": "18.4333333", "city": "Vale Royal", "lon": "-77.5333333"}, {"lat": "18.4666667", "city": "Village of Kettering", "lon": "-77.5333333"}, {"lat": "18.2333333", "city": "Wait a Bit", "lon": "-77.5166667"}, {"lat": "18.4166667", "city": "Wakefield", "lon": "-77.7166667"}, {"lat": "18.2666667", "city": "Warsop", "lon": "-77.5833333"}, {"lat": "18.25", "city": "Whitbeck", "lon": "-77.7166667"}, {"lat": "18.2666667", "city": "Wilsons", "lon": "-77.5666667"}, {"lat": "18.2666667", "city": "Wilson", "lon": "-77.5666667"}, {"lat": "18.3666667", "city": "Windsor House", "lon": "-77.6166667"}, {"lat": "18.35", "city": "Windsor", "lon": "-77.65"}], "14": [{"lat": "17.9", "city": "Aeolus Valley", "lon": "-76.5333333"}, {"lat": "17.9166667", "city": "Airy Castle", "lon": "-76.3333333"}, {"lat": "17.8833333", "city": "Albion", "lon": "-76.6"}, {"lat": "17.95", "city": "Amity Hall", "lon": "-76.25"}, {"lat": "17.9166667", "city": "Arcadia", "lon": "-76.3"}, {"lat": "18.0166667", "city": "Arntally", "lon": "-76.6"}, {"lat": "18.0166667", "city": "Arntully", "lon": "-76.6"}, {"lat": "17.95", "city": "Bachelors Hall", "lon": "-76.3166667"}, {"lat": "17.95", "city": "Bariff Castle", "lon": "-76.45"}, {"lat": "17.8833333", "city": "Barking Lodge", "lon": "-76.2666667"}, {"lat": "17.95", "city": "Bath", "lon": "-76.35"}, {"lat": "17.95", "city": "Beacon Hill", "lon": "-76.35"}, {"lat": "17.8833333", "city": "Beckford Town", "lon": "-76.3666667"}, {"lat": "17.8833333", "city": "Belfast", "lon": "-76.3833333"}, {"lat": "17.8833333", "city": "Belford", "lon": "-76.2666667"}, {"lat": "17.95", "city": "Belmare", "lon": "-76.45"}, {"lat": "17.9833333", "city": "Bethel Gap", "lon": "-76.5833333"}, {"lat": "17.95", "city": "Bethezra", "lon": "-76.6166667"}, {"lat": "17.95", "city": "Bethezrd", "lon": "-76.6166667"}, {"lat": "17.8833333", "city": "Bowden", "lon": "-76.3166667"}, {"lat": "17.8833333", "city": "Bowden House", "lon": "-76.3166667"}, {"lat": "17.9", "city": "Boxford Lodge", "lon": "-76.2833333"}, {"lat": "17.9166667", "city": "Buckingham", "lon": "-76.4833333"}, {"lat": "17.9333333", "city": "Burge", "lon": "-76.65"}, {"lat": "17.9333333", "city": "Cambridge", "lon": "-76.65"}, {"lat": "17.9166667", "city": "Carry Hall", "lon": "-76.3833333"}, {"lat": "17.9833333", "city": "Cedar Valley", "lon": "-76.5833333"}, {"lat": "18.0333333", "city": "Chesterfield", "lon": "-76.6333333"}, {"lat": "18.0333333", "city": "Chesterfield Hillside", "lon": "-76.6333333"}, {"lat": "17.9", "city": "Clifton", "lon": "-76.3166667"}, {"lat": "17.9", "city": "Clifton Hill", "lon": "-76.3166667"}, {"lat": "17.95", "city": "Cocoa Walk", "lon": "-76.6"}, {"lat": "17.95", "city": "Coley", "lon": "-76.5"}, {"lat": "17.95", "city": "Coley House", "lon": "-76.5"}, {"lat": "17.9166667", "city": "Craig Hall", "lon": "-76.3833333"}, {"lat": "17.8833333", "city": "Creighton Hall", "lon": "-76.4833333"}, {"lat": "17.9166667", "city": "Dalvey", "lon": "-76.2333333"}, {"lat": "17.9166667", "city": "Dalvy", "lon": "-76.2333333"}, {"lat": "17.8833333", "city": "Doormans Corner", "lon": "-76.6"}, {"lat": "17.9333333", "city": "Duckenfield", "lon": "-76.25"}, {"lat": "17.9333333", "city": "Duckenfield Hall", "lon": "-76.25"}, {"lat": "17.9333333", "city": "Duckensfield", "lon": "-76.25"}, {"lat": "17.9166667", "city": "Easington", "lon": "-76.6"}, {"lat": "17.8666667", "city": "East Prospect", "lon": "-76.35"}, {"lat": "17.9", "city": "Edinburgh Castle", "lon": "-76.5833333"}, {"lat": "17.9333333", "city": "Eleven Mile", "lon": "-76.65"}, {"lat": "17.9333333", "city": "Eleven Miles", "lon": "-76.65"}, {"lat": "18.0333333", "city": "Epping Farm", "lon": "-76.6166667"}, {"lat": "17.8833333", "city": "Fairfield", "lon": "-76.2833333"}, {"lat": "18.0333333", "city": "Farm Hill", "lon": "-76.6333333"}, {"lat": "17.9333333", "city": "Font Hill", "lon": "-76.5"}, {"lat": "18.0", "city": "Four Feet", "lon": "-76.3833333"}, {"lat": "18.0166667", "city": "Friendship", "lon": "-76.6166667"}, {"lat": "17.95", "city": "Glasgow", "lon": "-76.4333333"}, {"lat": "17.9166667", "city": "Golden Grove", "lon": "-76.2666667"}, {"lat": "17.9166667", "city": "Green Castle", "lon": "-76.3166667"}, {"lat": "17.9666667", "city": "Green Rossfield Isle", "lon": "-76.55"}, {"lat": "17.9666667", "city": "Green Ross Field Isles", "lon": "-76.55"}, {"lat": "17.9333333", "city": "Grossett", "lon": "-76.35"}, {"lat": "17.9333333", "city": "Grossett Village", "lon": "-76.35"}, {"lat": "18.0", "city": "Hagley Gap", "lon": "-76.6166667"}, {"lat": "17.9166667", "city": "Hall Head", "lon": "-76.4666667"}, {"lat": "17.9", "city": "Hampton Court", "lon": "-76.2666667"}, {"lat": "17.9", "city": "Harbor Head", "lon": "-76.3166667"}, {"lat": "17.9", "city": "Harbour Head", "lon": "-76.3166667"}, {"lat": "17.95", "city": "Hardley", "lon": "-76.2666667"}, {"lat": "17.8833333", "city": "Heart Ease", "lon": "-76.5833333"}, {"lat": "17.8833333", "city": "Hearts Ease", "lon": "-76.5833333"}, {"lat": "17.9166667", "city": "Highland Castle", "lon": "-76.4333333"}, {"lat": "17.9666667", "city": "Hillside", "lon": "-76.4833333"}, {"lat": "17.95", "city": "Holland", "lon": "-76.2333333"}, {"lat": "17.9666667", "city": "Holland Moro", "lon": "-76.2666667"}, {"lat": "17.9666667", "city": "Holland Park", "lon": "-76.2666667"}, {"lat": "17.9333333", "city": "Hopewell Hall", "lon": "-76.3333333"}, {"lat": "17.95", "city": "Hordley", "lon": "-76.2666667"}, {"lat": "17.9333333", "city": "Huntley", "lon": "-76.4833333"}, {"lat": "17.9666667", "city": "Johnson Mountain", "lon": "-76.3166667"}, {"lat": "17.8833333", "city": "Johns Town", "lon": "-76.35"}, {"lat": "17.8666667", "city": "Leith Hall", "lon": "-76.3333333"}, {"lat": "17.95", "city": "Llandewey", "lon": "-76.6166667"}, {"lat": "17.95", "city": "Llhandewey", "lon": "-76.6166667"}, {"lat": "17.9", "city": "Lloyds", "lon": "-76.55"}, {"lat": "17.8666667", "city": "Lloyds Pen", "lon": "-76.5833333"}, {"lat": "17.9166667", "city": "Lows Mountain", "lon": "-76.5333333"}, {"lat": "17.8833333", "city": "Lyssons", "lon": "-76.3833333"}, {"lat": "18.0166667", "city": "Mahogany Vale", "lon": "-76.6333333"}, {"lat": "17.9666667", "city": "Monklands", "lon": "-76.55"}, {"lat": "17.8833333", "city": "Montpelier", "lon": "-76.3833333"}, {"lat": "17.8833333", "city": "Morant Bay", "lon": "-76.4166667"}, {"lat": "17.8833333", "city": "Morant", "lon": "-76.4166667"}, {"lat": "17.9666667", "city": "Mount Lebanus", "lon": "-76.5333333"}, {"lat": "17.8666667", "city": "Mount Olive", "lon": "-76.5666667"}, {"lat": "17.95", "city": "Mount Vernon", "lon": "-76.5666667"}, {"lat": "17.9", "city": "Needham Pen", "lon": "-76.3666667"}, {"lat": "18.0", "city": "Ness Castle", "lon": "-76.6"}, {"lat": "17.9666667", "city": "New Monklands", "lon": "-76.55"}, {"lat": "17.8833333", "city": "New Pera", "lon": "-76.2833333"}, {"lat": "17.9", "city": "Norris", "lon": "-76.5666667"}, {"lat": "17.95", "city": "Old Lee Gate", "lon": "-76.4666667"}, {"lat": "17.8666667", "city": "Old Pera", "lon": "-76.3166667"}, {"lat": "17.9333333", "city": "Onslow", "lon": "-76.45"}, {"lat": "17.9333333", "city": "Onslows", "lon": "-76.45"}, {"lat": "17.8666667", "city": "Oxford", "lon": "-76.35"}, {"lat": "17.9166667", "city": "Panton Town", "lon": "-76.35"}, {"lat": "17.8833333", "city": "Parsonage", "lon": "-76.5833333"}, {"lat": "17.9166667", "city": "Pear Tree River", "lon": "-76.3166667"}, {"lat": "17.8833333", "city": "Pera", "lon": "-76.2833333"}, {"lat": "17.9166667", "city": "Petersfield", "lon": "-76.4833333"}, {"lat": "17.8833333", "city": "Poor Mans Corner", "lon": "-76.6"}, {"lat": "17.9", "city": "Port Morant", "lon": "-76.3166667"}, {"lat": "17.9333333", "city": "Potosi", "lon": "-76.3666667"}, {"lat": "17.8666667", "city": "Prospect", "lon": "-76.35"}, {"lat": "17.95", "city": "Quaw Hill", "lon": "-76.2333333"}, {"lat": "17.9666667", "city": "Ramble", "lon": "-76.6166667"}, {"lat": "17.8833333", "city": "Red Hill", "lon": "-76.4166667"}, {"lat": "17.95", "city": "Rhine", "lon": "-76.3333333"}, {"lat": "17.9666667", "city": "Riley Village", "lon": "-76.5666667"}, {"lat": "17.8833333", "city": "Rocky Point", "lon": "-76.2666667"}, {"lat": "17.9666667", "city": "Ross Isle", "lon": "-76.55"}, {"lat": "17.9666667", "city": "Rowlandsfield", "lon": "-76.2833333"}, {"lat": "17.8666667", "city": "Rozelle House", "lon": "-76.45"}, {"lat": "17.8666667", "city": "Rozelle", "lon": "-76.45"}, {"lat": "17.95", "city": "Seaforth", "lon": "-76.4666667"}, {"lat": "17.95", "city": "Seaforth Village", "lon": "-76.4666667"}, {"lat": "17.95", "city": "Serge Island", "lon": "-76.4833333"}, {"lat": "18.0333333", "city": "Sherwood Forest", "lon": "-76.6166667"}, {"lat": "17.9333333", "city": "Soho", "lon": "-76.45"}, {"lat": "17.9666667", "city": "Somerset", "lon": "-76.5333333"}, {"lat": "17.95", "city": "Spring Bank", "lon": "-76.3333333"}, {"lat": "17.9", "city": "Springfield", "lon": "-76.2666667"}, {"lat": "17.9166667", "city": "Spring Garden", "lon": "-76.4333333"}, {"lat": "17.8666667", "city": "Stanmore", "lon": "-76.4666667"}, {"lat": "17.9166667", "city": "Stokes Hall", "lon": "-76.2833333"}, {"lat": "17.9166667", "city": "Stony Gut", "lon": "-76.4166667"}, {"lat": "17.95", "city": "Suffolk Park", "lon": "-76.2833333"}, {"lat": "17.9666667", "city": "Sunflower", "lon": "-76.35"}, {"lat": "17.95", "city": "Sunning Hill", "lon": "-76.3833333"}, {"lat": "17.95", "city": "Sunning", "lon": "-76.3833333"}, {"lat": "17.9666667", "city": "Sunny Bank", "lon": "-76.3166667"}, {"lat": "17.95", "city": "The Bath", "lon": "-76.35"}, {"lat": "17.95", "city": "Thornton", "lon": "-76.4"}, {"lat": "17.95", "city": "Trinity Ville", "lon": "-76.5333333"}, {"lat": "18.05", "city": "Tweedside", "lon": "-76.6333333"}, {"lat": "17.9166667", "city": "Unity Valley", "lon": "-76.35"}, {"lat": "17.8666667", "city": "Upper White Horses", "lon": "-76.4833333"}, {"lat": "17.9166667", "city": "Village of Pilox", "lon": "-76.4"}, {"lat": "17.95", "city": "Village", "lon": "-76.6166667"}, {"lat": "17.8666667", "city": "Water Valley", "lon": "-76.3833333"}, {"lat": "17.95", "city": "Wheelerfield", "lon": "-76.2833333"}, {"lat": "17.95", "city": "Wheelersfield", "lon": "-76.2833333"}, {"lat": "17.95", "city": "White Hall", "lon": "-76.4333333"}, {"lat": "17.95", "city": "Whitehall", "lon": "-76.45"}, {"lat": "17.8666667", "city": "White Horses Village", "lon": "-76.4833333"}, {"lat": "17.8666667", "city": "White Horses", "lon": "-76.4833333"}, {"lat": "17.9166667", "city": "Wilmington", "lon": "-76.4"}, {"lat": "17.9333333", "city": "Winchester House", "lon": "-76.2833333"}, {"lat": "17.9333333", "city": "Winchester", "lon": "-76.2833333"}, {"lat": "17.9333333", "city": "Windsor Castle", "lon": "-76.55"}, {"lat": "18.0166667", "city": "Windsor Lodge", "lon": "-76.6333333"}, {"lat": "17.8666667", "city": "Yallahs Bay", "lon": "-76.5666667"}, {"lat": "17.8666667", "city": "Yallahs Village", "lon": "-76.5666667"}, {"lat": "17.8666667", "city": "Yallahs", "lon": "-76.5666667"}], "04": [{"lat": "18.1166667", "city": "Adams Valley", "lon": "-77.6"}, {"lat": "18.05", "city": "Arcadia", "lon": "-77.4333333"}, {"lat": "17.9", "city": "Asia", "lon": "-77.4333333"}, {"lat": "18.2333333", "city": "Auchinbeddie", "lon": "-77.65"}, {"lat": "18.2333333", "city": "Auchtembeddie", "lon": "-77.65"}, {"lat": "18.1666667", "city": "Ballynure", "lon": "-77.5666667"}, {"lat": "18.0333333", "city": "Barossa", "lon": "-77.4666667"}, {"lat": "18.1", "city": "Belleair", "lon": "-77.45"}, {"lat": "18.0666667", "city": "Bellefield", "lon": "-77.45"}, {"lat": "18.0166667", "city": "Belle Retiro", "lon": "-77.4666667"}, {"lat": "18.0166667", "city": "Berwick", "lon": "-77.4833333"}, {"lat": "18.15", "city": "Bethany", "lon": "-77.5333333"}, {"lat": "18.15", "city": "Beverly", "lon": "-77.6166667"}, {"lat": "17.9166667", "city": "Blakes Pen", "lon": "-77.5666667"}, {"lat": "18.0333333", "city": "Bloomfield", "lon": "-77.5333333"}, {"lat": "17.8833333", "city": "Bossue", "lon": "-77.4333333"}, {"lat": "17.9666667", "city": "Brokenhurst", "lon": "-77.45"}, {"lat": "18.0333333", "city": "Browns Town", "lon": "-77.45"}, {"lat": "17.8833333", "city": "Buckup", "lon": "-77.5"}, {"lat": "18.2", "city": "Buck Up", "lon": "-77.5166667"}, {"lat": "18.05", "city": "Caledonia", "lon": "-77.4833333"}, {"lat": "18.0166667", "city": "California", "lon": "-77.5666667"}, {"lat": "17.9666667", "city": "Campbell Castle", "lon": "-77.45"}, {"lat": "18.1166667", "city": "Chantilly", "lon": "-77.4833333"}, {"lat": "17.9333333", "city": "Cheapside", "lon": "-77.4333333"}, {"lat": "18.15", "city": "Chelsea", "lon": "-76.5666667"}, {"lat": "18.1666667", "city": "Christiana", "lon": "-77.4833333"}, {"lat": "18.15", "city": "Chudleigh", "lon": "-77.5166667"}, {"lat": "18.15", "city": "Clanden", "lon": "-77.4666667"}, {"lat": "18.15", "city": "Clandon", "lon": "-77.4666667"}, {"lat": "18.05", "city": "Clarks Town", "lon": "-77.5166667"}, {"lat": "18.1333333", "city": "Cobblers", "lon": "-77.4666667"}, {"lat": "17.8833333", "city": "Cocoa Walk", "lon": "-77.5"}, {"lat": "17.95", "city": "Coffee Grove", "lon": "-77.4666667"}, {"lat": "18.2", "city": "Coleyville", "lon": "-77.5166667"}, {"lat": "18.1833333", "city": "Comfort Hall", "lon": "-77.6"}, {"lat": "18.05", "city": "Content", "lon": "-77.4666667"}, {"lat": "17.9666667", "city": "Cottage", "lon": "-77.4666667"}, {"lat": "18.2333333", "city": "Craig Head", "lon": "-77.5666667"}, {"lat": "17.9", "city": "Cross Keys", "lon": "-77.5"}, {"lat": "18.0666667", "city": "Davyton", "lon": "-77.45"}, {"lat": "18.1666667", "city": "Devon", "lon": "-77.55"}, {"lat": "18.1666667", "city": "Devon Township", "lon": "-77.55"}, {"lat": "18.1666667", "city": "Devon Village", "lon": "-77.55"}, {"lat": "17.9333333", "city": "Downs", "lon": "-77.5666667"}, {"lat": "17.8833333", "city": "Duff House", "lon": "-77.5666667"}, {"lat": "18.1833333", "city": "Dump", "lon": "-77.5"}, {"lat": "18.1166667", "city": "Dunkeld", "lon": "-77.5166667"}, {"lat": "18.0166667", "city": "Eglington", "lon": "-77.5833333"}, {"lat": "17.9666667", "city": "Ellen Street", "lon": "-77.45"}, {"lat": "17.95", "city": "Enfield", "lon": "-77.4666667"}, {"lat": "17.9333333", "city": "Epsom Downs", "lon": "-77.5666667"}, {"lat": "17.9333333", "city": "Epson Downs", "lon": "-77.5666667"}, {"lat": "18.1833333", "city": "Evergreen", "lon": "-77.6166667"}, {"lat": "18.0166667", "city": "Fairfield", "lon": "-77.5666667"}, {"lat": "17.9", "city": "Free Town", "lon": "-77.4166667"}, {"lat": "17.9833333", "city": "French Park", "lon": "-77.55"}, {"lat": "18.0833333", "city": "Galway", "lon": "-77.6"}, {"lat": "17.8666667", "city": "Gods Well", "lon": "-77.4"}, {"lat": "17.9", "city": "Gravel Hill", "lon": "-77.35"}, {"lat": "17.8833333", "city": "Great Valley", "lon": "-77.5166667"}, {"lat": "17.9833333", "city": "Green Pond", "lon": "-77.4333333"}, {"lat": "17.95", "city": "Green Vale", "lon": "-77.45"}, {"lat": "18.0333333", "city": "Greenvale", "lon": "-77.5333333"}, {"lat": "18.1166667", "city": "Grove Place", "lon": "-77.5166667"}, {"lat": "17.8833333", "city": "Grove Town", "lon": "-77.4666667"}, {"lat": "18.15", "city": "Halifax", "lon": "-77.55"}, {"lat": "18.0666667", "city": "Hanbury", "lon": "-77.4833333"}, {"lat": "17.9666667", "city": "Hanover", "lon": "-77.55"}, {"lat": "18.1833333", "city": "Hansons", "lon": "-77.5"}, {"lat": "17.9666667", "city": "Harmons", "lon": "-77.4333333"}, {"lat": "18.1666667", "city": "Harry Watch", "lon": "-77.5666667"}, {"lat": "18.0333333", "city": "Hatfield", "lon": "-77.5333333"}, {"lat": "18.1833333", "city": "Heavitree", "lon": "-77.5666667"}, {"lat": "18.1833333", "city": "Heawtree", "lon": "-77.5666667"}, {"lat": "17.9166667", "city": "Hermitage", "lon": "-77.45"}, {"lat": "18.15", "city": "Hibernia", "lon": "-77.5666667"}, {"lat": "17.95", "city": "Hog Hole", "lon": "-77.4333333"}, {"lat": "17.9833333", "city": "Hope", "lon": "-77.55"}, {"lat": "17.9333333", "city": "Hopewell", "lon": "-77.4333333"}, {"lat": "18.0666667", "city": "Huntley", "lon": "-77.5833333"}, {"lat": "18.0666667", "city": "Huntly", "lon": "-77.5833333"}, {"lat": "17.8666667", "city": "Indian Town", "lon": "-77.55"}, {"lat": "17.95", "city": "Isle", "lon": "-77.5333333"}, {"lat": "17.95", "city": "Isles", "lon": "-77.5333333"}, {"lat": "17.9333333", "city": "Java", "lon": "-77.4666667"}, {"lat": "18.1166667", "city": "Johns Hall", "lon": "-77.5833333"}, {"lat": "18.2", "city": "Keanwood", "lon": "-77.6166667"}, {"lat": "18.0833333", "city": "Kendal", "lon": "-77.4833333"}, {"lat": "18.0", "city": "Knockpatrick", "lon": "-77.5166667"}, {"lat": "17.9333333", "city": "Lancaster", "lon": "-77.4666667"}, {"lat": "18.0333333", "city": "Lincoln", "lon": "-77.5666667"}, {"lat": "17.9", "city": "Little Mountain", "lon": "-77.3833333"}, {"lat": "18.0166667", "city": "Lochaber", "lon": "-77.4666667"}, {"lat": "17.9666667", "city": "Lucky Valley", "lon": "-77.5666667"}, {"lat": "18.1166667", "city": "Maidstone", "lon": "-77.5833333"}, {"lat": "18.1833333", "city": "Malton", "lon": "-77.55"}, {"lat": "18.0333333", "city": "Mandeville", "lon": "-77.5"}, {"lat": "18.0", "city": "Marlboro", "lon": "-77.5666667"}, {"lat": "18.0", "city": "Marlborough", "lon": "-77.5666667"}, {"lat": "18.0", "city": "Marlbro", "lon": "-77.5666667"}, {"lat": "17.8666667", "city": "Marley Hill", "lon": "-77.5333333"}, {"lat": "18.05", "city": "Marshalls Pen", "lon": "-77.5333333"}, {"lat": "18.2166667", "city": "Mason", "lon": "-77.5333333"}, {"lat": "18.2166667", "city": "Masons Run", "lon": "-77.5333333"}, {"lat": "17.95", "city": "May Hill", "lon": "-77.5666667"}, {"lat": "17.9333333", "city": "Middleton", "lon": "-77.4333333"}, {"lat": "18.1333333", "city": "Mile Gully", "lon": "-77.55"}, {"lat": "18.1833333", "city": "Milton", "lon": "-77.55"}, {"lat": "18.1833333", "city": "Molton", "lon": "-77.55"}, {"lat": "17.9833333", "city": "Montpelier", "lon": "-77.5833333"}, {"lat": "17.9833333", "city": "Moreland", "lon": "-77.5333333"}, {"lat": "17.8666667", "city": "Morley Hill", "lon": "-77.5"}, {"lat": "17.95", "city": "Mount Blow", "lon": "-77.4833333"}, {"lat": "18.0333333", "city": "Mount Nelson", "lon": "-77.4666667"}, {"lat": "17.9", "city": "Mount Pleasant", "lon": "-77.4333333"}, {"lat": "18.0666667", "city": "Mount Prospect", "lon": "-77.5833333"}, {"lat": "17.9833333", "city": "Newark", "lon": "-77.5666667"}, {"lat": "18.0333333", "city": "Newhall", "lon": "-77.4666667"}, {"lat": "17.9666667", "city": "Newport", "lon": "-77.5"}, {"lat": "17.9333333", "city": "Nonpareil", "lon": "-77.45"}, {"lat": "18.2166667", "city": "Norway", "lon": "-77.5666667"}, {"lat": "17.9666667", "city": "Oldbury", "lon": "-77.5333333"}, {"lat": "17.9833333", "city": "Old England Church", "lon": "-77.4666667"}, {"lat": "17.9833333", "city": "Old England", "lon": "-77.4666667"}, {"lat": "17.9", "city": "Old House", "lon": "-77.35"}, {"lat": "18.2", "city": "Oxford", "lon": "-77.6333333"}, {"lat": "17.9333333", "city": "Park Hall", "lon": "-77.4"}, {"lat": "17.9666667", "city": "Patrick Town", "lon": "-77.4166667"}, {"lat": "17.9833333", "city": "Pear Tree Valley", "lon": "-77.4833333"}, {"lat": "18.0166667", "city": "Perth", "lon": "-77.5333333"}, {"lat": "18.1166667", "city": "Petersfield", "lon": "-77.55"}, {"lat": "17.9166667", "city": "Pleasant Hill", "lon": "-77.4666667"}, {"lat": "17.8666667", "city": "Plowden Hill", "lon": "-77.55"}, {"lat": "17.8833333", "city": "Port Mahon", "lon": "-77.55"}, {"lat": "18.0333333", "city": "Porus", "lon": "-77.4166667"}, {"lat": "17.9", "city": "Pratville", "lon": "-77.4166667"}, {"lat": "17.8833333", "city": "Prospect", "lon": "-77.45"}, {"lat": "17.95", "city": "Providence", "lon": "-77.5333333"}, {"lat": "17.9", "city": "Pusey Hill", "lon": "-77.4166667"}, {"lat": "17.9", "city": "Quatre Bras", "lon": "-77.45"}, {"lat": "18.0333333", "city": "Redberry", "lon": "-77.4333333"}, {"lat": "18.0333333", "city": "Redbury", "lon": "-77.4333333"}, {"lat": "18.0", "city": "Reeves Wood", "lon": "-77.4"}, {"lat": "18.05", "city": "Relford", "lon": "-77.55"}, {"lat": "17.8833333", "city": "Resource", "lon": "-77.4833333"}, {"lat": "17.8833333", "city": "Rest", "lon": "-77.5666667"}, {"lat": "17.8833333", "city": "Rest Store", "lon": "-77.5666667"}, {"lat": "18.05", "city": "Retford", "lon": "-77.55"}, {"lat": "18.0333333", "city": "Retreat", "lon": "-77.5333333"}, {"lat": "17.9333333", "city": "Retrieve", "lon": "-77.4"}, {"lat": "18.0166667", "city": "Richmond", "lon": "-77.4666667"}, {"lat": "17.8666667", "city": "Roberts Run", "lon": "-77.4"}, {"lat": "18.2", "city": "Robins Hall", "lon": "-77.55"}, {"lat": "17.95", "city": "Robinson Run", "lon": "-77.4"}, {"lat": "17.8833333", "city": "Rowes Corner", "lon": "-77.5666667"}, {"lat": "18.0166667", "city": "Roxborough", "lon": "-77.4666667"}, {"lat": "18.0166667", "city": "Roxbro", "lon": "-77.4666667"}, {"lat": "18.05", "city": "Royal Flat", "lon": "-77.4666667"}, {"lat": "18.15", "city": "Saint Pauls", "lon": "-77.6166667"}, {"lat": "17.9666667", "city": "Saint Toolies", "lon": "-77.4"}, {"lat": "17.9666667", "city": "Saint Toolis", "lon": "-77.4"}, {"lat": "17.9333333", "city": "Scotia", "lon": "-77.4666667"}, {"lat": "18.15", "city": "Sedburgh", "lon": "-77.4833333"}, {"lat": "17.95", "city": "Seniors", "lon": "-77.4166667"}, {"lat": "17.9666667", "city": "Shambles", "lon": "-77.5333333"}, {"lat": "17.9666667", "city": "Sherwood Forest", "lon": "-77.45"}, {"lat": "18.0833333", "city": "Shirehampton", "lon": "-77.5833333"}, {"lat": "18.0833333", "city": "Shooters Hill", "lon": "-77.4666667"}, {"lat": "17.9", "city": "Smithfield", "lon": "-77.4833333"}, {"lat": "17.95", "city": "Snowden", "lon": "-77.4833333"}, {"lat": "17.95", "city": "Snowdon", "lon": "-77.4833333"}, {"lat": "17.95", "city": "Soho", "lon": "-77.4"}, {"lat": "18.0666667", "city": "Somerset", "lon": "-77.55"}, {"lat": "18.0666667", "city": "Somersett", "lon": "-77.55"}, {"lat": "18.1166667", "city": "Spitzbergen", "lon": "-77.4833333"}, {"lat": "18.1166667", "city": "Spitzburgen", "lon": "-77.4833333"}, {"lat": "18.0166667", "city": "Spur Tree Hill", "lon": "-77.5666667"}, {"lat": "18.0166667", "city": "Spur Tree", "lon": "-77.5666667"}, {"lat": "18.1", "city": "Stirling Castle", "lon": "-77.5833333"}, {"lat": "18.05", "city": "Stricklands", "lon": "-77.4333333"}, {"lat": "17.9666667", "city": "The Shambles", "lon": "-77.5333333"}, {"lat": "17.9333333", "city": "Thicket", "lon": "-77.4"}, {"lat": "18.05", "city": "Thorn Hill", "lon": "-77.4833333"}, {"lat": "17.9", "city": "Victoria Town", "lon": "-77.3833333"}, {"lat": "18.1666667", "city": "Village of Christiana", "lon": "-77.4833333"}, {"lat": "18.0666667", "city": "Village of Davyton", "lon": "-77.45"}, {"lat": "18.1", "city": "Virginia", "lon": "-77.4666667"}, {"lat": "18.1166667", "city": "Walderston Village", "lon": "-77.4833333"}, {"lat": "18.1166667", "city": "Walderston", "lon": "-77.4833333"}, {"lat": "17.9", "city": "Warwick", "lon": "-77.4333333"}, {"lat": "17.9", "city": "Westfield", "lon": "-77.55"}, {"lat": "18.2", "city": "Whitby", "lon": "-77.5666667"}, {"lat": "18.05", "city": "Whitfield", "lon": "-77.5666667"}, {"lat": "17.9", "city": "Wigton", "lon": "-77.5333333"}, {"lat": "18.0666667", "city": "Williamsfield", "lon": "-77.4666667"}, {"lat": "17.9", "city": "Woodlands", "lon": "-77.4833333"}, {"lat": "17.9333333", "city": "York Village", "lon": "-77.45"}, {"lat": "17.9333333", "city": "York", "lon": "-77.45"}], "16": [{"lat": "18.1166667", "city": "Achendown", "lon": "-77.9833333"}, {"lat": "18.1166667", "city": "Ackendown", "lon": "-77.9833333"}, {"lat": "18.2666667", "city": "Acton", "lon": "-78.1333333"}, {"lat": "18.2666667", "city": "Acton House", "lon": "-78.1333333"}, {"lat": "18.2833333", "city": "Alma", "lon": "-78.2"}, {"lat": "18.25", "city": "Amity", "lon": "-78.1"}, {"lat": "18.25", "city": "Amity Cross", "lon": "-78.1"}, {"lat": "18.25", "city": "Amity House", "lon": "-78.1"}, {"lat": "18.2333333", "city": "Anglesea", "lon": "-78.0666667"}, {"lat": "18.2166667", "city": "Ashton", "lon": "-77.9333333"}, {"lat": "18.1166667", "city": "Auchindown", "lon": "-77.9833333"}, {"lat": "18.2666667", "city": "Banbury", "lon": "-78.1166667"}, {"lat": "18.2666667", "city": "Banbury Village", "lon": "-78.1166667"}, {"lat": "18.2666667", "city": "Barneyside", "lon": "-77.95"}, {"lat": "18.2666667", "city": "Barreyside", "lon": "-77.95"}, {"lat": "18.1333333", "city": "Beaston Spring", "lon": "-77.9666667"}, {"lat": "18.1333333", "city": "Beaston Springs", "lon": "-77.9666667"}, {"lat": "18.1333333", "city": "Beeston Spring", "lon": "-77.9666667"}, {"lat": "18.15", "city": "Belmont", "lon": "-78.0333333"}, {"lat": "18.3", "city": "Bethel Town", "lon": "-77.95"}, {"lat": "18.2166667", "city": "Big Bridge", "lon": "-78.15"}, {"lat": "18.2833333", "city": "Black Heath", "lon": "-78.1333333"}, {"lat": "18.2666667", "city": "Blue Castle", "lon": "-78.1166667"}, {"lat": "18.2666667", "city": "Blue Castle Farm", "lon": "-78.1166667"}, {"lat": "18.1666667", "city": "Bluefields", "lon": "-78.0333333"}, {"lat": "18.15", "city": "Blue Hole", "lon": "-78.0333333"}, {"lat": "18.15", "city": "Bog", "lon": "-77.95"}, {"lat": "18.15", "city": "Brighton", "lon": "-78.0333333"}, {"lat": "18.1333333", "city": "Bronte", "lon": "-77.9333333"}, {"lat": "18.2166667", "city": "Broughton", "lon": "-78.2333333"}, {"lat": "18.2333333", "city": "Cairn", "lon": "-78.0333333"}, {"lat": "18.2666667", "city": "Caledonia", "lon": "-78.0333333"}, {"lat": "18.2833333", "city": "Camp Savanna", "lon": "-78.2333333"}, {"lat": "18.25", "city": "Carawina", "lon": "-78.0833333"}, {"lat": "18.25", "city": "Cariwina", "lon": "-78.0833333"}, {"lat": "18.3", "city": "Cave", "lon": "-78.2833333"}, {"lat": "18.2166667", "city": "Chilton", "lon": "-77.9666667"}, {"lat": "18.2333333", "city": "Clifton", "lon": "-77.9833333"}, {"lat": "18.2166667", "city": "Coldsome Corner", "lon": "-78.2333333"}, {"lat": "18.1", "city": "Congress Hall", "lon": "-77.95"}, {"lat": "18.15", "city": "Content", "lon": "-77.9666667"}, {"lat": "18.2666667", "city": "Cornwall", "lon": "-78.1"}, {"lat": "18.2666667", "city": "Cornwall Farm", "lon": "-78.1"}, {"lat": "18.3", "city": "Cottage", "lon": "-77.9"}, {"lat": "18.2333333", "city": "Crosbie", "lon": "-78.3"}, {"lat": "18.1", "city": "Culldden", "lon": "-77.9833333"}, {"lat": "18.1", "city": "Culloden", "lon": "-77.9833333"}, {"lat": "18.2333333", "city": "Darlingston", "lon": "-77.9666667"}, {"lat": "18.2333333", "city": "Darliston", "lon": "-77.9666667"}, {"lat": "18.1333333", "city": "Dunkeld", "lon": "-78.0333333"}, {"lat": "18.3", "city": "Eardley", "lon": "-78.2666667"}, {"lat": "18.3", "city": "Endeavor", "lon": "-78.2666667"}, {"lat": "18.3", "city": "Endeavour", "lon": "-78.2666667"}, {"lat": "18.2833333", "city": "Fernbrook", "lon": "-77.9333333"}, {"lat": "18.2333333", "city": "Ferris Cross", "lon": "-78.0666667"}, {"lat": "18.2333333", "city": "Ferris", "lon": "-78.0666667"}, {"lat": "18.2333333", "city": "Ferris Pen", "lon": "-78.0666667"}, {"lat": "18.2833333", "city": "Fontabelle", "lon": "-78.15"}, {"lat": "18.2833333", "city": "Fontabelle House", "lon": "-78.15"}, {"lat": "18.2833333", "city": "Fornbrook", "lon": "-77.9333333"}, {"lat": "18.3", "city": "Fort William", "lon": "-78.0666667"}, {"lat": "18.3", "city": "Friendship", "lon": "-78.1"}, {"lat": "18.3", "city": "Frome", "lon": "-78.15"}, {"lat": "18.2833333", "city": "Fullerfield Chapel", "lon": "-78.2166667"}, {"lat": "18.2833333", "city": "Fullersfield Chapel", "lon": "-78.2166667"}, {"lat": "18.3", "city": "Geneva", "lon": "-78.1833333"}, {"lat": "18.2666667", "city": "Georges Plain", "lon": "-78.1333333"}, {"lat": "18.35", "city": "Glasgow", "lon": "-78.2166667"}, {"lat": "18.3166667", "city": "Glenisla", "lon": "-78.0666667"}, {"lat": "18.3166667", "city": "Glen Islay", "lon": "-78.0666667"}, {"lat": "18.3166667", "city": "Glenisley", "lon": "-78.0666667"}, {"lat": "18.2166667", "city": "Goldsons Corner", "lon": "-78.2333333"}, {"lat": "18.25", "city": "Good Hope", "lon": "-78.35"}, {"lat": "18.1", "city": "Grandvale", "lon": "-77.9333333"}, {"lat": "18.3333333", "city": "Grange", "lon": "-78.0666667"}, {"lat": "18.3", "city": "Grange Hill", "lon": "-78.1833333"}, {"lat": "18.3", "city": "Gran Hill", "lon": "-78.1833333"}, {"lat": "18.2833333", "city": "Greenwich", "lon": "-78.0833333"}, {"lat": "18.25", "city": "Hartford", "lon": "-78.0833333"}, {"lat": "18.25", "city": "Hertford", "lon": "-78.0833333"}, {"lat": "18.15", "city": "Hopeton", "lon": "-77.95"}, {"lat": "18.15", "city": "Hopeton House", "lon": "-77.95"}, {"lat": "18.25", "city": "Hopewell", "lon": "-78.3"}, {"lat": "18.2666667", "city": "Jane Marks", "lon": "-78.1333333"}, {"lat": "18.2666667", "city": "Jane Marks Village", "lon": "-78.1333333"}, {"lat": "18.3166667", "city": "Jerusalem", "lon": "-78.2333333"}, {"lat": "18.2666667", "city": "Jones Pen", "lon": "-78.3166667"}, {"lat": "18.2666667", "city": "Kan Pan", "lon": "-77.9166667"}, {"lat": "18.25", "city": "Kepham", "lon": "-78.0333333"}, {"lat": "18.2833333", "city": "Kew Park", "lon": "-77.9333333"}, {"lat": "18.0833333", "city": "Kings", "lon": "-77.9666667"}, {"lat": "18.0833333", "city": "Kings Pen", "lon": "-77.9666667"}, {"lat": "18.3166667", "city": "Kings Valley", "lon": "-78.2"}, {"lat": "18.2333333", "city": "Kingswood", "lon": "-78.1333333"}, {"lat": "18.2333333", "city": "Kingwood", "lon": "-78.1333333"}, {"lat": "18.25", "city": "Lambs River", "lon": "-77.9166667"}, {"lat": "18.2", "city": "Leamington", "lon": "-77.9333333"}, {"lat": "18.1833333", "city": "Lennox", "lon": "-77.95"}, {"lat": "18.1833333", "city": "Lenox", "lon": "-77.95"}, {"lat": "18.2166667", "city": "Little Bay", "lon": "-78.2666667"}, {"lat": "18.2166667", "city": "Little Broughton", "lon": "-78.2333333"}, {"lat": "18.25", "city": "Little London", "lon": "-78.2166667"}, {"lat": "18.2166667", "city": "Llanaillo", "lon": "-78.15"}, {"lat": "18.2166667", "city": "Llandillo", "lon": "-78.15"}, {"lat": "18.2166667", "city": "Llandilo", "lon": "-78.15"}, {"lat": "18.2166667", "city": "Llanoilo", "lon": "-78.15"}, {"lat": "18.3", "city": "Lodge Bush", "lon": "-78.1166667"}, {"lat": "18.2333333", "city": "Long Pond Pen", "lon": "-78.2166667"}, {"lat": "18.3166667", "city": "Macfield", "lon": "-78.0166667"}, {"lat": "18.3166667", "city": "Mackfield", "lon": "-78.0166667"}, {"lat": "18.2666667", "city": "Masemure", "lon": "-78.2166667"}, {"lat": "18.1666667", "city": "Mearnsville", "lon": "-78.0333333"}, {"lat": "18.2833333", "city": "Mesopotamia", "lon": "-78.1166667"}, {"lat": "18.25", "city": "Meylersfield", "lon": "-78.1833333"}, {"lat": "18.2833333", "city": "Midgeham", "lon": "-78.2166667"}, {"lat": "18.2833333", "city": "Midgham", "lon": "-78.2166667"}, {"lat": "18.3166667", "city": "Mint", "lon": "-78.2"}, {"lat": "18.3", "city": "Morgans Bridge", "lon": "-78.1833333"}, {"lat": "18.25", "city": "Mount Airy", "lon": "-78.3333333"}, {"lat": "18.3", "city": "Mount Eagle", "lon": "-78.2"}, {"lat": "18.3166667", "city": "Mount Grace", "lon": "-78.1166667"}, {"lat": "18.3", "city": "Mount Stewart", "lon": "-78.0"}, {"lat": "18.2833333", "city": "Mount Terza", "lon": "-78.0166667"}, {"lat": "18.2666667", "city": "Negril Harbour", "lon": "-78.35"}, {"lat": "18.2666667", "city": "Negril", "lon": "-78.35"}, {"lat": "18.25", "city": "Negril Spots", "lon": "-78.2833333"}, {"lat": "18.2", "city": "New Broughton", "lon": "-78.2166667"}, {"lat": "18.1833333", "city": "New Road", "lon": "-77.9333333"}, {"lat": "18.1833333", "city": "New Roads", "lon": "-77.9333333"}, {"lat": "18.1666667", "city": "New Shafton", "lon": "-78.0333333"}, {"lat": "18.15", "city": "New Works", "lon": "-77.9666667"}, {"lat": "18.25", "city": "Nonpareil", "lon": "-78.3166667"}, {"lat": "18.25", "city": "Nonparsil", "lon": "-78.3166667"}, {"lat": "18.2333333", "city": "Old Hope", "lon": "-78.2333333"}, {"lat": "18.1833333", "city": "Old Rotherwood", "lon": "-77.9833333"}, {"lat": "18.1333333", "city": "Old Shafton", "lon": "-78.0166667"}, {"lat": "18.2333333", "city": "Orange Hill", "lon": "-78.3166667"}, {"lat": "18.1833333", "city": "Ormiston", "lon": "-77.95"}, {"lat": "18.2166667", "city": "Paradise", "lon": "-78.0833333"}, {"lat": "18.2666667", "city": "Paul Island", "lon": "-78.2"}, {"lat": "18.2666667", "city": "Petersfield", "lon": "-78.0666667"}, {"lat": "18.1166667", "city": "Petersville", "lon": "-77.9666667"}, {"lat": "18.2166667", "city": "Phoenix Park", "lon": "-78.1333333"}, {"lat": "18.25", "city": "Pipers", "lon": "-78.1"}, {"lat": "18.3333333", "city": "Porters Mountain", "lon": "-78.05"}, {"lat": "18.3166667", "city": "Prospect Park Farm", "lon": "-78.1"}, {"lat": "18.3166667", "city": "Prospect", "lon": "-78.1"}, {"lat": "18.2666667", "city": "Rat Trap", "lon": "-77.9333333"}, {"lat": "18.1333333", "city": "Red Grown", "lon": "-78.0333333"}, {"lat": "18.1833333", "city": "Retirement", "lon": "-78.05"}, {"lat": "18.25", "city": "Retreat", "lon": "-78.2666667"}, {"lat": "18.25", "city": "Retrieve", "lon": "-78.2333333"}, {"lat": "18.2166667", "city": "Revival", "lon": "-78.2833333"}, {"lat": "18.2833333", "city": "Ricketts River", "lon": "-78.15"}, {"lat": "18.2833333", "city": "Ridgeland", "lon": "-78.2166667"}, {"lat": "18.2833333", "city": "Ridgland", "lon": "-78.2166667"}, {"lat": "18.2333333", "city": "River Head", "lon": "-78.05"}, {"lat": "18.2833333", "city": "Roaring River", "lon": "-78.05"}, {"lat": "18.1333333", "city": "Robins River", "lon": "-78.0"}, {"lat": "18.2833333", "city": "Roebuck Hill", "lon": "-78.15"}, {"lat": "18.1833333", "city": "Rotherwood", "lon": "-77.9833333"}, {"lat": "18.25", "city": "Saint Leonards", "lon": "-77.9"}, {"lat": "18.2166667", "city": "Savannah la Mar", "lon": "-78.1333333"}, {"lat": "18.2166667", "city": "Savanna-la-Mar", "lon": "-78.1333333"}, {"lat": "18.25", "city": "Seaford Town", "lon": "-77.9"}, {"lat": "18.1666667", "city": "Shafeston", "lon": "-78.0333333"}, {"lat": "18.1666667", "city": "Shafston", "lon": "-78.0333333"}, {"lat": "18.2666667", "city": "Sheffield", "lon": "-78.3"}, {"lat": "18.2666667", "city": "Shrewsbury", "lon": "-78.0666667"}, {"lat": "18.2666667", "city": "Springfield", "lon": "-78.3"}, {"lat": "18.2666667", "city": "Struie", "lon": "-77.9666667"}, {"lat": "18.2666667", "city": "Strui", "lon": "-77.9666667"}, {"lat": "18.2333333", "city": "Sweet River", "lon": "-78.0666667"}, {"lat": "18.15", "city": "Thornhill", "lon": "-77.9666667"}, {"lat": "18.2666667", "city": "Three Mile River", "lon": "-78.1333333"}, {"lat": "18.1", "city": "Tommy Bush", "lon": "-77.9333333"}, {"lat": "18.2333333", "city": "Torrington", "lon": "-78.1166667"}, {"lat": "18.3166667", "city": "Town Head", "lon": "-78.1333333"}, {"lat": "18.3", "city": "Truro Gate", "lon": "-78.15"}, {"lat": "18.3", "city": "Truro Pen", "lon": "-78.15"}, {"lat": "18.3", "city": "Truro", "lon": "-78.15"}, {"lat": "18.2", "city": "Tug Hill", "lon": "-78.05"}, {"lat": "18.15", "city": "Vinegar Hill", "lon": "-77.9666667"}, {"lat": "18.2166667", "city": "Wakefield", "lon": "-78.1166667"}, {"lat": "18.2", "city": "Water Wheel", "lon": "-78.05"}, {"lat": "18.2333333", "city": "Water Works", "lon": "-78.05"}, {"lat": "18.2666667", "city": "Westlands", "lon": "-78.3666667"}, {"lat": "18.2666667", "city": "Whitehall", "lon": "-78.3333333"}, {"lat": "18.0833333", "city": "Whitehouse", "lon": "-77.9666667"}, {"lat": "18.25", "city": "Whithorne", "lon": "-78.0333333"}, {"lat": "18.25", "city": "Whithorn", "lon": "-78.0333333"}, {"lat": "18.3166667", "city": "Williamsfield", "lon": "-78.0666667"}, {"lat": "18.2833333", "city": "Williams Moreland", "lon": "-78.2666667"}, {"lat": "18.2333333", "city": "Windsor", "lon": "-78.1166667"}, {"lat": "18.2833333", "city": "York", "lon": "-77.95"}], "08": [{"lat": "17.9833333", "city": "Admiral's Town", "lon": "-76.8"}, {"lat": "17.9833333", "city": "Admiral Town", "lon": "-76.8"}, {"lat": "18.0333333", "city": "Arcadia Club", "lon": "-76.7833333"}, {"lat": "18.0166667", "city": "Barbican", "lon": "-76.7666667"}, {"lat": "18.05", "city": "Belvedere", "lon": "-76.8666667"}, {"lat": "18.05", "city": "Belvidere", "lon": "-76.8666667"}, {"lat": "18.0666667", "city": "Berdoes", "lon": "-76.8666667"}, {"lat": "18.0666667", "city": "Beredoes", "lon": "-76.8666667"}, {"lat": "18.0", "city": "Beverly Hills", "lon": "-76.7666667"}, {"lat": "17.95", "city": "Bideford", "lon": "-77.7166667"}, {"lat": "18.0333333", "city": "Billy Dun", "lon": "-76.7666667"}, {"lat": "18.0333333", "city": "Billy Dunn", "lon": "-76.7666667"}, {"lat": "17.9833333", "city": "Bloxburgh", "lon": "-76.65"}, {"lat": "18.15", "city": "Border", "lon": "-76.8666667"}, {"lat": "18.15", "city": "Brandon Hill", "lon": "-76.8166667"}, {"lat": "17.95", "city": "Bull Bay", "lon": "-76.6666667"}, {"lat": "17.95", "city": "Bull Bay Pen", "lon": "-76.6666667"}, {"lat": "18.0166667", "city": "Camperdown", "lon": "-76.8"}, {"lat": "17.95", "city": "Cane River", "lon": "-76.7"}, {"lat": "18.0166667", "city": "Cassia Park", "lon": "-76.8"}, {"lat": "18.1666667", "city": "Castleton", "lon": "-76.8166667"}, {"lat": "18.1666667", "city": "Castleton Gardens", "lon": "-76.8166667"}, {"lat": "18.1", "city": "Cavalier", "lon": "-76.85"}, {"lat": "18.1", "city": "Cavaliers", "lon": "-76.85"}, {"lat": "18.05", "city": "Cedar Valley", "lon": "-76.8666667"}, {"lat": "18.0333333", "city": "Charlton", "lon": "-76.8"}, {"lat": "18.05", "city": "Cherry Garden", "lon": "-76.7833333"}, {"lat": "18.0666667", "city": "Chestervale", "lon": "-76.6666667"}, {"lat": "17.9333333", "city": "Claremont", "lon": "-76.6833333"}, {"lat": "18.0333333", "city": "Clebe Farm", "lon": "-76.8166667"}, {"lat": "18.0666667", "city": "Clydesdale", "lon": "-76.6666667"}, {"lat": "18.0666667", "city": "Clydesdale Industry", "lon": "-76.6666667"}, {"lat": "18.0", "city": "Cockburn Gardens", "lon": "-76.8166667"}, {"lat": "18.05", "city": "Constant Spring", "lon": "-76.8"}, {"lat": "18.0", "city": "Constitution Hill", "lon": "-76.7166667"}, {"lat": "18.05", "city": "Content", "lon": "-76.7"}, {"lat": "18.05", "city": "Craigton", "lon": "-76.7166667"}, {"lat": "17.9833333", "city": "Cross Roads", "lon": "-76.7833333"}, {"lat": "17.9833333", "city": "Dallas Castle", "lon": "-76.7166667"}, {"lat": "17.9833333", "city": "Dallas", "lon": "-76.7166667"}, {"lat": "17.9833333", "city": "Delacree Pen", "lon": "-76.8166667"}, {"lat": "18.05", "city": "Diamond", "lon": "-76.8666667"}, {"lat": "18.0333333", "city": "Dunrobin", "lon": "-76.8"}, {"lat": "18.0166667", "city": "Eastwood Park", "lon": "-76.8"}, {"lat": "17.9833333", "city": "Eden Gardens", "lon": "-76.7666667"}, {"lat": "18.0333333", "city": "Enfield", "lon": "-76.7166667"}, {"lat": "18.1166667", "city": "Fellowship Hall", "lon": "-76.8"}, {"lat": "18.0166667", "city": "Flamstead Cottage", "lon": "-76.7"}, {"lat": "18.0166667", "city": "Flamstead", "lon": "-76.7"}, {"lat": "18.0833333", "city": "Fort George", "lon": "-76.8"}, {"lat": "18.0", "city": "Four Mile", "lon": "-76.8333333"}, {"lat": "18.0166667", "city": "Four Roads", "lon": "-76.8166667"}, {"lat": "18.0333333", "city": "Friendship", "lon": "-76.7666667"}, {"lat": "18.0333333", "city": "Glebe Farm", "lon": "-76.8166667"}, {"lat": "18.1", "city": "Golden Spring", "lon": "-76.8"}, {"lat": "17.9833333", "city": "Good Hope", "lon": "-76.7"}, {"lat": "18.0333333", "city": "Gordon Town", "lon": "-76.7166667"}, {"lat": "18.0333333", "city": "Grants Pen", "lon": "-76.7833333"}, {"lat": "18.0666667", "city": "Greenwich Camp", "lon": "-76.7333333"}, {"lat": "18.0666667", "city": "Greenwich", "lon": "-76.7333333"}, {"lat": "17.9666667", "city": "Greenwich Town", "lon": "-76.8166667"}, {"lat": "18.0333333", "city": "Grove", "lon": "-76.7333333"}, {"lat": "18.0166667", "city": "Guava Ridge", "lon": "-76.6833333"}, {"lat": "17.9666667", "city": "Halberstadt", "lon": "-76.6666667"}, {"lat": "17.9666667", "city": "Halberstadt House", "lon": "-76.6666667"}, {"lat": "18.0", "city": "Half Way Tree", "lon": "-76.8"}, {"lat": "18.05", "city": "Halls Delight", "lon": "-76.6666667"}, {"lat": "18.0333333", "city": "Happy Grove", "lon": "-76.8666667"}, {"lat": "17.95", "city": "Harbour View", "lon": "-76.7166667"}, {"lat": "18.0833333", "city": "Hillsborough", "lon": "-76.8833333"}, {"lat": "18.0333333", "city": "Hope Gardens", "lon": "-76.75"}, {"lat": "18.0333333", "city": "Hope", "lon": "-76.75"}, {"lat": "18.0333333", "city": "Hopehouse", "lon": "-76.75"}, {"lat": "18.0166667", "city": "Hope Pastures", "lon": "-76.75"}, {"lat": "18.05", "city": "Hopewell", "lon": "-76.7166667"}, {"lat": "18.05", "city": "Irish Town", "lon": "-76.7166667"}, {"lat": "18.05", "city": "Jacks Hill", "lon": "-76.75"}, {"lat": "17.9833333", "city": "Jones Town", "lon": "-76.8"}, {"lat": "17.9833333", "city": "Kencot", "lon": "-76.8"}, {"lat": "18.0", "city": "Kingston", "lon": "-76.8"}, {"lat": "18.05", "city": "Kirklands", "lon": "-76.8333333"}, {"lat": "17.95", "city": "Lakelands", "lon": "-76.7"}, {"lat": "18.1166667", "city": "Lawrence Tavern", "lon": "-76.85"}, {"lat": "18.05", "city": "Lebanon", "lon": "-76.7"}, {"lat": "18.0166667", "city": "Liguanea", "lon": "-76.7666667"}, {"lat": "17.9833333", "city": "Lindos Gap", "lon": "-76.7166667"}, {"lat": "18.15", "city": "Mambys", "lon": "-76.8333333"}, {"lat": "18.0333333", "city": "Mari Bank", "lon": "-76.6666667"}, {"lat": "18.0333333", "city": "Mary Browns Corner", "lon": "-76.8"}, {"lat": "18.05", "city": "Mason Valley", "lon": "-76.8666667"}, {"lat": "18.0333333", "city": "Matildas Corner", "lon": "-76.7666667"}, {"lat": "18.05", "city": "Maverly", "lon": "-76.8166667"}, {"lat": "18.05", "city": "Maverty", "lon": "-76.8166667"}, {"lat": "18.0333333", "city": "Mavis Bank", "lon": "-76.6666667"}, {"lat": "18.05", "city": "Middleton", "lon": "-76.7166667"}, {"lat": "18.0166667", "city": "Mocho House", "lon": "-76.65"}, {"lat": "18.0166667", "city": "Mocho", "lon": "-76.65"}, {"lat": "18.0", "city": "Mona Heights", "lon": "-76.75"}, {"lat": "18.15", "city": "Montpelier", "lon": "-76.8166667"}, {"lat": "18.1", "city": "Mount Belmore", "lon": "-76.7833333"}, {"lat": "18.0166667", "city": "Mount Charles", "lon": "-76.65"}, {"lat": "17.9833333", "city": "Mount Dispute", "lon": "-76.6833333"}, {"lat": "18.1166667", "city": "Mount James", "lon": "-76.7833333"}, {"lat": "18.1166667", "city": "Mount Moses", "lon": "-76.7666667"}, {"lat": "18.15", "city": "Mount Pelier", "lon": "-76.8166667"}, {"lat": "18.0833333", "city": "Mount Pleasant", "lon": "-76.8"}, {"lat": "18.0666667", "city": "Newcastle", "lon": "-76.7166667"}, {"lat": "18.0", "city": "New Kingston", "lon": "-76.7833333"}, {"lat": "17.9833333", "city": "Newport West", "lon": "-76.8333333"}, {"lat": "17.95", "city": "Newstead", "lon": "-76.6833333"}, {"lat": "18.0", "city": "Niger Corner", "lon": "-76.7666667"}, {"lat": "18.0", "city": "Nigger Corner", "lon": "-76.7666667"}, {"lat": "18.1333333", "city": "Oberlin", "lon": "-76.85"}, {"lat": "18.0166667", "city": "Olympic Gardens", "lon": "-76.8333333"}, {"lat": "17.9333333", "city": "Palm Beach", "lon": "-76.7"}, {"lat": "18.0166667", "city": "Papine", "lon": "-76.7333333"}, {"lat": "18.0833333", "city": "Parks Road", "lon": "-76.8666667"}, {"lat": "18.0333333", "city": "Pembroke Hall", "lon": "-76.8166667"}, {"lat": "18.0833333", "city": "Pleasant Hill House", "lon": "-76.6666667"}, {"lat": "18.0833333", "city": "Pleasant Hill", "lon": "-76.6666667"}, {"lat": "18.05", "city": "Red Hills", "lon": "-76.8333333"}, {"lat": "18.05", "city": "Resource", "lon": "-76.6666667"}, {"lat": "18.0666667", "city": "Rock Hall", "lon": "-76.8833333"}, {"lat": "18.3833333", "city": "Rockingham", "lon": "-78.1666667"}, {"lat": "18.0833333", "city": "Saint Christopher", "lon": "-76.8333333"}, {"lat": "18.0666667", "city": "Saint Peter's", "lon": "-76.6833333"}, {"lat": "18.1", "city": "Salisbury Plain", "lon": "-76.85"}, {"lat": "18.1", "city": "Salisbury", "lon": "-76.85"}, {"lat": "18.1", "city": "Salsbury", "lon": "-76.85"}, {"lat": "18.0833333", "city": "Santa Maria", "lon": "-76.8833333"}, {"lat": "17.95", "city": "Seven Mile", "lon": "-76.7"}, {"lat": "18.0166667", "city": "Six Miles", "lon": "-76.85"}, {"lat": "18.05", "city": "Slanmore", "lon": "-76.85"}, {"lat": "18.05", "city": "Smiths Pen", "lon": "-76.8"}, {"lat": "17.9833333", "city": "Somerset", "lon": "-76.6333333"}, {"lat": "18.0833333", "city": "Spa Spring", "lon": "-76.6833333"}, {"lat": "18.05", "city": "Stanmer", "lon": "-76.85"}, {"lat": "18.05", "city": "Sterling Castle", "lon": "-76.8333333"}, {"lat": "18.05", "city": "Stirling Castle", "lon": "-76.8333333"}, {"lat": "18.0833333", "city": "Stony Hill", "lon": "-76.8"}, {"lat": "18.05", "city": "Swallowfield", "lon": "-76.8"}, {"lat": "18.0333333", "city": "The Cooperage", "lon": "-76.7333333"}, {"lat": "18.0333333", "city": "The Grove", "lon": "-76.7333333"}, {"lat": "17.9833333", "city": "Three Mile", "lon": "-76.8333333"}, {"lat": "18.15", "city": "Toms River", "lon": "-76.8333333"}, {"lat": "18.0", "city": "Tower Hill", "lon": "-76.65"}, {"lat": "18.0166667", "city": "Tree Grove", "lon": "-76.8166667"}, {"lat": "18.05", "city": "Tumbridge", "lon": "-76.8166667"}, {"lat": "18.05", "city": "Tunbridge", "lon": "-76.8166667"}, {"lat": "18.1333333", "city": "Unity", "lon": "-76.8666667"}, {"lat": "17.9833333", "city": "Up Park Camp", "lon": "-76.7833333"}, {"lat": "17.9833333", "city": "Vineyard", "lon": "-76.7833333"}, {"lat": "18.0166667", "city": "Washington Gardens", "lon": "-76.85"}, {"lat": "18.0166667", "city": "Waterhouse Pen", "lon": "-76.85"}, {"lat": "18.0166667", "city": "Waterhouse", "lon": "-76.85"}, {"lat": "17.9833333", "city": "Whitfield Town", "lon": "-76.8166667"}, {"lat": "18.0833333", "city": "Zion Hill", "lon": "-76.8333333"}], "09": [{"lat": "18.3833333", "city": "Aberdean", "lon": "-77.3666667"}, {"lat": "18.3833333", "city": "Aberdeen", "lon": "-77.3666667"}, {"lat": "18.2666667", "city": "Aberly", "lon": "-77.3666667"}, {"lat": "18.25", "city": "Aboukir", "lon": "-77.3666667"}, {"lat": "18.25", "city": "Abourkir", "lon": "-77.3666667"}, {"lat": "18.2166667", "city": "Aenon Town", "lon": "-77.4"}, {"lat": "18.3", "city": "Alderton", "lon": "-77.2166667"}, {"lat": "18.3", "city": "Alexandria", "lon": "-77.35"}, {"lat": "18.45", "city": "Allen Hall", "lon": "-77.4333333"}, {"lat": "18.2166667", "city": "Andersons Town", "lon": "-77.3666667"}, {"lat": "18.2166667", "city": "Anderson Town", "lon": "-77.3666667"}, {"lat": "18.3666667", "city": "Annadale", "lon": "-77.15"}, {"lat": "18.3666667", "city": "Annandale", "lon": "-77.15"}, {"lat": "18.4333333", "city": "Antrim", "lon": "-77.3"}, {"lat": "18.25", "city": "Ardoch", "lon": "-77.1"}, {"lat": "18.3", "city": "Armadale", "lon": "-77.3666667"}, {"lat": "18.4", "city": "Arthurs Mountain", "lon": "-77.2333333"}, {"lat": "18.4", "city": "Arthurs Mount", "lon": "-77.2333333"}, {"lat": "18.3833333", "city": "Arthurs Seat", "lon": "-77.1333333"}, {"lat": "18.3166667", "city": "Bachelors Hall", "lon": "-77.0833333"}, {"lat": "18.3833333", "city": "Bad Times", "lon": "-77.1166667"}, {"lat": "18.3", "city": "Ballintoy", "lon": "-77.3"}, {"lat": "18.2333333", "city": "Bally Mony", "lon": "-77.1833333"}, {"lat": "18.3833333", "city": "Bamboo", "lon": "-77.2666667"}, {"lat": "18.45", "city": "Banks", "lon": "-77.2333333"}, {"lat": "18.3", "city": "Barrett Hall", "lon": "-77.1666667"}, {"lat": "18.3", "city": "Barrett Hall Village", "lon": "-77.1666667"}, {"lat": "18.3666667", "city": "Beecher Town", "lon": "-77.1166667"}, {"lat": "18.3", "city": "Belhany", "lon": "-77.3666667"}, {"lat": "18.45", "city": "Belleair", "lon": "-77.35"}, {"lat": "18.45", "city": "Belle Air Summit", "lon": "-77.35"}, {"lat": "18.35", "city": "Bellevue", "lon": "-77.0666667"}, {"lat": "18.3166667", "city": "Belmont", "lon": "-77.1333333"}, {"lat": "18.45", "city": "Bengal", "lon": "-77.45"}, {"lat": "18.45", "city": "Bengal Bridge", "lon": "-77.45"}, {"lat": "18.3", "city": "Bennetsfield", "lon": "-77.3333333"}, {"lat": "18.3", "city": "Bennettsfield", "lon": "-77.3333333"}, {"lat": "18.2333333", "city": "Bensonton", "lon": "-77.2166667"}, {"lat": "18.4666667", "city": "Berridale", "lon": "-77.4166667"}, {"lat": "18.4666667", "city": "Berrydale", "lon": "-77.4166667"}, {"lat": "18.3", "city": "Bethany", "lon": "-77.3666667"}, {"lat": "18.45", "city": "Beverly", "lon": "-77.2833333"}, {"lat": "18.3166667", "city": "Blackheath", "lon": "-77.1333333"}, {"lat": "18.2666667", "city": "Blackstone Edge", "lon": "-77.0166667"}, {"lat": "18.3833333", "city": "Bluefields", "lon": "-77.35"}, {"lat": "18.4166667", "city": "Blue Hole", "lon": "-77.2833333"}, {"lat": "18.4", "city": "Bog", "lon": "-77.1333333"}, {"lat": "18.4", "city": "Bogg", "lon": "-77.1333333"}, {"lat": "18.3166667", "city": "Bolton", "lon": "-77.1333333"}, {"lat": "18.3166667", "city": "Bolton Park", "lon": "-77.1333333"}, {"lat": "18.3833333", "city": "Breadnut Hill", "lon": "-77.0833333"}, {"lat": "18.3666667", "city": "Breezy Hill", "lon": "-77.1333333"}, {"lat": "18.3833333", "city": "Breezy Park", "lon": "-77.2"}, {"lat": "18.3", "city": "Brissett Run", "lon": "-77.25"}, {"lat": "18.3", "city": "Brissett Runs", "lon": "-77.25"}, {"lat": "18.35", "city": "Brittonville", "lon": "-77.2"}, {"lat": "18.3166667", "city": "Broadstreet", "lon": "-77.1666667"}, {"lat": "18.3166667", "city": "Bromley", "lon": "-77.1"}, {"lat": "18.4", "city": "Browns Town", "lon": "-77.3666667"}, {"lat": "18.2833333", "city": "Browns Valley", "lon": "-77.2"}, {"lat": "18.3166667", "city": "Brunswick", "lon": "-77.2"}, {"lat": "18.4", "city": "Buckfield", "lon": "-77.1"}, {"lat": "18.3833333", "city": "Burts Run", "lon": "-77.3"}, {"lat": "18.2833333", "city": "Cairnie", "lon": "-77.3333333"}, {"lat": "18.2833333", "city": "Calderwood", "lon": "-77.3"}, {"lat": "18.2833333", "city": "Calderwood Glen", "lon": "-77.3"}, {"lat": "18.3166667", "city": "Caledonia", "lon": "-77.4333333"}, {"lat": "18.45", "city": "Cambrook", "lon": "-77.2666667"}, {"lat": "18.2166667", "city": "Camperdown", "lon": "-77.15"}, {"lat": "18.45", "city": "Cardiff", "lon": "-77.3166667"}, {"lat": "18.45", "city": "Cardiff Hall", "lon": "-77.3166667"}, {"lat": "18.45", "city": "Carditt Hall", "lon": "-77.3166667"}, {"lat": "18.35", "city": "Carton", "lon": "-77.1833333"},