{"JP": {"30": [{"lat": "33.6", "city": "Akane", "lon": "131.583333"}, {"lat": "33.25", "city": "Amagase", "lon": "131.033333"}, {"lat": "33.033333", "city": "Amamui", "lon": "131.916667"}, {"lat": "32.9", "city": "Arato", "lon": "132"}, {"lat": "33", "city": "Asaji", "lon": "131.433333"}, {"lat": "33.033333", "city": "Azamui", "lon": "131.916667"}, {"lat": "33.466667", "city": "Bajo", "lon": "131.5"}, {"lat": "33.666667", "city": "Banbanchi", "lon": "131.516667"}, {"lat": "33.273611", "city": "Beppu", "lon": "131.491944"}, {"lat": "33.274722", "city": "Bungo-Mori", "lon": "131.151111"}, {"lat": "32.983333", "city": "Chinda", "lon": "131.516667"}, {"lat": "32.983333", "city": "Chindataki", "lon": "131.516667"}, {"lat": "33.216667", "city": "Deno", "lon": "130.883333"}, {"lat": "33.25", "city": "Era", "lon": "131.183333"}, {"lat": "33.483333", "city": "Furuichi", "lon": "131.716667"}, {"lat": "32.9", "city": "Fusaka", "lon": "131.866667"}, {"lat": "33.6", "city": "Hama", "lon": "131.483333"}, {"lat": "33.133333", "city": "Haranaka", "lon": "131.35"}, {"lat": "33.133333", "city": "Harunaka", "lon": "131.35"}, {"lat": "33.533333", "city": "Hashitsu", "lon": "131.4"}, {"lat": "33.533333", "city": "Hashiuzu", "lon": "131.4"}, {"lat": "33.533333", "city": "Hashizu", "lon": "131.4"}, {"lat": "32.85", "city": "Hatanoura", "lon": "131.95"}, {"lat": "32.933333", "city": "Hazako", "lon": "132.033333"}, {"lat": "33.316667", "city": "Hida", "lon": "130.933333"}, {"lat": "33.366667", "city": "Higi", "lon": "131.533333"}, {"lat": "33.366667", "city": "Hiji", "lon": "131.533333"}, {"lat": "33.366667", "city": "Hinode", "lon": "131.533333"}, {"lat": "33.283333", "city": "Hirakawa", "lon": "131.1"}, {"lat": "33.116667", "city": "Hirokawa", "lon": "130.966667"}, {"lat": "33.316667", "city": "Hita", "lon": "130.933333"}, {"lat": "33.366667", "city": "Hizi", "lon": "131.533333"}, {"lat": "33.1", "city": "Hotojima", "lon": "132"}, {"lat": "33.1", "city": "Hotoshima", "lon": "132"}, {"lat": "33.266667", "city": "Ichainomura", "lon": "131.05"}, {"lat": "33.266667", "city": "Ichimura", "lon": "131.05"}, {"lat": "33.266667", "city": "Ichinomura", "lon": "131.05"}, {"lat": "32.9", "city": "Idate", "lon": "132"}, {"lat": "33.216667", "city": "Ideno", "lon": "130.883333"}, {"lat": "32.8", "city": "Ikushi", "lon": "131.9"}, {"lat": "33.25", "city": "Ikushimachi", "lon": "131.6"}, {"lat": "33.583333", "city": "Imazu", "lon": "131.266667"}, {"lat": "33.683333", "city": "Imi", "lon": "131.6"}, {"lat": "32.8", "city": "Inokushi", "lon": "131.9"}, {"lat": "33.066667", "city": "Inukai", "lon": "131.633333"}, {"lat": "32.883333", "city": "Irori", "lon": "131.983333"}, {"lat": "33.1", "city": "Isaki", "lon": "131.883333"}, {"lat": "32.966667", "city": "Ishima", "lon": "131.916667"}, {"lat": "32.9", "city": "Ishiuchi", "lon": "131.883333"}, {"lat": "32.966667", "city": "Isima", "lon": "131.916667"}, {"lat": "33.116667", "city": "Itachiya", "lon": "131.833333"}, {"lat": "33.116667", "city": "Itachiyaku", "lon": "131.833333"}, {"lat": "32.983333", "city": "Itaibata", "lon": "131.75"}, {"lat": "32.916667", "city": "Iwaido", "lon": "131.816667"}, {"lat": "33.383333", "city": "Iwaya", "lon": "131.216667"}, {"lat": "33.1", "city": "Izaki", "lon": "131.883333"}, {"lat": "33.216667", "city": "Izuno", "lon": "130.883333"}, {"lat": "33.4", "city": "Jodoji", "lon": "131.433333"}, {"lat": "33.666667", "city": "Kagachi", "lon": "131.516667"}, {"lat": "33.666667", "city": "Kakaji", "lon": "131.516667"}, {"lat": "33.666667", "city": "Kakazi", "lon": "131.516667"}, {"lat": "32.983333", "city": "Kakigawachi", "lon": "131.75"}, {"lat": "32.983333", "city": "Kaki-kawachi", "lon": "131.75"}, {"lat": "32.8", "city": "Kamae", "lon": "131.933333"}, {"lat": "32.8", "city": "Kamaeura", "lon": "131.933333"}, {"lat": "33.316667", "city": "Kamegawa", "lon": "131.483333"}, {"lat": "33.383333", "city": "Kami-era", "lon": "131.283333"}, {"lat": "33", "city": "Kami-ochidani", "lon": "131.716667"}, {"lat": "33", "city": "Kami-ochitani", "lon": "131.716667"}, {"lat": "33.233333", "city": "Kami-tsutsura", "lon": "131.316667"}, {"lat": "33.233333", "city": "Kami-tsuzura", "lon": "131.316667"}, {"lat": "33.2", "city": "Kamiura", "lon": "131.866667"}, {"lat": "33.466667", "city": "Kanayama", "lon": "131.5"}, {"lat": "33.366667", "city": "Kashiranari", "lon": "131.5"}, {"lat": "32.983333", "city": "Katsura", "lon": "131.9"}, {"lat": "32.983333", "city": "Katura", "lon": "131.9"}, {"lat": "32.983333", "city": "Kazura", "lon": "131.9"}, {"lat": "33.416667", "city": "Kikumoto", "lon": "131.616667"}, {"lat": "33.133333", "city": "Kinzan", "lon": "130.883333"}, {"lat": "33.416667", "city": "Kitsuki", "lon": "131.616667"}, {"lat": "32.816667", "city": "Kiurakozan", "lon": "131.55"}, {"lat": "33.216667", "city": "Koguribayashi", "lon": "131.016667"}, {"lat": "32.9", "city": "Koharu", "lon": "131.45"}, {"lat": "33.216667", "city": "Kokuribayashi", "lon": "131.016667"}, {"lat": "33.366667", "city": "Kosako", "lon": "131.083333"}, {"lat": "33.5", "city": "Koyahara", "lon": "131.033333"}, {"lat": "33.5", "city": "Koyanoharu", "lon": "131.033333"}, {"lat": "33.016667", "city": "Kuju", "lon": "131.3"}, {"lat": "32.883333", "city": "Kujuno", "lon": "131.316667"}, {"lat": "33.55", "city": "Kunizaki", "lon": "131.733333"}, {"lat": "33.266667", "city": "Kusu", "lon": "131.15"}, {"lat": "33.233333", "city": "Kuwaya", "lon": "131.316667"}, {"lat": "32.883333", "city": "Kyubu", "lon": "131.533333"}, {"lat": "33.283333", "city": "Maebaru", "lon": "131.116667"}, {"lat": "32.966667", "city": "Makiguchi", "lon": "131.516667"}, {"lat": "32.783333", "city": "Maruichibi", "lon": "131.866667"}, {"lat": "32.783333", "city": "Maruichibiura", "lon": "131.866667"}, {"lat": "32.783333", "city": "Maruitibi", "lon": "131.866667"}, {"lat": "33.583333", "city": "Matsubara", "lon": "131.7"}, {"lat": "33.583333", "city": "Matsuhara", "lon": "131.7"}, {"lat": "33.566667", "city": "Matsuyuki", "lon": "131.516667"}, {"lat": "32.966667", "city": "Mie-machi", "lon": "131.583333"}, {"lat": "32.966667", "city": "Mie", "lon": "131.583333"}, {"lat": "33.716667", "city": "Minami-ura", "lon": "131.65"}, {"lat": "33.4", "city": "Morimi", "lon": "131.033333"}, {"lat": "33.3", "city": "Mori", "lon": "131.166667"}, {"lat": "33.4", "city": "Morisane", "lon": "131.033333"}, {"lat": "33.4", "city": "Morizane", "lon": "131.033333"}, {"lat": "33.366667", "city": "Morosuji", "lon": "130.883333"}, {"lat": "33.266667", "city": "Mukai Jima", "lon": "131.016667"}, {"lat": "33.266667", "city": "Mukaishima", "lon": "131.016667"}, {"lat": "33.266667", "city": "Mukojima", "lon": "131.016667"}, {"lat": "33.233333", "city": "Nagahamacho", "lon": "131.616667"}, {"lat": "33.233333", "city": "Nagahamamachi", "lon": "131.616667"}, {"lat": "33.233333", "city": "Nagahama", "lon": "131.616667"}, {"lat": "32.9", "city": "Nagano", "lon": "131.933333"}, {"lat": "33.569444", "city": "Nagasu", "lon": "131.370556"}, {"lat": "33.15", "city": "Naka-hetsugi", "lon": "131.65"}, {"lat": "33.166667", "city": "Nakamura", "lon": "131.216667"}, {"lat": "33.15", "city": "Naka-totsugi", "lon": "131.65"}, {"lat": "33.233333", "city": "Niagecho", "lon": "131.616667"}, {"lat": "33.233333", "city": "Niagemachi", "lon": "131.616667"}, {"lat": "33.066667", "city": "Niida", "lon": "131.35"}, {"lat": "33.066667", "city": "Nitta", "lon": "131.35"}, {"lat": "33.433333", "city": "Noharu", "lon": "131.5"}, {"lat": "32.8", "city": "Nonogawachi", "lon": "131.883333"}, {"lat": "32.8", "city": "Nonokawachi", "lon": "131.883333"}, {"lat": "32.8", "city": "Nonokochi", "lon": "131.883333"}, {"lat": "33.15", "city": "Notsuhara", "lon": "131.533333"}, {"lat": "33.15", "city": "Notsuharu", "lon": "131.533333"}, {"lat": "33.233333", "city": "Noya", "lon": "131.266667"}, {"lat": "33.15", "city": "Nozuharu", "lon": "131.533333"}, {"lat": "33.066667", "city": "Nukumi", "lon": "131.433333"}, {"lat": "32.816667", "city": "Obirakozan", "lon": "131.383333"}, {"lat": "32.816667", "city": "Obira", "lon": "131.383333"}, {"lat": "33.116667", "city": "Odomari", "lon": "131.833333"}, {"lat": "32.95", "city": "Ogora", "lon": "131.95"}, {"lat": "33.216667", "city": "Oguribayashi", "lon": "131.016667"}, {"lat": "33.133333", "city": "Ohama", "lon": "131.816667"}, {"lat": "32.9", "city": "Oharu", "lon": "131.45"}, {"lat": "32.816667", "city": "Ohira-kozan", "lon": "131.383333"}, {"lat": "33.25", "city": "Oiichi-machi", "lon": "131.6"}, {"lat": "33.238056", "city": "Oita-shi", "lon": "131.6125"}, {"lat": "32.95", "city": "Okawara", "lon": "131.95"}, {"lat": "32.95", "city": "Okora", "lon": "131.95"}, {"lat": "32.85", "city": "Onoichi", "lon": "131.633333"}, {"lat": "33.183333", "city": "Onoya", "lon": "131.45"}, {"lat": "33.366667", "city": "Osako", "lon": "131.083333"}, {"lat": "32.95", "city": "Oshima", "lon": "132.066667"}, {"lat": "33.116667", "city": "Otomari-ku", "lon": "131.833333"}, {"lat": "33.116667", "city": "Otomari", "lon": "131.833333"}, {"lat": "33.566667", "city": "Otome", "lon": "131.35"}, {"lat": "32.95", "city": "Saeki", "lon": "131.9"}, {"lat": "33.241111", "city": "Saganoseki", "lon": "131.872222"}, {"lat": "33.241111", "city": "Sagaseki", "lon": "131.872222"}, {"lat": "33.633333", "city": "Saihoji", "lon": "131.566667"}, {"lat": "32.95", "city": "Saiki", "lon": "131.9"}, {"lat": "33.233333", "city": "Sakanoichi", "lon": "131.75"}, {"lat": "32.85", "city": "Sangenya", "lon": "131.883333"}, {"lat": "32.85", "city": "Sangerya", "lon": "131.883333"}, {"lat": "33.166667", "city": "Sashioi", "lon": "131.833333"}, {"lat": "33.166667", "city": "Sashu", "lon": "131.833333"}, {"lat": "33.233333", "city": "Senzai", "lon": "131.666667"}, {"lat": "32.833333", "city": "Shigeoka", "lon": "131.666667"}, {"lat": "33.466667", "city": "Shimobaru", "lon": "131.716667"}, {"lat": "33.25", "city": "Shimo-era", "lon": "131.183333"}, {"lat": "33.433333", "city": "Shimoichi", "lon": "131.35"}, {"lat": "33.533333", "city": "Shimo-jiromaru", "lon": "131.733333"}, {"lat": "33.483333", "city": "Shimo-kutsukake", "lon": "131.55"}, {"lat": "33.183333", "city": "Shimoura", "lon": "131.866667"}, {"lat": "33.483333", "city": "Shindo", "lon": "131.333333"}, {"lat": "32.816667", "city": "Shinkiura", "lon": "131.55"}, {"lat": "32.85", "city": "Shiomizono", "lon": "131.7"}, {"lat": "33.45", "city": "Shioya", "lon": "131.716667"}, {"lat": "33.183333", "city": "Shitaura", "lon": "131.866667"}, {"lat": "32.816667", "city": "Skinkiura", "lon": "131.55"}, {"lat": "33.266667", "city": "Sozu", "lon": "131.083333"}, {"lat": "33.016667", "city": "Sugao", "lon": "131.616667"}, {"lat": "33.433333", "city": "Sugibata", "lon": "131.116667"}, {"lat": "33.433333", "city": "Sugihata", "lon": "131.116667"}, {"lat": "32.95", "city": "Sugo", "lon": "131.283333"}, {"lat": "32.883333", "city": "Tabaru", "lon": "131.316667"}, {"lat": "33.566667", "city": "Tabuka", "lon": "131.733333"}, {"lat": "33.116667", "city": "Tachiya", "lon": "131.833333"}, {"lat": "33.133333", "city": "Taiokinzan", "lon": "130.883333"}, {"lat": "33.133333", "city": "Taio", "lon": "130.883333"}, {"lat": "33.55", "city": "Takada", "lon": "131.45"}, {"lat": "33.55", "city": "Takata", "lon": "131.45"}, {"lat": "32.966667", "city": "Takedamachi", "lon": "131.4"}, {"lat": "32.966667", "city": "Takeda", "lon": "131.4"}, {"lat": "33.666667", "city": "Takedatsu", "lon": "131.566667"}, {"lat": "33.666667", "city": "Takedazu", "lon": "131.566667"}, {"lat": "32.816667", "city": "Takenoura-gawachi", "lon": "131.95"}, {"lat": "32.816667", "city": "Takenoura-gochi", "lon": "131.95"}, {"lat": "32.816667", "city": "Takenoura-kochi", "lon": "131.95"}, {"lat": "32.966667", "city": "Taketa-machi", "lon": "131.4"}, {"lat": "32.966667", "city": "Taketa", "lon": "131.4"}, {"lat": "33.666667", "city": "Taketatsu", "lon": "131.566667"}, {"lat": "33.666667", "city": "Taketazu", "lon": "131.566667"}, {"lat": "32.95", "city": "Tamarai", "lon": "131.383333"}, {"lat": "33.033333", "city": "Tanaka", "lon": "131.5"}, {"lat": "33.166667", "city": "Tano", "lon": "131.216667"}, {"lat": "33.483333", "city": "Tateishi", "lon": "131.466667"}, {"lat": "33.283333", "city": "Tohata", "lon": "131.1"}, {"lat": "33.516667", "city": "Tomikiyo", "lon": "131.633333"}, {"lat": "33.583333", "city": "Tomiku", "lon": "131.7"}, {"lat": "32.95", "city": "Toue", "lon": "131.316667"}, {"lat": "33.366667", "city": "Toyooka", "lon": "131.5"}, {"lat": "33.266667", "city": "Tsukawaki", "lon": "131.15"}, {"lat": "33.070556", "city": "Tsukumi", "lon": "131.857222"}, {"lat": "33.55", "city": "Tsurukawa", "lon": "131.733333"}, {"lat": "33.24", "city": "Tsurusaki", "lon": "131.684444"}, {"lat": "33.070556", "city": "Tukumi", "lon": "131.857222"}, {"lat": "33.433333", "city": "Uchigawano", "lon": "131.5"}, {"lat": "32.983333", "city": "Uematsu", "lon": "131.85"}, {"lat": "32.916667", "city": "Unebaru", "lon": "131.7"}, {"lat": "32.916667", "city": "Unehara", "lon": "131.7"}, {"lat": "32.916667", "city": "Uneharu", "lon": "131.7"}, {"lat": "33.1", "city": "Urajiro", "lon": "131.866667"}, {"lat": "32.916667", "city": "Urashiro", "lon": "131.983333"}, {"lat": "32.916667", "city": "Urasiro", "lon": "131.983333"}, {"lat": "33.108056", "city": "Usuki", "lon": "131.787778"}, {"lat": "33.2", "city": "Uwaura", "lon": "131.866667"}, {"lat": "33.416667", "city": "Wada", "lon": "130.933333"}, {"lat": "32.95", "city": "Yaishi", "lon": "132"}, {"lat": "33.466667", "city": "Yamaguchi", "lon": "131.25"}, {"lat": "33.466667", "city": "Yamaura", "lon": "131.65"}, {"lat": "33.466667", "city": "Yanase", "lon": "131.65"}, {"lat": "33.466667", "city": "Yanaze", "lon": "131.65"}, {"lat": "33.533333", "city": "Yokkaichi", "lon": "131.333333"}, {"lat": "33.383333", "city": "Yuwaya", "lon": "131.216667"}], "28": [{"lat": "34.2", "city": "Amagase", "lon": "135.983333"}, {"lat": "34.383333", "city": "Arako", "lon": "135.933333"}, {"lat": "34.383333", "city": "Atara shi", "lon": "135.933333"}, {"lat": "34.633333", "city": "Banjo", "lon": "135.8"}, {"lat": "34.483333", "city": "Bojo", "lon": "135.766667"}, {"lat": "34.45", "city": "Daito", "lon": "135.933333"}, {"lat": "34.6", "city": "Dogatani", "lon": "135.883333"}, {"lat": "34.6", "city": "Dogaya", "lon": "135.883333"}, {"lat": "34.5", "city": "Fujiwara", "lon": "135.8"}, {"lat": "34.5", "city": "Fujiwara-kyo", "lon": "135.8"}, {"lat": "34.5", "city": "Fujiwara-no-kyo", "lon": "135.8"}, {"lat": "34.416667", "city": "Funaji", "lon": "135.716667"}, {"lat": "34.416667", "city": "Funanchi", "lon": "135.716667"}, {"lat": "34.416667", "city": "Furnachi", "lon": "135.716667"}, {"lat": "34.6", "city": "Furu", "lon": "135.85"}, {"lat": "33.916667", "city": "Futatsuno", "lon": "135.783333"}, {"lat": "34.35", "city": "Goio", "lon": "135.7"}, {"lat": "34.35", "city": "Gojo", "lon": "135.7"}, {"lat": "34.45", "city": "Gosecho", "lon": "135.733333"}, {"lat": "34.45", "city": "Gose", "lon": "135.733333"}, {"lat": "34.45", "city": "Gosho", "lon": "135.733333"}, {"lat": "34.45", "city": "Goze", "lon": "135.733333"}, {"lat": "34.533333", "city": "Hagihara", "lon": "135.95"}, {"lat": "34.533333", "city": "Hagiwara", "lon": "135.95"}, {"lat": "34.533333", "city": "Haibara", "lon": "135.95"}, {"lat": "34.616667", "city": "Harigabessho", "lon": "135.966667"}, {"lat": "34.533333", "city": "Hase", "lon": "135.9"}, {"lat": "34.566667", "city": "Hashio", "lon": "135.75"}, {"lat": "34.533333", "city": "Hasse", "lon": "135.9"}, {"lat": "34.6", "city": "Higashi-ando", "lon": "135.75"}, {"lat": "34.483333", "city": "Higashi-bojo", "lon": "135.766667"}, {"lat": "33.933333", "city": "Hiradani", "lon": "135.766667"}, {"lat": "33.933333", "city": "Hiratani", "lon": "135.766667"}, {"lat": "34.616667", "city": "Hofuriuji", "lon": "135.733333"}, {"lat": "34.616667", "city": "Horyuji", "lon": "135.733333"}, {"lat": "34.616667", "city": "Ichinomoto", "lon": "135.816667"}, {"lat": "34.016667", "city": "Ikemine", "lon": "135.95"}, {"lat": "34.683333", "city": "Ikoma", "lon": "135.7"}, {"lat": "34.683333", "city": "Ikuma", "lon": "135.7"}, {"lat": "34.5", "city": "Imai", "lon": "135.783333"}, {"lat": "34.466667", "city": "Iwasaki", "lon": "135.966667"}, {"lat": "34.466667", "city": "Iwazaki", "lon": "135.966667"}, {"lat": "34.4", "city": "Kami-ichi", "lon": "135.85"}, {"lat": "34.033333", "city": "Kami-ikehara", "lon": "135.966667"}, {"lat": "34.45", "city": "Kami-ugashi", "lon": "136"}, {"lat": "34.45", "city": "Kamiu", "lon": "136"}, {"lat": "34.45", "city": "Kami-ukashi", "lon": "136"}, {"lat": "33.933333", "city": "Kami-yunokawa", "lon": "135.666667"}, {"lat": "34.316667", "city": "Karato", "lon": "135.766667"}, {"lat": "34.316667", "city": "Karoto", "lon": "135.766667"}, {"lat": "34.534717", "city": "Kashiba", "lon": "135.70925"}, {"lat": "34.45", "city": "Kashihara", "lon": "135.766667"}, {"lat": "34.45", "city": "Kashiwabara", "lon": "135.766667"}, {"lat": "33.95", "city": "Kashiwara", "lon": "135.783333"}, {"lat": "34.683333", "city": "Kasuga", "lon": "136.05"}, {"lat": "34.485624", "city": "Katsuragi", "lon": "135.696977"}, {"lat": "34.3", "city": "Kawado", "lon": "135.85"}, {"lat": "34.233333", "city": "Kawai", "lon": "135.85"}, {"lat": "34.033333", "city": "Kazaya", "lon": "135.783333"}, {"lat": "34.033333", "city": "Kazeya", "lon": "135.783333"}, {"lat": "34.616667", "city": "Koizumi", "lon": "135.75"}, {"lat": "34.516667", "city": "Koma", "lon": "135.9"}, {"lat": "33.983333", "city": "Komori", "lon": "135.783333"}, {"lat": "34.633333", "city": "Koriyama-cho", "lon": "135.783333"}, {"lat": "34.633333", "city": "Koriyama", "lon": "135.783333"}, {"lat": "34.666667", "city": "Mikarasucho", "lon": "135.833333"}, {"lat": "34.666667", "city": "Mima", "lon": "135.95"}, {"lat": "34.466667", "city": "Mise", "lon": "135.8"}, {"lat": "34.6", "city": "Mishima", "lon": "135.85"}, {"lat": "34.416667", "city": "Mitchaya", "lon": "135.933333"}, {"lat": "34.416667", "city": "Mitsuchaya", "lon": "135.933333"}, {"lat": "34.666667", "city": "Mitsugarasucho", "lon": "135.833333"}, {"lat": "34.416667", "city": "Mitsuja", "lon": "135.933333"}, {"lat": "34.416667", "city": "Mitsujya", "lon": "135.933333"}, {"lat": "34.666667", "city": "Mitsukarasucho", "lon": "135.833333"}, {"lat": "34.516667", "city": "Miwa", "lon": "135.85"}, {"lat": "34.433333", "city": "Muro", "lon": "135.733333"}, {"lat": "34.133333", "city": "Nagadano", "lon": "135.766667"}, {"lat": "34.133333", "city": "Nagadono", "lon": "135.766667"}, {"lat": "34.433333", "city": "Nagara", "lon": "135.716667"}, {"lat": "34.3", "city": "Nagatani", "lon": "135.8"}, {"lat": "34.133333", "city": "Nagatono", "lon": "135.766667"}, {"lat": "34.3", "city": "Nakado", "lon": "135.85"}, {"lat": "34.3", "city": "Nakato", "lon": "135.85"}, {"lat": "34.685278", "city": "Nara-shi", "lon": "135.832778"}, {"lat": "34.6", "city": "Nikaido", "lon": "135.8"}, {"lat": "34.483333", "city": "Nishi-bojo", "lon": "135.75"}, {"lat": "34.683333", "city": "Nishihata", "lon": "136.033333"}, {"lat": "34.683333", "city": "Noboriojicho", "lon": "135.75"}, {"lat": "34.683333", "city": "Noborioji", "lon": "135.75"}, {"lat": "34.333333", "city": "Nohara", "lon": "135.7"}, {"lat": "34.333333", "city": "Nowara", "lon": "135.7"}, {"lat": "33.933333", "city": "Obiso", "lon": "135.666667"}, {"lat": "34.45", "city": "Ohigashi", "lon": "135.933333"}, {"lat": "33.95", "city": "Oritachi", "lon": "135.8"}, {"lat": "33.95", "city": "Oritate", "lon": "135.8"}, {"lat": "34.466667", "city": "Ouda", "lon": "135.933333"}, {"lat": "34.7", "city": "O-yagyucho", "lon": "135.933333"}, {"lat": "34.7", "city": "O-yagyu", "lon": "135.933333"}, {"lat": "34.566667", "city": "Oyamato", "lon": "135.833333"}, {"lat": "34.2", "city": "Sakamoto", "lon": "135.733333"}, {"lat": "34.5", "city": "Sakurai", "lon": "135.85"}, {"lat": "34.5", "city": "Sakuri", "lon": "135.85"}, {"lat": "34.566667", "city": "Sambommatsu", "lon": "136.016667"}, {"lat": "34.383333", "city": "Shimobuchi", "lon": "135.783333"}, {"lat": "34.366667", "city": "Shimo-ichi", "lon": "135.783333"}, {"lat": "34.033333", "city": "Shimo-ikehara", "lon": "135.966667"}, {"lat": "34.583333", "city": "Shimonosho", "lon": "135.7"}, {"lat": "34.483333", "city": "Shinjo", "lon": "135.716667"}, {"lat": "34.483333", "city": "Shinsho", "lon": "135.716667"}, {"lat": "34.25", "city": "Shionoha", "lon": "136.05"}, {"lat": "34.1", "city": "Shirakawa", "lon": "135.983333"}, {"lat": "34.516667", "city": "Soga", "lon": "135.783333"}, {"lat": "34.55", "city": "Taharamoto", "lon": "135.8"}, {"lat": "34.5", "city": "Takadacho", "lon": "135.733333"}, {"lat": "34.5", "city": "Takada", "lon": "135.733333"}, {"lat": "34.5", "city": "Takata", "lon": "135.733333"}, {"lat": "33.966667", "city": "Tamagaido", "lon": "135.733333"}, {"lat": "33.966667", "city": "Tama-gaito", "lon": "135.733333"}, {"lat": "33.966667", "city": "Tama-kaido", "lon": "135.733333"}, {"lat": "33.966667", "city": "Tama-kakinai", "lon": "135.733333"}, {"lat": "34.6", "city": "Tambaichi", "lon": "135.833333"}, {"lat": "34.6", "city": "Tatsutacho", "lon": "135.716667"}, {"lat": "34.6", "city": "Tatsuta", "lon": "135.716667"}, {"lat": "34.55", "city": "Tawaramoto", "lon": "135.8"}, {"lat": "34.2", "city": "Tengase", "lon": "135.983333"}, {"lat": "34.583333", "city": "Tenri", "lon": "135.833333"}, {"lat": "34.433333", "city": "Toge", "lon": "135.75"}, {"lat": "34.433333", "city": "Toke", "lon": "135.75"}, {"lat": "34.433333", "city": "Tosa", "lon": "135.8"}, {"lat": "34.383333", "city": "Tsuchida", "lon": "135.816667"}, {"lat": "34.383333", "city": "Tsuchita", "lon": "135.816667"}, {"lat": "34.383333", "city": "Tsutta", "lon": "135.816667"}, {"lat": "34.459961", "city": "Uda", "lon": "135.944677"}, {"lat": "34.083333", "city": "Uenochi", "lon": "135.75"}, {"lat": "34.083333", "city": "Uenoji", "lon": "135.75"}, {"lat": "34.45", "city": "Ugashi", "lon": "136"}, {"lat": "34.483333", "city": "Unebi", "lon": "135.783333"}, {"lat": "34.483333", "city": "Unehi", "lon": "135.783333"}, {"lat": "34.2", "city": "Wada", "lon": "135.816667"}, {"lat": "34.416667", "city": "Washika", "lon": "135.983333"}, {"lat": "34.416667", "city": "Washiya", "lon": "135.983333"}, {"lat": "34.516667", "city": "Yagi", "lon": "135.8"}, {"lat": "34.716667", "city": "Yagyucho", "lon": "135.95"}, {"lat": "34.7", "city": "Yagyu-go", "lon": "135.933333"}, {"lat": "34.733333", "city": "Yagyu-shimocho", "lon": "135.95"}, {"lat": "34.733333", "city": "Yagyu-shimo", "lon": "135.95"}, {"lat": "34.733333", "city": "Yagyu-shita", "lon": "135.95"}, {"lat": "34.7", "city": "Yagyu", "lon": "135.933333"}, {"lat": "34.483333", "city": "Yamagasu", "lon": "136.1"}, {"lat": "34.483333", "city": "Yamakasu", "lon": "136.1"}, {"lat": "34.645179", "city": "Yamato-Koriyama", "lon": "135.799628"}, {"lat": "34.516667", "city": "Yamato-Takada", "lon": "135.75"}, {"lat": "34.566667", "city": "Yamato", "lon": "135.833333"}, {"lat": "34.55", "city": "Yanagimoto", "lon": "135.85"}, {"lat": "34.466667", "city": "Yuwasaki", "lon": "135.966667"}, {"lat": "34.366667", "city": "Zengi", "lon": "135.8"}, {"lat": "34.366667", "city": "Zenki", "lon": "135.8"}], "22": [{"lat": "35.683333", "city": "Amino", "lon": "135.033333"}, {"lat": "34.983333", "city": "Anju", "lon": "135.816667"}, {"lat": "34.983333", "city": "Anshucho", "lon": "135.816667"}, {"lat": "35.683333", "city": "Asamogawa", "lon": "135.016667"}, {"lat": "35.683333", "city": "Asamokawa", "lon": "135.016667"}, {"lat": "35.3", "city": "Ashiu", "lon": "135.7"}, {"lat": "35.3", "city": "Ashu", "lon": "135.7"}, {"lat": "35.3", "city": "Ayabe", "lon": "135.25"}, {"lat": "35.509444", "city": "Chitose", "lon": "135.347778"}, {"lat": "34.95", "city": "Daigocho", "lon": "135.816667"}, {"lat": "34.95", "city": "Daigo", "lon": "135.816667"}, {"lat": "35.3", "city": "Fukuchiyama", "lon": "135.116667"}, {"lat": "34.75", "city": "Funaya", "lon": "135.866667"}, {"lat": "34.933333", "city": "Fushimi", "lon": "135.766667"}, {"lat": "35.753333", "city": "Gamanyu", "lon": "135.25"}, {"lat": "35", "city": "Giommachi", "lon": "135.783333"}, {"lat": "35", "city": "Gion", "lon": "135.783333"}, {"lat": "34.833333", "city": "Gonokuchi", "lon": "135.85"}, {"lat": "35.05", "city": "Habu", "lon": "135.45"}, {"lat": "35.603056", "city": "Hama", "lon": "135.221389"}, {"lat": "35.2", "city": "Hanase-ofusecho", "lon": "135.783333"}, {"lat": "35.166667", "city": "Hashitsume", "lon": "135.366667"}, {"lat": "35.166667", "city": "Hashizume", "lon": "135.366667"}, {"lat": "35.541667", "city": "Hibiki", "lon": "135.472222"}, {"lat": "35.671667", "city": "Hide", "lon": "135.28"}, {"lat": "35.466667", "city": "Higashi-maizuru", "lon": "135.4"}, {"lat": "35.266667", "city": "Hinobe", "lon": "135.266667"}, {"lat": "35.675556", "city": "Hirata", "lon": "135.28"}, {"lat": "35.266667", "city": "Hiraya", "lon": "135.583333"}, {"lat": "35.765", "city": "Honjohama", "lon": "135.271667"}, {"lat": "35.25", "city": "Honjo", "lon": "135.4"}, {"lat": "35.733333", "city": "Honjo-uji", "lon": "135.25"}, {"lat": "35.25", "city": "Horikoshi", "lon": "135.216667"}, {"lat": "35.3", "city": "Hukutiyama", "lon": "135.116667"}, {"lat": "35.2", "city": "Ido", "lon": "135.7"}, {"lat": "35.666667", "city": "Ine", "lon": "135.283333"}, {"lat": "35.533333", "city": "Ishikawa", "lon": "135.133333"}, {"lat": "35.483333", "city": "Itsumori", "lon": "135.35"}, {"lat": "35.483333", "city": "Itsutsumori", "lon": "135.35"}, {"lat": "35.483333", "city": "Itunomori", "lon": "135.35"}, {"lat": "35.66", "city": "Iwagahana", "lon": "135.261111"}, {"lat": "35.083333", "city": "Iwakura", "lon": "135.783333"}, {"lat": "35.566667", "city": "Iwataki", "lon": "135.15"}, {"lat": "35.543333", "city": "Joshi", "lon": "135.233333"}, {"lat": "35.753333", "city": "Kamanyu", "lon": "135.25"}, {"lat": "35", "city": "Kameoka", "lon": "135.583333"}, {"lat": "35.666667", "city": "Kameshima", "lon": "135.283333"}, {"lat": "35.266667", "city": "Kami-hiraya", "lon": "135.583333"}, {"lat": "34.75", "city": "Kamikoma", "lon": "135.816667"}, {"lat": "35.5", "city": "Kami-sabaga", "lon": "135.366667"}, {"lat": "35.5", "city": "Kami-Sabaka", "lon": "135.366667"}, {"lat": "35.633333", "city": "Kami-seya", "lon": "135.183333"}, {"lat": "34.966667", "city": "Kami-tobacho", "lon": "135.733333"}, {"lat": "34.966667", "city": "Kami-toba", "lon": "135.733333"}, {"lat": "35.510556", "city": "Kanzaki", "lon": "135.304444"}, {"lat": "34.983333", "city": "Karahashi-rajomoncho", "lon": "135.733333"}, {"lat": "34.983333", "city": "Karahashi Rashomon", "lon": "135.733333"}, {"lat": "34.75", "city": "Kasagi", "lon": "135.933333"}, {"lat": "34.983333", "city": "Katsuracho", "lon": "135.7"}, {"lat": "34.983333", "city": "Katsura", "lon": "135.7"}, {"lat": "35.6", "city": "Kawabe", "lon": "135.1"}, {"lat": "34.75", "city": "Kawahara", "lon": "135.866667"}, {"lat": "34.75", "city": "Kawara", "lon": "135.866667"}, {"lat": "35.5", "city": "Kaya", "lon": "135.1"}, {"lat": "35.35", "city": "Kazuka", "lon": "134.95"}, {"lat": "35.633333", "city": "Kazurano", "lon": "134.916667"}, {"lat": "35", "city": "Keage", "lon": "135.783333"}, {"lat": "35.483333", "city": "Kichisaka", "lon": "135.45"}, {"lat": "35.483333", "city": "Kichisaki", "lon": "135.45"}, {"lat": "35.033333", "city": "Kinugasa", "lon": "135.733333"}, {"lat": "35.021389", "city": "Kioto", "lon": "135.755556"}, {"lat": "35.483333", "city": "Kissaka", "lon": "135.45"}, {"lat": "34.75", "city": "Kita-kawara", "lon": "135.866667"}, {"lat": "34.733333", "city": "Kizu", "lon": "135.816667"}, {"lat": "34.733333", "city": "Kizumachi", "lon": "135.816667"}, {"lat": "35.6", "city": "Kobe", "lon": "135.1"}, {"lat": "35.383333", "city": "Komori", "lon": "135.15"}, {"lat": "34.916667", "city": "Kotari", "lon": "135.7"}, {"lat": "35.583333", "city": "Kuchi-ono", "lon": "135.1"}, {"lat": "35.6", "city": "Kumihama", "lon": "134.916667"}, {"lat": "35.416667", "city": "Kumobara", "lon": "135.066667"}, {"lat": "35.416667", "city": "Kumohara", "lon": "135.066667"}, {"lat": "35.55", "city": "Kunda", "lon": "135.233333"}, {"lat": "35.45", "city": "Kuradani", "lon": "135.333333"}, {"lat": "35.116667", "city": "Kurama", "lon": "135.766667"}, {"lat": "35.45", "city": "Kuratami", "lon": "135.333333"}, {"lat": "35.45", "city": "Kuratani", "lon": "135.333333"}, {"lat": "35.55", "city": "Kurida", "lon": "135.233333"}, {"lat": "35.383333", "city": "Kurodani", "lon": "135.316667"}, {"lat": "35.383333", "city": "Kurotanicho", "lon": "135.316667"}, {"lat": "35.383333", "city": "Kurotani", "lon": "135.316667"}, {"lat": "35.416667", "city": "Kutami", "lon": "135.25"}, {"lat": "35.633333", "city": "Kuzuno", "lon": "134.916667"}, {"lat": "35.45", "city": "Kyoguchi", "lon": "135.333333"}, {"lat": "35.021389", "city": "Kyoto-shi", "lon": "135.755556"}, {"lat": "35.45", "city": "Maidsuru", "lon": "135.333333"}, {"lat": "35.45", "city": "Maiduru", "lon": "135.333333"}, {"lat": "35.45", "city": "Maizuru", "lon": "135.333333"}, {"lat": "35.516667", "city": "Migochi", "lon": "135.1"}, {"lat": "35.556667", "city": "Mihama", "lon": "135.391667"}, {"lat": "35.516667", "city": "Mikochi", "lon": "135.1"}, {"lat": "35.25", "city": "Mimata", "lon": "135.2"}, {"lat": "35.556667", "city": "Minama", "lon": "135.391667"}, {"lat": "35.383333", "city": "Minami-ariji", "lon": "135.183333"}, {"lat": "34.983333", "city": "Minamijo", "lon": "135.55"}, {"lat": "34.75", "city": "Minami-kasagi", "lon": "135.933333"}, {"lat": "35.633333", "city": "Minatomiya", "lon": "134.9"}, {"lat": "35.616667", "city": "Mineyama", "lon": "135.066667"}, {"lat": "35.533333", "city": "Miyazu", "lon": "135.183333"}, {"lat": "35.65", "city": "Mizotani-ko", "lon": "135.1"}, {"lat": "35.65", "city": "Mizotani", "lon": "135.1"}, {"lat": "35.65", "city": "Mizotani-otsu", "lon": "135.116667"}, {"lat": "35.266667", "city": "Mizusu", "lon": "135.316667"}, {"lat": "34.95", "city": "Momoyama-cho", "lon": "135.783333"}, {"lat": "35.55", "city": "Monju", "lon": "135.183333"}, {"lat": "35.35", "city": "Monobe", "lon": "135.216667"}, {"lat": "35.35", "city": "Mononobe", "lon": "135.216667"}, {"lat": "35.55", "city": "Monshu", "lon": "135.183333"}, {"lat": "34.933333", "city": "Muko", "lon": "135.7"}, {"lat": "35.653333", "city": "Nagae", "lon": "135.253333"}, {"lat": "34.833333", "city": "Nagaike", "lon": "135.8"}, {"lat": "35.516667", "city": "Nakada", "lon": "135.383333"}, {"lat": "35.75", "city": "Nakahama", "lon": "135.183333"}, {"lat": "35.466667", "city": "Naka-maizuru", "lon": "135.366667"}, {"lat": "35.316667", "city": "Nakamura", "lon": "135.633333"}, {"lat": "35.316667", "city": "Naka", "lon": "135.633333"}, {"lat": "35.266667", "city": "Nakasuji-hinobe", "lon": "135.266667"}, {"lat": "35.266667", "city": "Nakasuji", "lon": "135.266667"}, {"lat": "35.516667", "city": "Nakata", "lon": "135.383333"}, {"lat": "35.556111", "city": "Nakatsu", "lon": "135.235278"}, {"lat": "34.983333", "city": "Nanjo", "lon": "135.55"}, {"lat": "35.58", "city": "Nariu", "lon": "135.446667"}, {"lat": "35.693333", "city": "Nii", "lon": "135.302778"}, {"lat": "35.033333", "city": "Nishijin", "lon": "135.75"}, {"lat": "34.983333", "city": "Nishi-kujo-Toriiguchicho", "lon": "135.75"}, {"lat": "35", "city": "Nishinotoindori", "lon": "135.75"}, {"lat": "35", "city": "Nishinotoin", "lon": "135.75"}, {"lat": "35.35", "city": "Nobuchika", "lon": "135.316667"}, {"lat": "35.566667", "city": "Nohara", "lon": "135.423333"}, {"lat": "35.35", "city": "Nomi", "lon": "134.95"}, {"lat": "35.725", "city": "Nomuro", "lon": "135.283333"}, {"lat": "35.583333", "city": "Nonaka", "lon": "134.95"}, {"lat": "35.5", "city": "Oba-kami", "lon": "135.416667"}, {"lat": "35.25", "city": "Obara", "lon": "135.3"}, {"lat": "35.560556", "city": "Obase", "lon": "135.401667"}, {"lat": "35.5", "city": "Oba-shimo", "lon": "135.416667"}, {"lat": "35.5", "city": "Oba-Simo", "lon": "135.416667"}, {"lat": "35.2", "city": "Obuse", "lon": "135.783333"}, {"lat": "35.565", "city": "Odashukuno", "lon": "135.238333"}, {"lat": "35.2", "city": "Ofuse", "lon": "135.783333"}, {"lat": "34.9", "city": "Oguracho", "lon": "135.783333"}, {"lat": "34.9", "city": "Oguramachi", "lon": "135.783333"}, {"lat": "34.9", "city": "Ogura", "lon": "135.783333"}, {"lat": "35.116667", "city": "Ohara", "lon": "135.833333"}, {"lat": "35.116667", "city": "Ohara-Uenocho", "lon": "135.833333"}, {"lat": "34.983333", "city": "Oji", "lon": "135.616667"}, {"lat": "35.033333", "city": "Okitayama-Kinugasayama", "lon": "135.733333"}, {"lat": "35.2", "city": "Okuse", "lon": "135.783333"}, {"lat": "35.283333", "city": "Ono", "lon": "135.516667"}, {"lat": "35.516667", "city": "Onyo", "lon": "135.35"}, {"lat": "35.516667", "city": "Onyu", "lon": "135.35"}, {"lat": "35.667778", "city": "Oshima", "lon": "135.268056"}, {"lat": "35.016667", "city": "Otani", "lon": "135.533333"}, {"lat": "35.516667", "city": "Otanu", "lon": "135.35"}, {"lat": "35.016667", "city": "Ota", "lon": "135.533333"}, {"lat": "34.933333", "city": "Rokujizo", "lon": "135.8"}, {"lat": "35.5", "city": "Sabaka", "lon": "135.366667"}, {"lat": "35.016667", "city": "Saeki", "lon": "135.533333"}, {"lat": "35.016667", "city": "Sagano", "lon": "135.7"}, {"lat": "35.016667", "city": "Saga", "lon": "135.683333"}, {"lat": "35", "city": "Saiin-mura", "lon": "135.733333"}, {"lat": "35", "city": "Saiin", "lon": "135.733333"}, {"lat": "35.016667", "city": "Saiki", "lon": "135.533333"}, {"lat": "35", "city": "Sain-mura", "lon": "135.733333"}, {"lat": "35", "city": "Sain", "lon": "135.733333"}, {"lat": "35.283333", "city": "Sasari", "lon": "135.7"}, {"lat": "35.626667", "city": "Satohami", "lon": "135.243333"}, {"lat": "35", "city": "Seidoindori", "lon": "135.75"}, {"lat": "35.5425", "city": "Sezaki", "lon": "135.35"}, {"lat": "35", "city": "Shijodori", "lon": "135.75"}, {"lat": "35.574722", "city": "Shimakage", "lon": "135.248889"}, {"lat": "35.016667", "city": "Shimmachidori", "lon": "135.766667"}, {"lat": "35.016667", "city": "Shimo-dachiyuuridori", "lon": "135.75"}, {"lat": "35.1", "city": "Shimoku", "lon": "135.6"}, {"lat": "35.016667", "city": "Shimo-saga", "lon": "135.683333"}, {"lat": "35.016667", "city": "Shimotachiuri-dori-agaru", "lon": "135.75"}, {"lat": "35.016667", "city": "Shimo-tachiuridori", "lon": "135.75"}, {"lat": "35.466667", "city": "Shin-maizuru", "lon": "135.4"}, {"lat": "34.983333", "city": "Shinomiyacho", "lon": "135.833333"}, {"lat": "34.983333", "city": "Shinomiya", "lon": "135.816667"}, {"lat": "35.666667", "city": "Shioe", "lon": "134.966667"}, {"lat": "35.483333", "city": "Shirasugi", "lon": "135.333333"}, {"lat": "34.883333", "city": "Shitsugawa", "lon": "135.833333"}, {"lat": "34.883333", "city": "Shitsukawa", "lon": "135.833333"}, {"lat": "34.883333", "city": "Shizu Gawa", "lon": "135.833333"}, {"lat": "35.15", "city": "Shuchi", "lon": "135.416667"}, {"lat": "35.15", "city": "Shuzan", "lon": "135.633333"}, {"lat": "35.766667", "city": "Sodeshi", "lon": "135.2"}, {"lat": "35.1", "city": "Sonobe", "lon": "135.466667"}, {"lat": "35.15", "city": "Suchi", "lon": "135.416667"}, {"lat": "35.583333", "city": "Suki", "lon": "135.1"}, {"lat": "34.816667", "city": "Taga", "lon": "135.8"}, {"lat": "35.516667", "city": "Taira", "lon": "135.383333"}, {"lat": "35.566667", "city": "Tai", "lon": "135.45"}, {"lat": "35.733333", "city": "Taiza", "lon": "135.083333"}, {"lat": "34.816667", "city": "Taka-mura", "lon": "135.8"}, {"lat": "35.316667", "city": "Takanosu", "lon": "135.316667"}, {"lat": "35.433333", "city": "Takanoyuri", "lon": "135.316667"}, {"lat": "35.3", "city": "Takasu", "lon": "135.316667"}, {"lat": "34.816667", "city": "Taka", "lon": "135.8"}, {"lat": "34.8", "city": "Tamamizu", "lon": "135.8"}, {"lat": "35.633333", "city": "Tamba", "lon": "135.066667"}, {"lat": "34.816667", "city": "Tanabe", "lon": "135.766667"}, {"lat": "35.733333", "city": "Tango", "lon": "135.083333"}, {"lat": "34.85", "city": "Terada", "lon": "135.766667"}, {"lat": "35.366667", "city": "Teramachi", "lon": "135.4"}, {"lat": "35.703333", "city": "Tomari", "lon": "135.286667"}, {"lat": "35.15", "city": "Tonoda", "lon": "135.5"}, {"lat": "35.712778", "city": "Tsumo", "lon": "135.283333"}, {"lat": "35.2", "city": "Ubara", "lon": "135.25"}, {"lat": "35.116667", "city": "Ueno", "lon": "135.833333"}, {"lat": "35.35", "city": "Uesugi", "lon": "135.316667"}, {"lat": "34.883333", "city": "Uji-cho", "lon": "135.8"}, {"lat": "34.883333", "city": "Uji", "lon": "135.8"}, {"lat": "35.25", "city": "Wachi", "lon": "135.4"}, {"lat": "35.535", "city": "Waki", "lon": "135.236667"}, {"lat": "35.066667", "city": "Yagi", "lon": "135.533333"}, {"lat": "34.866667", "city": "Yahatanosho", "lon": "135.7"}, {"lat": "34.866667", "city": "Yahatasho", "lon": "135.7"}, {"lat": "34.866667", "city": "Yahata", "lon": "135.7"}, {"lat": "35.3", "city": "Yamaga", "lon": "135.316667"}, {"lat": "35.366667", "city": "Yatsuai", "lon": "135.4"}, {"lat": "35.568333", "city": "Yawara", "lon": "135.225"}, {"lat": "34.866667", "city": "Yawatasho", "lon": "135.7"}, {"lat": "34.866667", "city": "Yawata", "lon": "135.7"}, {"lat": "34.9", "city": "Yodo", "lon": "135.716667"}, {"lat": "35.533333", "city": "Yotsuji", "lon": "135.1"}, {"lat": "35.533333", "city": "Yotsutsuji", "lon": "135.1"}, {"lat": "35.2", "city": "Yotsuya", "lon": "135.533333"}, {"lat": "35.516667", "city": "Yura", "lon": "135.283333"}], "43": [{"lat": "33.6", "city": "Ago", "lon": "135.483333"}, {"lat": "34.216667", "city": "Akizuki", "lon": "135.2"}, {"lat": "33.65", "city": "Amidaji", "lon": "135.9"}, {"lat": "33.533333", "city": "Arafune", "lon": "135.9"}, {"lat": "33.483333", "city": "Arida", "lon": "135.733333"}, {"lat": "33.483333", "city": "Arita", "lon": "135.733333"}, {"lat": "33.6", "city": "Asakuragi", "lon": "135.4"}, {"lat": "33.6", "city": "Asaragi", "lon": "135.4"}, {"lat": "33.7", "city": "Asso", "lon": "135.416667"}, {"lat": "33.816667", "city": "Chikatsuyu", "lon": "135.6"}, {"lat": "33.583333", "city": "Daiji", "lon": "135.95"}, {"lat": "34.183333", "city": "Dejima", "lon": "135.15"}, {"lat": "34.183333", "city": "Deshima", "lon": "135.15"}, {"lat": "33.833333", "city": "Doyukawa", "lon": "135.683333"}, {"lat": "33.983333", "city": "Ena", "lon": "135.1"}, {"lat": "33.5", "city": "Esumi", "lon": "135.6"}, {"lat": "33.9", "city": "Fujii", "lon": "135.183333"}, {"lat": "33.9", "city": "Fujita", "lon": "135.183333"}, {"lat": "33.816667", "city": "Fukusada", "lon": "135.566667"}, {"lat": "34.25", "city": "Funato", "lon": "135.316667"}, {"lat": "33.95", "city": "Funatsu", "lon": "135.266667"}, {"lat": "33.783333", "city": "Funodani", "lon": "135.766667"}, {"lat": "33.8", "city": "Furuyadani", "lon": "135.383333"}, {"lat": "33.8", "city": "Furuyatani", "lon": "135.383333"}, {"lat": "33.683333", "city": "Ganokawa", "lon": "135.566667"}, {"lat": "33.883333", "city": "Gobo", "lon": "135.15"}, {"lat": "33.683333", "city": "Gokawa", "lon": "135.566667"}, {"lat": "33.866667", "city": "Hagi", "lon": "135.766667"}, {"lat": "33.883333", "city": "Hamanose", "lon": "135.15"}, {"lat": "33.883333", "city": "Hamanoseura", "lon": "135.15"}, {"lat": "33.75", "city": "Haneda", "lon": "135.333333"}, {"lat": "33.75", "city": "Haneta", "lon": "135.333333"}, {"lat": "33.966667", "city": "Haradani", "lon": "135.15"}, {"lat": "33.966667", "city": "Hara", "lon": "135.15"}, {"lat": "33.966667", "city": "Haratani", "lon": "135.15"}, {"lat": "34.316667", "city": "Hashimoto", "lon": "135.616667"}, {"lat": "34.316667", "city": "Hasimoto", "lon": "135.616667"}, {"lat": "33.816667", "city": "Hegawa", "lon": "135.333333"}, {"lat": "33.816667", "city": "Hekawa", "lon": "135.333333"}, {"lat": "33.566667", "city": "Heki", "lon": "135.45"}, {"lat": "33.883333", "city": "Hidaka", "lon": "135.15"}, {"lat": "33.8", "city": "Higashi-honjo", "lon": "135.333333"}, {"lat": "33.783333", "city": "Higashi-iwashiro", "lon": "135.283333"}, {"lat": "34.266667", "city": "Higashi-shibuta", "lon": "135.483333"}, {"lat": "33.916667", "city": "Hii", "lon": "135.083333"}, {"lat": "33.916667", "city": "Hiiura", "lon": "135.083333"}, {"lat": "33.566667", "city": "Hikicho", "lon": "135.45"}, {"lat": "33.566667", "city": "Hiki", "lon": "135.45"}, {"lat": "33.766667", "city": "Hirase", "lon": "135.583333"}, {"lat": "34.266667", "city": "Hironishi", "lon": "135.233333"}, {"lat": "33.8", "city": "Hitari", "lon": "135.866667"}, {"lat": "33.833333", "city": "Hongu", "lon": "135.766667"}, {"lat": "34.2", "city": "Hono", "lon": "135.316667"}, {"lat": "33.916667", "city": "Hosobara", "lon": "135.483333"}, {"lat": "33.916667", "city": "Hosohara", "lon": "135.483333"}, {"lat": "34.15", "city": "Ichiba", "lon": "135.35"}, {"lat": "33.65", "city": "Ichikano", "lon": "135.533333"}, {"lat": "34.25", "city": "Iimori", "lon": "135.433333"}, {"lat": "34.25", "city": "Iimorikozan", "lon": "135.433333"}, {"lat": "33.8", "city": "Inami", "lon": "135.216667"}, {"lat": "33.466667", "city": "Itsumo", "lon": "135.8"}, {"lat": "33.7", "city": "Iwada", "lon": "135.45"}, {"lat": "33.7", "city": "Iwada-mura", "lon": "135.45"}, {"lat": "34.25", "city": "Iwade", "lon": "135.316667"}, {"lat": "34.05", "city": "Iwanogawa", "lon": "135.333333"}, {"lat": "34.05", "city": "Iwanokawa", "lon": "135.333333"}, {"lat": "33.783333", "city": "Iwashiro", "lon": "135.283333"}, {"lat": "33.7", "city": "Iwata", "lon": "135.45"}, {"lat": "33.466667", "city": "Izumo", "lon": "135.8"}, {"lat": "33.583333", "city": "Jige", "lon": "135.7"}, {"lat": "33.583333", "city": "Jishimo", "lon": "135.7"}, {"lat": "33.8", "city": "Jujo", "lon": "135.55"}, {"lat": "33.883333", "city": "Kabora", "lon": "135.333333"}, {"lat": "34.266667", "city": "Kada", "lon": "135.066667"}, {"lat": "34.266667", "city": "Kagaya", "lon": "135.383333"}, {"lat": "34.266667", "city": "Kagoya", "lon": "135.383333"}, {"lat": "34.15", "city": "Kainan", "lon": "135.2"}, {"lat": "33.75", "city": "Kami-misu", "lon": "135.433333"}, {"lat": "33.75", "city": "Kami-naga", "lon": "135.85"}, {"lat": "33.983333", "city": "Kami-ubuyu-gawa", "lon": "135.416667"}, {"lat": "33.983333", "city": "Kami-ubuyugawa", "lon": "135.416667"}, {"lat": "33.983333", "city": "Kami-ubuyukawa", "lon": "135.416667"}, {"lat": "33.716667", "city": "Kamo", "lon": "135.483333"}, {"lat": "34.066667", "city": "Kanaya", "lon": "135.25"}, {"lat": "33.683333", "city": "Kanayama", "lon": "135.35"}, {"lat": "34.1", "city": "Karekawa", "lon": "135.133333"}, {"lat": "34.266667", "city": "Karijiku", "lon": "135.433333"}, {"lat": "34.266667", "city": "Karishuku", "lon": "135.433333"}, {"lat": "33.85", "city": "Karuigawa", "lon": "135.4"}, {"lat": "34.283333", "city": "Kasada", "lon": "135.466667"}, {"lat": "34.283333", "city": "Kasada-naka", "lon": "135.466667"}, {"lat": "34.283333", "city": "Kaseda", "lon": "135.466667"}, {"lat": "34.283333", "city": "Kaseda-naka", "lon": "135.466667"}, {"lat": "33.466667", "city": "Kashino", "lon": "135.85"}, {"lat": "33.466667", "city": "Kashinoura", "lon": "135.85"}, {"lat": "33.6", "city": "Kashiyama", "lon": "135.816667"}, {"lat": "33.616667", "city": "Katsuura", "lon": "135.933333"}, {"lat": "34.25", "city": "Kawanabe", "lon": "135.266667"}, {"lat": "33.983333", "city": "Kawarago", "lon": "135.366667"}, {"lat": "34.183333", "city": "Kimidera", "lon": "135.2"}, {"lat": "34.183333", "city": "Kimiidera", "lon": "135.2"}, {"lat": "34.269735", "city": "Kinokawa", "lon": "135.41045"}, {"lat": "33.883333", "city": "Kiribe-tsuji", "lon": "135.416667"}, {"lat": "33.883333", "city": "Kirimetsuji", "lon": "135.416667"}, {"lat": "33.716667", "city": "Kitahara", "lon": "135.4"}, {"lat": "34.233333", "city": "Kita-marusu", "lon": "135.316667"}, {"lat": "34.083333", "city": "Kitaminato", "lon": "135.1"}, {"lat": "33.866667", "city": "Kita-shioya", "lon": "135.166667"}, {"lat": "33.866667", "city": "Kobara", "lon": "135.3"}, {"lat": "33.833333", "city": "Kobune", "lon": "135.85"}, {"lat": "33.833333", "city": "Kofune", "lon": "135.85"}, {"lat": "33.683333", "city": "Kogaa", "lon": "135.566667"}, {"lat": "33.683333", "city": "Kogawa", "lon": "135.566667"}, {"lat": "33.75", "city": "Koguchi", "lon": "135.85"}, {"lat": "33.866667", "city": "Kohara", "lon": "135.3"}, {"lat": "34.266667", "city": "Kokawacho", "lon": "135.4"}, {"lat": "34.266667", "city": "Kokawa", "lon": "135.4"}, {"lat": "34.233333", "city": "Komatsubaradori", "lon": "135.166667"}, {"lat": "33.9", "city": "Komatsubara", "lon": "135.166667"}, {"lat": "33.9", "city": "Komatsuhara", "lon": "135.166667"}, {"lat": "34.116667", "city": "Kominami", "lon": "135.166667"}, {"lat": "33.683333", "city": "Komugi", "lon": "135.816667"}, {"lat": "34.116667", "city": "Konan", "lon": "135.166667"}, {"lat": "34.15", "city": "Kono-ichiba", "lon": "135.35"}, {"lat": "34.3", "city": "Koyaguchi-cho", "lon": "135.55"}, {"lat": "34.3", "city": "Koyaguchi", "lon": "135.55"}, {"lat": "34.216667", "city": "Koyasan", "lon": "135.583333"}, {"lat": "33.516667", "city": "Koza", "lon": "135.833333"}, {"lat": "34.283333", "city": "Kudoyama", "lon": "135.566667"}, {"lat": "33.783333", "city": "Kurisugawa", "lon": "135.516667"}, {"lat": "33.783333", "city": "Kurisukawa", "lon": "135.516667"}, {"lat": "33.783333", "city": "Kurusugawa", "lon": "135.516667"}, {"lat": "33.783333", "city": "Kurusukawa", "lon": "135.516667"}, {"lat": "33.466667", "city": "Kushimoto", "lon": "135.783333"}, {"lat": "33.466667", "city": "Kusimoto", "lon": "135.783333"}, {"lat": "34.233333", "city": "Marusu", "lon": "135.316667"}, {"lat": "33.933333", "city": "Marutaki", "lon": "135.416667"}, {"lat": "33.85", "city": "Maruyama", "lon": "135.233333"}, {"lat": "33.933333", "city": "Maruzaki", "lon": "135.416667"}, {"lat": "34.25", "city": "Matsue", "lon": "135.133333"}, {"lat": "33.666667", "city": "Matsune", "lon": "135.716667"}, {"lat": "34.116667", "city": "Mera", "lon": "135.133333"}, {"lat": "33.766667", "city": "Minabe", "lon": "135.316667"}, {"lat": "33.816667", "city": "Minakami", "lon": "135.483333"}, {"lat": "34.233333", "city": "Minami-narukami", "lon": "135.216667"}, {"lat": "33.866667", "city": "Minami-shioya", "lon": "135.166667"}, {"lat": "33.783333", "city": "Minodani", "lon": "135.766667"}, {"lat": "33.783333", "city": "Minootani", "lon": "135.766667"}, {"lat": "34.083333", "city": "Minoshima", "lon": "135.116667"}, {"lat": "33.55", "city": "Miokawa", "lon": "135.683333"}, {"lat": "33.883333", "city": "Mio", "lon": "135.083333"}, {"lat": "33.916667", "city": "Misa", "lon": "135.316667"}, {"lat": "33.55", "city": "Mitogawa", "lon": "135.683333"}, {"lat": "33.683333", "city": "Miwasaki", "lon": "135.983333"}, {"lat": "33.683333", "city": "Miwazaki", "lon": "135.983333"}, {"lat": "33.916667", "city": "Miyashiro", "lon": "135.483333"}, {"lat": "33.916667", "city": "Miza", "lon": "135.316667"}, {"lat": "33.816667", "city": "Mizukami", "lon": "135.483333"}, {"lat": "33.733333", "city": "Motomachi", "lon": "135.366667"}, {"lat": "34.116667", "city": "Mukaeyama", "lon": "135.133333"}, {"lat": "34.116667", "city": "Mukaiyama", "lon": "135.133333"}, {"lat": "34.116667", "city": "Mukoyama", "lon": "135.133333"}, {"lat": "33.65", "city": "Myohoji", "lon": "135.9"}, {"lat": "33.65", "city": "Myoho", "lon": "135.9"}, {"lat": "34.3", "city": "Myoji-cho", "lon": "135.516667"}, {"lat": "34.3", "city": "Myoji", "lon": "135.516667"}, {"lat": "33.466667", "city": "Nachika", "lon": "135.733333"}, {"lat": "33.466667", "city": "Najika", "lon": "135.733333"}, {"lat": "34.25", "city": "Naka-matsue", "lon": "135.133333"}, {"lat": "33.8", "city": "Nakamura", "lon": "135.433333"}, {"lat": "33.583333", "city": "Naka", "lon": "135.633333"}, {"lat": "33.716667", "city": "Nakiri", "lon": "135.4"}, {"lat": "33.433333", "city": "Naminoura", "lon": "135.766667"}, {"lat": "34.233333", "city": "Narukami", "lon": "135.216667"}, {"lat": "34.133333", "city": "Nataka", "lon": "135.216667"}, {"lat": "34.266667", "city": "Natemachi", "lon": "135.433333"}, {"lat": "34.266667", "city": "Nate", "lon": "135.433333"}, {"lat": "34.083333", "city": "Nishigamine", "lon": "135.283333"}, {"lat": "34.266667", "city": "Nishigami", "lon": "135.25"}, {"lat": "33.683333", "city": "Nishihera", "lon": "135.983333"}, {"lat": "33.8", "city": "Nishi-honjo", "lon": "135.333333"}, {"lat": "34.083333", "city": "Nishikemine", "lon": "135.283333"}, {"lat": "34.083333", "city": "Nishimine", "lon": "135.283333"}, {"lat": "33.516667", "city": "Nishimukai", "lon": "135.816667"}, {"lat": "34.283333", "city": "Nishi-sakamoto", "lon": "135.3"}, {"lat": "34.266667", "city": "Nishi-shibuta", "lon": "135.466667"}, {"lat": "33.85", "city": "Nishi-shikiya", "lon": "135.8"}, {"lat": "34.3", "city": "Nishi-yokoza", "lon": "135.616667"}, {"lat": "33.966667", "city": "Obiki", "lon": "135.083333"}, {"lat": "33.966667", "city": "Ochiai", "lon": "135.216667"}, {"lat": "33.933333", "city": "Oe", "lon": "135.416667"}, {"lat": "33.983333", "city": "Oguma", "lon": "135.566667"}, {"lat": "33.966667", "city": "Ohiki", "lon": "135.083333"}, {"lat": "33.966667", "city": "Ohikiura", "lon": "135.083333"}, {"lat": "34.216667", "city": "Okamachi", "lon": "135.183333"}, {"lat": "33.683333", "city": "Okawa", "lon": "135.566667"}, {"lat": "33.983333", "city": "Okuma", "lon": "135.566667"}, {"lat": "33.966667", "city": "Oniki", "lon": "135.083333"}, {"lat": "33.783333", "city": "Ono", "lon": "135.35"}, {"lat": "34.133333", "city": "Osaki", "lon": "135.133333"}, {"lat": "34.133333", "city": "Oshide", "lon": "135.516667"}, {"lat": "33.466667", "city": "Oshima", "lon": "135.8"}, {"lat": "33.466667", "city": "Oshimaura", "lon": "135.8"}, {"lat": "34.133333", "city": "Oshite", "lon": "135.516667"}, {"lat": "33.466667", "city": "Osima", "lon": "135.8"}, {"lat": "33.95", "city": "Sabukawa", "lon": "135.466667"}, {"lat": "33.583333", "city": "Sada-jige", "lon": "135.7"}, {"lat": "33.583333", "city": "Sada", "lon": "135.7"}, {"lat": "33.65", "city": "Sakaemura", "lon": "135.4"}, {"lat": "33.65", "city": "Sakae", "lon": "135.4"}, {"lat": "33.733333", "city": "Sakai", "lon": "135.333333"}, {"lat": "33.733333", "city": "Saka", "lon": "135.333333"}, {"lat": "33.95", "city": "Sato", "lon": "135.116667"}, {"lat": "33.733333", "city": "Schingu", "lon": "135.983333"}, {"lat": "33.683333", "city": "Seto", "lon": "135.35"}, {"lat": "34.266667", "city": "Shibuta", "lon": "135.483333"}, {"lat": "34.083333", "city": "Shimizu", "lon": "135.433333"}, {"lat": "34.183333", "city": "Shimminatocho", "lon": "135.2"}, {"lat": "33.583333", "city": "Shimosato", "lon": "135.916667"}, {"lat": "33.533333", "city": "Shimo-tahara", "lon": "135.866667"}, {"lat": "33.533333", "city": "Shimo-tawara", "lon": "135.866667"}, {"lat": "34.1", "city": "Shimotsu", "lon": "135.15"}, {"lat": "33.733333", "city": "Shingui", "lon": "135.983333"}, {"lat": "33.733333", "city": "Shingu", "lon": "135.983333"}, {"lat": "34.183333", "city": "Shinkomachi", "lon": "135.2"}, {"lat": "34.133333", "city": "Shiotsu", "lon": "135.166667"}, {"lat": "33.683333", "city": "Shirahama", "lon": "135.35"}, {"lat": "34.133333", "city": "Shiyotsu-mura", "lon": "135.166667"}, {"lat": "33.8", "city": "Shizukawa", "lon": "135.75"}, {"lat": "33.533333", "city": "Simotahara", "lon": "135.866667"}, {"lat": "33.733333", "city": "Singu", "lon": "135.983333"}, {"lat": "33.95", "city": "Sogawa", "lon": "135.466667"}, {"lat": "33.95", "city": "Sokawa", "lon": "135.466667"}, {"lat": "33.45", "city": "Sue", "lon": "135.833333"}, {"lat": "33.55", "city": "Susame", "lon": "135.5"}, {"lat": "33.55", "city": "Susami", "lon": "135.5"}, {"lat": "33.583333", "city": "Taichi", "lon": "135.95"}, {"lat": "33.583333", "city": "Taiji", "lon": "135.95"}, {"lat": "33.583333", "city": "Taji", "lon": "135.95"}, {"lat": "33.533333", "city": "Takaike", "lon": "135.816667"}, {"lat": "33.633333", "city": "Takano", "lon": "135.816667"}, {"lat": "33.566667", "city": "Takashiba", "lon": "135.916667"}, {"lat": "33.6", "city": "Takinohai", "lon": "135.766667"}, {"lat": "33.6", "city": "Takino-ogami", "lon": "135.766667"}, {"lat": "33.733333", "city": "Tanabe", "lon": "135.366667"}, {"lat": "33.483333", "city": "Tanami", "lon": "135.716667"}, {"lat": "34.083333", "city": "Tatsugahama", "lon": "135.1"}, {"lat": "33.633333", "city": "Tema", "lon": "135.933333"}, {"lat": "33.633333", "city": "Temma", "lon": "135.933333"}, {"lat": "33.633333", "city": "Tenma", "lon": "135.933333"}, {"lat": "34.166667", "city": "Todorogi", "lon": "135.3"}, {"lat": "34.166667", "city": "Todoroki", "lon": "135.3"}, {"lat": "34.083333", "city": "Tokinohama", "lon": "135.1"}, {"lat": "33.933333", "city": "Tokoji", "lon": "135.133333"}, {"lat": "33.633333", "city": "Tomita", "lon": "135.4"}, {"lat": "33.483333", "city": "Tonami", "lon": "135.716667"}, {"lat": "33.633333", "city": "Tonda", "lon": "135.4"}, {"lat": "33.666667", "city": "Tono-yama", "lon": "135.55"}, {"lat": "33.683333", "city": "Toribuchi", "lon": "135.466667"}, {"lat": "34.166667", "city": "Totoroki", "lon": "135.3"}, {"lat": "33.983333", "city": "Ubuyu", "lon": "135.416667"}, {"lat": "33.433333", "city": "Ueno", "lon": "135.766667"}, {"lat": "33.65", "city": "Ugui", "lon": "135.966667"}, {"lat": "33.816667", "city": "Ukegawa", "lon": "135.783333"}, {"lat": "33.65", "city": "Ukui", "lon": "135.966667"}, {"lat": "33.866667", "city": "Urachi", "lon": "135.85"}, {"lat": "33.566667", "city": "Uragami", "lon": "135.9"}, {"lat": "33.866667", "city": "Uraji", "lon": "135.85"}, {"lat": "33.566667", "city": "Urakami", "lon": "135.9"}, {"lat": "33.433333", "city": "Uwane", "lon": "135.766667"}, {"lat": "33.433333", "city": "Uwanoura", "lon": "135.766667"}, {"lat": "33.433333", "city": "Uwano", "lon": "135.766667"}, {"lat": "33.5", "city": "Wabuka", "lon": "135.65"}, {"lat": "33.9", "city": "Wada", "lon": "135.133333"}, {"lat": "33.5", "city": "Wafuka", "lon": "135.65"}, {"lat": "34.183333", "city": "Wakanoura", "lon": "135.166667"}, {"lat": "34.183333", "city": "Wakanura", "lon": "135.166667"}, {"lat": "34.183333", "city": "Wakaura", "lon": "135.166667"}, {"lat": "34.226111", "city": "Wakayama-shi", "lon": "135.1675"}, {"lat": "34.266667", "city": "Yamaguchi-nishi", "lon": "135.25"}, {"lat": "33.816667", "city": "Yamaguchi", "lon": "135.233333"}, {"lat": "33.616667", "city": "Yanoguchi", "lon": "135.533333"}, {"lat": "33.616667", "city": "Yanokuchi", "lon": "135.533333"}, {"lat": "33.95", "city": "Yokohama", "lon": "135.116667"}, {"lat": "34.033333", "city": "Yuasa", "lon": "135.183333"}, {"lat": "33.95", "city": "Yumoto", "lon": "135.55"}, {"lat": "33.683333", "city": "Yunosaki", "lon": "135.35"}, {"lat": "33.683333", "city": "Yuzaki", "lon": "135.35"}], "02": [{"lat": "39.333333", "city": "Age", "lon": "140.45"}, {"lat": "39.266667", "city": "Ainono", "lon": "140.616667"}, {"lat": "39.716667", "city": "Akita", "lon": "140.116667"}, {"lat": "39.718056", "city": "Akita-shi", "lon": "140.103334"}, {"lat": "39.966667", "city": "Anden", "lon": "139.85"}, {"lat": "40", "city": "Aniai", "lon": "140.4"}, {"lat": "40.05", "city": "Ani-maeda", "lon": "140.416667"}, {"lat": "39.6", "city": "Aragawa", "lon": "140.35"}, {"lat": "39.6", "city": "Arakawa", "lon": "140.35"}, {"lat": "39.666667", "city": "Aramachi", "lon": "140.566667"}, {"lat": "39.45", "city": "Arasawa", "lon": "140.15"}, {"lat": "39.983333", "city": "Arase", "lon": "140.4"}, {"lat": "39.683333", "city": "Araya", "lon": "140.083333"}, {"lat": "39.683333", "city": "Arayacho", "lon": "140.083333"}, {"lat": "39.683333", "city": "Arayamachi", "lon": "140.083333"}, {"lat": "39.683333", "city": "Araya-Okawamachi", "lon": "140.1"}, {"lat": "39.266667", "city": "Asamai", "lon": "140.483333"}, {"lat": "40.15", "city": "Asanai", "lon": "140.016667"}, {"lat": "40.15", "city": "Asane", "lon": "140.016667"}, {"lat": "40.366667", "city": "Choshi", "lon": "140.883333"}, {"lat": "39.233333", "city": "Daigo", "lon": "140.533333"}, {"lat": "40.376389", "city": "Daira", "lon": "140.32"}, {"lat": "40.376389", "city": "Dairakozan", "lon": "140.32"}, {"lat": "39.441164", "city": "Daisen", "lon": "140.489613"}, {"lat": "40.266667", "city": "Deguchi", "lon": "140.45"}, {"lat": "39.333333", "city": "Deto", "lon": "139.983333"}, {"lat": "40.066667", "city": "Dogawa", "lon": "140.3"}, {"lat": "40.066667", "city": "Dokawa", "lon": "140.3"}, {"lat": "39.716667", "city": "Dote-nagamachi", "lon": "140.116667"}, {"lat": "39.85", "city": "Fujitsuka", "lon": "138.95"}, {"lat": "39.266667", "city": "Fukai", "lon": "140.416667"}, {"lat": "39.883333", "city": "Funagawa", "lon": "139.85"}, {"lat": "39.883333", "city": "Funagawaminato", "lon": "139.85"}, {"lat": "39.883333", "city": "Funakawa", "lon": "139.85"}, {"lat": "39.883333", "city": "Funakawaminato", "lon": "139.85"}, {"lat": "39.9", "city": "Funakoshi", "lon": "139.95"}, {"lat": "39.633333", "city": "Funaoka", "lon": "140.316667"}, {"lat": "39.866667", "city": "Futada", "lon": "140"}, {"lat": "40.2", "city": "Futatsui", "lon": "140.233333"}, {"lat": "40.2", "city": "Futatsuimachi", "lon": "140.233333"}, {"lat": "40.2", "city": "Futazuimaji", "lon": "140.233333"}, {"lat": "39.916667", "city": "Futto", "lon": "139.933333"}, {"lat": "40", "city": "Ginzan", "lon": "140.4"}, {"lat": "39.933333", "city": "Gojome", "lon": "140.116667"}, {"lat": "39.933333", "city": "Gojonome", "lon": "140.116667"}, {"lat": "39.216667", "city": "Gonai", "lon": "140.166667"}, {"lat": "40.316667", "city": "Hachimori", "lon": "140.033333"}, {"lat": "39.933333", "city": "Hachirougata", "lon": "140.083333"}, {"lat": "40.183333", "city": "Hadaori", "lon": "140.066667"}, {"lat": "39.9", "city": "Haginari", "lon": "140.3"}, {"lat": "40.416667", "city": "Hakka", "lon": "140.866667"}, {"lat": "40.1", "city": "Hamada", "lon": "139.983333"}, {"lat": "39.916667", "city": "Hamaigawa", "lon": "140.083333"}, {"lat": "39.916667", "city": "Hamaikawa", "lon": "140.083333"}, {"lat": "39.966667", "city": "Hamamaguchi", "lon": "139.816667"}, {"lat": "40.1", "city": "Hamata", "lon": "139.983333"}, {"lat": "40.333333", "city": "Hanaoka", "lon": "140.55"}, {"lat": "40.183611", "city": "Hanawa", "lon": "140.787222"}, {"lat": "39.6", "city": "Hanegawa", "lon": "140.083333"}, {"lat": "39.6", "city": "Hanekawa", "lon": "140.083333"}, {"lat": "40", "city": "Hata", "lon": "139.7"}, {"lat": "40", "city": "Hatake", "lon": "139.7"}, {"lat": "40.183333", "city": "Hataori", "lon": "140.066667"}, {"lat": "40.266667", "city": "Hayakuchi", "lon": "140.45"}, {"lat": "39.9", "city": "Hidachinai", "lon": "140.45"}, {"lat": "39.15", "city": "Hinosawa", "lon": "140.183333"}, {"lat": "39.283333", "city": "Hirasawa", "lon": "139.966667"}, {"lat": "39.9", "city": "Hitachina", "lon": "140.45"}, {"lat": "39.9", "city": "Hitachinai", "lon": "140.45"}, {"lat": "39.933333", "city": "Hitoichi", "lon": "140.066667"}, {"lat": "40.166667", "city": "Hiyama", "lon": "140.116667"}, {"lat": "39.2", "city": "Hoki", "lon": "139.55"}, {"lat": "39.388333", "city": "Hondscho", "lon": "140.083333"}, {"lat": "39.388333", "city": "Honjo", "lon": "140.083333"}, {"lat": "39.388333", "city": "Honzyo", "lon": "140.083333"}, {"lat": "39.883333", "city": "Hunakawaminato", "lon": "139.85"}, {"lat": "39.7", "city": "Ibonai", "lon": "140.716667"}, {"lat": "39.883333", "city": "Iitagawa", "lon": "140.083333"}, {"lat": "39.483333", "city": "Ikari", "lon": "140.2"}, {"lat": "39.1", "city": "Inaniwa", "lon": "140.583333"}, {"lat": "39.1", "city": "Inaniwa-machi", "lon": "140.583333"}, {"lat": "39.05", "city": "Innai", "lon": "140.416667"}, {"lat": "39.383333", "city": "Ishikawa", "lon": "140.05"}, {"lat": "39.233333", "city": "Ishinari", "lon": "140.533333"}, {"lat": "39.383333", "city": "Ishiwaki", "lon": "140.05"}, {"lat": "40.4", "city": "Iwadade-mura", "lon": "139.966667"}, {"lat": "40.4", "city": "Iwadate", "lon": "139.966667"}, {"lat": "39.85", "city": "Iwanome", "lon": "140.666667"}, {"lat": "39.2", "city": "Iwasaki", "lon": "140.5"}, {"lat": "39.433333", "city": "Iwaya", "lon": "140.1"}, {"lat": "39.433333", "city": "Iwayamachi", "lon": "140.1"}, {"lat": "39.6", "city": "Jindai", "lon": "140.6"}, {"lat": "39.483333", "city": "Jinguji", "lon": "140.433333"}, {"lat": "39.3", "city": "Jokote", "lon": "140.566667"}, {"lat": "39.216667", "city": "Jumomji", "lon": "140.516667"}, {"lat": "39.216667", "city": "Jumonji", "lon": "140.516667"}, {"lat": "40.207778", "city": "Junisho", "lon": "140.672778"}, {"lat": "40.036111", "city": "Kado", "lon": "140.084444"}, {"lat": "39.583333", "city": "Kakudate", "lon": "140.566667"}, {"lat": "39.4", "city": "Kakumagawa", "lon": "140.483333"}, {"lat": "39.95", "city": "Kakumasaki", "lon": "139.916667"}, {"lat": "39.95", "city": "Kakumazaki", "lon": "139.916667"}, {"lat": "39.583333", "city": "Kakunodate", "lon": "140.566667"}, {"lat": "40.1", "city": "Kamaishi", "lon": "139.966667"}, {"lat": "40.1", "city": "Kamanosawa", "lon": "140.316667"}, {"lat": "40.1", "city": "Kamaya", "lon": "139.966667"}, {"lat": "39.5", "city": "Kameda", "lon": "140.1"}, {"lat": "39.716667", "city": "Kamenocho-shimmachi", "lon": "140.133333"}, {"lat": "39.716667", "city": "Kamenochoshin-machi", "lon": "140.133333"}, {"lat": "39.5", "city": "Kameta-Kametamachi", "lon": "140.1"}, {"lat": "39.05", "city": "Kami-innai", "lon": "140.416667"}, {"lat": "39.1", "city": "Kami-jinego", "lon": "140.283333"}, {"lat": "39.1", "city": "Kami-seki", "lon": "140.483333"}, {"lat": "40.15", "city": "Kami-sugi", "lon": "140.35"}, {"lat": "39.233333", "city": "Kamitori", "lon": "140.533333"}, {"lat": "39.366667", "city": "Kami-yasawagi", "lon": "140.35"}, {"lat": "39.6", "city": "Kami-yodogawa", "lon": "140.333333"}, {"lat": "39.6", "city": "Kami-yodokawa", "lon": "140.333333"}, {"lat": "39.9", "city": "Kamoaosa", "lon": "139.733333"}, {"lat": "39.9", "city": "Kamo", "lon": "139.733333"}, {"lat": "40.333333", "city": "Kanasawa", "lon": "140.316667"}, {"lat": "39.433333", "city": "Kanaya", "lon": "140.366667"}, {"lat": "40.333333", "city": "Kanazawa", "lon": "140.316667"}, {"lat": "39.366667", "city": "Kanesawa", "lon": "140.566667"}, {"lat": "39.25", "city": "Kaneura", "lon": "139.916667"}, {"lat": "39.366667", "city": "Kanezawa", "lon": "140.566667"}, {"lat": "39.533333", "city": "Karawari", "lon": "140.383333"}, {"lat": "39.533333", "city": "Kariwano", "lon": "140.383333"}, {"lat": "40.266667", "city": "Kasuge", "lon": "140.25"}, {"lat": "39.878694", "city": "Katagami", "lon": "139.997667"}, {"lat": "39.7", "city": "Katano", "lon": "140.583333"}, {"lat": "40.083333", "city": "Katsurase", "lon": "140.416667"}, {"lat": "39.183333", "city": "Katsuura", "lon": "139.55"}, {"lat": "39.566667", "city": "Katte", "lon": "140.066667"}, {"lat": "39.183333", "city": "Katuura", "lon": "139.55"}, {"lat": "39.15", "city": "Kawabukura", "lon": "139.9"}, {"lat": "39.15", "city": "Kawabukuro", "lon": "139.9"}, {"lat": "39.15", "city": "Kawafukuro", "lon": "139.9"}, {"lat": "40.15", "city": "Kawai", "lon": "140.316667"}, {"lat": "40.15", "city": "Kawa", "lon": "140.316667"}, {"lat": "39.233333", "city": "Kayoi-daigo", "lon": "140.533333"}, {"lat": "40.183611", "city": "Kazuno", "lon": "140.787222"}, {"lat": "40.267778", "city": "Kemanai", "lon": "140.77"}, {"lat": "39.816667", "city": "Ketasawa", "lon": "140.583333"}, {"lat": "39.816667", "city": "Ketazawa", "lon": "140.583333"}, {"lat": "40.116667", "city": "Kinkoji", "lon": "140.083333"}, {"lat": "39.683333", "city": "Kiriage", "lon": "140.133333"}, {"lat": "40.2", "city": "Kiriishi", "lon": "140.216667"}, {"lat": "39.216667", "city": "Kisagata", "lon": "139.9"}, {"lat": "39.216667", "city": "Kisakata", "lon": "139.9"}, {"lat": "40.199558", "city": "Kita-Akita", "lon": "140.393881"}, {"lat": "39.916667", "city": "Kitakawajiri", "lon": "140.083333"}, {"lat": "39.916667", "city": "Kitakawashiri", "lon": "140.083333"}, {"lat": "39.966667", "city": "Kitaura", "lon": "139.783333"}, {"lat": "39.916667", "city": "Kofukami", "lon": "139.933333"}, {"lat": "40.25", "city": "Komagai", "lon": "140.733333"}, {"lat": "40.25", "city": "Komagi", "lon": "140.733333"}, {"lat": "40.25", "city": "Komaki", "lon": "140.733333"}, {"lat": "39.25", "city": "Konoura", "lon": "139.916667"}, {"lat": "40.322778", "city": "Kosaka", "lon": "140.742222"}, {"lat": "40.216667", "city": "Kotsunagi", "lon": "140.266667"}, {"lat": "39.55", "city": "Kowakubi", "lon": "140.283333"}, {"lat": "39.55", "city": "Koya", "lon": "140.616667"}, {"lat": "39.033333", "city": "Koyasu", "lon": "140.65"}, {"lat": "39.3", "city": "Kura", "lon": "140.266667"}, {"lat": "39.45", "city": "Kuzuoka", "lon": "140.2"}, {"lat": "39.55", "city": "Kyokubi", "lon": "140.283333"}, {"lat": "39.3", "city": "Maego", "lon": "140.116667"}, {"lat": "39.15", "city": "Maenosawa", "lon": "140.183333"}, {"lat": "39.966667", "city": "Masaka", "lon": "140.083333"}, {"lat": "39.2", "city": "Masuda", "lon": "140.533333"}, {"lat": "39.2", "city": "Mato", "lon": "140.566667"}, {"lat": "39.483333", "city": "Matsugasaki", "lon": "140.05"}, {"lat": "39.683333", "city": "Menagada", "lon": "140.133333"}, {"lat": "39.683333", "city": "Menagata", "lon": "140.133333"}, {"lat": "40", "city": "Minamisawa", "lon": "140.283333"}, {"lat": "40", "city": "Minamizawa", "lon": "140.283333"}, {"lat": "39.566667", "city": "Mineyoshikawa", "lon": "140.333333"}, {"lat": "39.133333", "city": "Mitsunashi", "lon": "140.583333"}, {"lat": "40.019722", "city": "Miyasawa", "lon": "139.923056"}, {"lat": "40.019722", "city": "Miyazawa", "lon": "139.923056"}, {"lat": "39.133333", "city": "Mizunashi", "lon": "140.583333"}, {"lat": "39.683333", "city": "Momosandan-araya", "lon": "140.083333"}, {"lat": "40.091944", "city": "Moridake", "lon": "140.072222"}, {"lat": "40.091944", "city": "Moritake", "lon": "140.072222"}, {"lat": "40.216667", "city": "Muge-noshiro", "lon": "140.033333"}, {"lat": "40.216667", "city": "Mukai-noshiro", "lon": "140.033333"}, {"lat": "40.216667", "city": "Muke-noshiro", "lon": "140.033333"}, {"lat": "40.216667", "city": "Muko-noshiro", "lon": "140.033333"}, {"lat": "40.233333", "city": "Murota", "lon": "140.766667"}, {"lat": "39.216667", "city": "Mutsai", "lon": "140.45"}, {"lat": "39.216667", "city": "Mutsuai", "lon": "140.45"}, {"lat": "40.366667", "city": "Nagahama", "lon": "140.016667"}, {"lat": "39.533333", "city": "Nagano", "lon": "140.533333"}, {"lat": "40.366667", "city": "Nakahama", "lon": "140.016667"}, {"lat": "39.483333", "city": "Nakamata", "lon": "140.2"}, {"lat": "39.483333", "city": "Nakanomata", "lon": "140.2"}, {"lat": "39.716667", "city": "Naka-obonai", "lon": "140.733333"}, {"lat": "40.166667", "city": "Nanokaichi", "lon": "140.4"}, {"lat": "40.166667", "city": "Nanukaichi", "lon": "140.4"}, {"lat": "39.4", "city": "Narabuchi", "lon": "140.233333"}, {"lat": "39.166667", "city": "Narasaki", "lon": "140.316667"}, {"lat": "39.166667", "city": "Narazaki", "lon": "140.316667"}, {"lat": "39.616667", "city": "Natsuzeonsen", "lon": "140.7"}, {"lat": "40.216667", "city": "Niageba", "lon": "140.233333"}, {"lat": "40.185278", "city": "Nibuna", "lon": "140.226111"}, {"lat": "39.666667", "city": "Niida", "lon": "140.116667"}, {"lat": "39.270769", "city": "Nikaho", "lon": "139.939494"}, {"lat": "39.333333", "city": "Nishime", "lon": "139.983333"}, {"lat": "39.2", "city": "Nishimonai", "lon": "140.4"}, {"lat": "40.203889", "city": "Noshirominato", "lon": "140.024167"}, {"lat": "40.203889", "city": "Noshiro", "lon": "140.024167"}, {"lat": "40.203889", "city": "Nosiro", "lon": "140.024167"}, {"lat": "40.25", "city": "Nukasawa", "lon": "140.4"}, {"lat": "40.25", "city": "Nukazawa", "lon": "140.4"}, {"lat": "40.266667", "city": "Numada", "lon": "140.033333"}, {"lat": "39.3", "city": "Numadate", "lon": "140.433333"}, {"lat": "40.266667", "city": "Numata", "lon": "140.033333"}, {"lat": "39.3", "city": "Numatate", "lon": "140.433333"}, {"lat": "39.7", "city": "Obonai", "lon": "140.716667"}, {"lat": "39.3", "city": "Ochiai", "lon": "140.633333"}, {"lat": "39.35", "city": "Oda", "lon": "140.383333"}, {"lat": "40.268611", "city": "Odate", "lon": "140.568333"}, {"lat": "39.870999", "city": "Oga", "lon": "139.849258"}, {"lat": "40.221944", "city": "Ogida", "lon": "140.585"}, {"lat": "40.221944", "city": "Ogita", "lon": "140.585"}, {"lat": "40.409167", "city": "Oide", "lon": "140.854444"}, {"lat": "39.3", "city": "Oikata", "lon": "140.283333"}, {"lat": "39.8", "city": "Oiwake", "lon": "140.05"}, {"lat": "39.683333", "city": "Okawamachi", "lon": "140.1"}, {"lat": "39.866667", "city": "Okubomachi", "lon": "140.05"}, {"lat": "39.866667", "city": "Okubo", "lon": "140.05"}, {"lat": "40.116667", "city": "Okuzo", "lon": "140.666667"}, {"lat": "40.116667", "city": "Okuzu", "lon": "140.666667"}, {"lat": "39.45", "city": "Omagari", "lon": "140.483333"}, {"lat": "39.35", "city": "Omori", "lon": "140.433333"}, {"lat": "39.866667", "city": "Onnagawa", "lon": "139.816667"}, {"lat": "40.183333", "city": "Osarizawakozan", "lon": "140.75"}, {"lat": "40.183333", "city": "Osarizawa", "lon": "140.75"}, {"lat": "39.516667", "city": "Osawagoshuku", "lon": "140.3"}, {"lat": "39.266667", "city": "Osawa", "lon": "140.383333"}, {"lat": "39.35", "city": "Ota", "lon": "140.383333"}, {"lat": "39.15", "city": "Otate", "lon": "140.566667"}, {"lat": "40.066667", "city": "Oyachi", "lon": "139.966667"}, {"lat": "40.066667", "city": "Oyaji", "lon": "139.966667"}, {"lat": "39.083333", "city": "Oyanagi", "lon": "140.716667"}, {"lat": "39.033333", "city": "Oyasu", "lon": "140.65"}, {"lat": "40.288056", "city": "Oyu", "lon": "140.825556"}, {"lat": "40.183333", "city": "Ozarizawa", "lon": "140.75"}, {"lat": "39.416667", "city": "Rokugo", "lon": "140.55"}, {"lat": "39.166667", "city": "Sakanasawa", "lon": "140.666667"}, {"lat": "39.166667", "city": "Sakanazawa", "lon": "140.666667"}, {"lat": "40", "city": "Sarugawa", "lon": "139.9"}, {"lat": "39.333333", "city": "Seiheimura", "lon": "140.483333"}, {"lat": "39.133333", "city": "Sekiguchi", "lon": "140.483333"}, {"lat": "39.583709", "city": "Senboku", "lon": "140.581681"}, {"lat": "39.75", "city": "Sendachi", "lon": "140.716667"}, {"lat": "39.75", "city": "Sendatsu", "lon": "140.716667"}, {"lat": "39.75", "city": "Sentatsu", "lon": "140.716667"}, {"lat": "40.3", "city": "Shakanai", "lon": "140.566667"}, {"lat": "40.283333", "city": "Shigenai", "lon": "140.683333"}, {"lat": "40.283333", "city": "Shigenai-yashiki", "lon": "140.683333"}, {"lat": "39.05", "city": "Shimo-innai", "lon": "140.433333"}, {"lat": "39.116667", "city": "Shimo-seki", "lon": "140.483333"}, {"lat": "40.15", "city": "Shimo-sugi", "lon": "140.333333"}, {"lat": "39.45", "city": "Shinsawa", "lon": "140.15"}, {"lat": "39.683333", "city": "Shinya-cho", "lon": "140.083333"}, {"lat": "39.866667", "city": "Showa", "lon": "140.083333"}, {"lat": "39.516667", "city": "Shuku", "lon": "140.3"}, {"lat": "40.25", "city": "Suda", "lon": "140.05"}, {"lat": "39.083333", "city": "Sukawa", "lon": "140.466667"}, {"lat": "40.15", "city": "Tachimata", "lon": "140.55"}, {"lat": "39.183333", "city": "Tagonai", "lon": "140.65"}, {"lat": "39.266667", "city": "Takadoya", "lon": "140.266667"}, {"lat": "39.95", "city": "Takadoyo", "lon": "140.216667"}, {"lat": "40.221944", "city": "Takanosu", "lon": "140.369444"}, {"lat": "39.3", "city": "Takano", "lon": "140.466667"}, {"lat": "39.266667", "city": "Takatoya", "lon": "140.266667"}, {"lat": "39.95", "city": "Takatoyo", "lon": "140.216667"}, {"lat": "40.487222", "city": "Takinosawa", "lon": "140.826389"}, {"lat": "39.85", "city": "Tamagawa", "lon": "140.65"}, {"lat": "39.333333", "city": "Tanemori", "lon": "140.483333"}, {"lat": "40.376389", "city": "Tara-kozan", "lon": "140.32"}, {"lat": "39.283333", "city": "Tateai", "lon": "140.283333"}, {"lat": "40.15", "city": "Tatemata", "lon": "140.55"}, {"lat": "40.15", "city": "Tatenomatakozan", "lon": "140.55"}, {"lat": "39.333333", "city": "Tate", "lon": "140.133333"}, {"lat": "39.9", "city": "Tenno", "lon": "139.966667"}, {"lat": "40.216667", "city": "Tobine", "lon": "140.166667"}, {"lat": "39.95", "city": "Toga", "lon": "139.716667"}, {"lat": "40.05", "city": "Toka", "lon": "140.1"}, {"lat": "40.216667", "city": "Tomine", "lon": "140.166667"}, {"lat": "40.083333", "city": "Tomioka", "lon": "140.033333"}, {"lat": "39.233333", "city": "Tori-daigo", "lon": "140.533333"}, {"lat": "39.7", "city": "Toyoshimamachi", "lon": "140.116667"}, {"lat": "39.7", "city": "Toyoshima", "lon": "140.116667"}, {"lat": "39.616667", "city": "Tsubakigawa", "lon": "140.15"}, {"lat": "39.616667", "city": "Tsubakikawa", "lon": "140.15"}, {"lat": "40.35", "city": "Tsubaki", "lon": "140.016667"}, {"lat": "39.216667", "city": "Tsuchidate", "lon": "140.416667"}, {"lat": "39.75", "city": "Tsuchi-machi", "lon": "140.083333"}, {"lat": "39.75", "city": "Tsuchisakiminato", "lon": "140.083333"}, {"lat": "39.75", "city": "Tsuchizakimachi", "lon": "140.083333"}, {"lat": "39.75", "city": "Tsuchizakiminato", "lon": "140.083333"}, {"lat": "39.75", "city": "Tsuchizaki", "lon": "140.083333"}, {"lat": "39.283333", "city": "Tsukuriyama", "lon": "140.416667"}, {"lat": "40.25", "city": "Tsuzureko", "lon": "140.366667"}, {"lat": "39.75", "city": "Tutizakiminato", "lon": "140.083333"}, {"lat": "40.316667", "city": "Ubasawa", "lon": "140.55"}, {"lat": "40.316667", "city": "Ubazawa", "lon": "140.55"}, {"lat": "39.233333", "city": "Ueda", "lon": "140.466667"}, {"lat": "40.083333", "city": "Ugawa", "lon": "140.033333"}, {"lat": "40.083333", "city": "Ukawa", "lon": "140.033333"}, {"lat": "40.1", "city": "Urata", "lon": "140.416667"}, {"lat": "39.216667", "city": "Uschidate", "lon": "140.416667"}, {"lat": "39.066667", "city": "Uwachi", "lon": "140.533333"}, {"lat": "39.066667", "city": "Uwaji", "lon": "140.533333"}, {"lat": "39.7", "city": "Uyashinai", "lon": "140.366667"}, {"lat": "39.883333", "city": "Wadaimogawa", "lon": "140.083333"}, {"lat": "39.883333", "city": "Wadaimokawa", "lon": "140.083333"}, {"lat": "39.883333", "city": "Wadaimotogawa", "lon": "140.083333"}, {"lat": "39.65", "city": "Wada", "lon": "140.216667"}, {"lat": "40.409167", "city": "Wainai", "lon": "140.854444"}, {"lat": "39.9", "city": "Wakimoto", "lon": "139.9"}, {"lat": "39.716667", "city": "Yabase", "lon": "140.1"}, {"lat": "39.933333", "city": "Yagisawa", "lon": "140.316667"}, {"lat": "39.933333", "city": "Yakizawa", "lon": "140.316667"}, {"lat": "39.216667", "city": "Yashimamachi", "lon": "140.133333"}, {"lat": "39.216667", "city": "Yashima", "lon": "140.133333"}, {"lat": "39.966667", "city": "Yasuda", "lon": "139.85"}, {"lat": "40.416667", "city": "Yasumiya", "lon": "140.9"}, {"lat": "39.6", "city": "Yodogamachi", "lon": "140.333333"}, {"lat": "39.05", "city": "Yokobori", "lon": "140.45"}, {"lat": "39.166667", "city": "Yokooka", "lon": "139.983333"}, {"lat": "39.5", "city": "Yokosawa", "lon": "140.6"}, {"lat": "39.3", "city": "Yokote", "lon": "140.566667"}, {"lat": "40.117222", "city": "Yonaisawa", "lon": "140.37"}, {"lat": "40.117222", "city": "Yonaizawa", "lon": "140.37"}, {"lat": "39.766667", "city": "Yoroehata", "lon": "140.666667"}, {"lat": "39.766667", "city": "Yoroibata", "lon": "140.666667"}, {"lat": "39.766667", "city": "Yoroihata", "lon": "140.666667"}, {"lat": "39.3", "city": "Yoshida", "lon": "140.483333"}, {"lat": "39.2", "city": "Yoshino", "lon": "140.6"}, {"lat": "39.389496", "city": "Yurihonjo", "lon": "140.058129"}, {"lat": "39.166667", "city": "Yuzawa", "lon": "140.5"}], "03": [{"lat": "40.85", "city": "Aburakawa", "lon": "140.7"}, {"lat": "40.774444", "city": "Adigasawa", "lon": "140.203056"}, {"lat": "41.5", "city": "Aidomari", "lon": "139.366667"}, {"lat": "41.5", "city": "Aitomari", "lon": "139.366667"}, {"lat": "41.05", "city": "Aiuchi", "lon": "140.366667"}, {"lat": "40.774444", "city": "Ajigasawa", "lon": "140.203056"}, {"lat": "40.756111", "city": "Akaishi", "lon": "140.168056"}, {"lat": "40.75", "city": "Akaishimachi", "lon": "140.166667"}, {"lat": "40.824445", "city": "Aomori-shi", "lon": "140.74"}, {"lat": "40.783333", "city": "Aragawamura", "lon": "140.733333"}, {"lat": "40.783333", "city": "Arakawa", "lon": "140.733333"}, {"lat": "41.133333", "city": "Arihata", "lon": "141.266667"}, {"lat": "40.917778", "city": "Arito", "lon": "141.191944"}, {"lat": "40.816667", "city": "Asahimachi", "lon": "140.733333"}, {"lat": "40.885556", "city": "Asamushi", "lon": "140.866944"}, {"lat": "40.774444", "city": "Azigasawa", "lon": "140.203056"}, {"lat": "40.616667", "city": "Bakurocho", "lon": "140.466667"}, {"lat": "40.616667", "city": "Bakuromachi", "lon": "140.466667"}, {"lat": "40.8", "city": "Chibiki", "lon": "141.133333"}, {"lat": "41.183333", "city": "Chikagawa", "lon": "141.283333"}, {"lat": "41.366667", "city": "Chogo", "lon": "140.833333"}, {"lat": "41", "city": "Dedo", "lon": "141.383333"}, {"lat": "40.833333", "city": "Dekijima", "lon": "140.283333"}, {"lat": "41", "city": "Deto", "lon": "141.383333"}, {"lat": "40.9", "city": "Dogizaka", "lon": "140.333333"}, {"lat": "40.9", "city": "Dokisaka", "lon": "140.333333"}, {"lat": "40.650833", "city": "Fujisaki", "lon": "140.491389"}, {"lat": "40.583333", "city": "Fujishima", "lon": "141.233333"}, {"lat": "40.633333", "city": "Fukaura", "lon": "139.916667"}, {"lat": "41.316667", "city": "Fukura", "lon": "140.816667"}, {"lat": "41.321389", "city": "Fukuura", "lon": "140.807222"}, {"lat": "41.102778", "city": "Funaoka", "lon": "140.626111"}, {"lat": "40.666667", "city": "Furumagi", "lon": "141.35"}, {"lat": "40.666667", "city": "Furumaki", "lon": "141.35"}, {"lat": "41.366667", "city": "Furunoushigawa", "lon": "141.366667"}, {"lat": "40.983333", "city": "Futamata", "lon": "141.316667"}, {"lat": "40.804444", "city": "Goshogawara", "lon": "140.441389"}, {"lat": "40.505", "city": "Hachinohe", "lon": "141.491944"}, {"lat": "41.133333", "city": "Hamada", "lon": "141.266667"}, {"lat": "40.816667", "city": "Hanazonomachi", "lon": "140.766667"}, {"lat": "41.45", "city": "Harada", "lon": "140.883333"}, {"lat": "40.75", "city": "Harako", "lon": "140.516667"}, {"lat": "40.816667", "city": "Hashimoto", "lon": "140.75"}, {"lat": "41.290556", "city": "Hata", "lon": "140.958056"}, {"lat": "40.505", "city": "Hatinohe", "lon": "141.491944"}, {"lat": "40.505", "city": "Hatinohe Si", "lon": "141.491944"}, {"lat": "41.5", "city": "Hebiura", "lon": "140.966667"}, {"lat": "40.533333", "city": "Heiroku", "lon": "140.75"}, {"lat": "40.6", "city": "Henashi", "lon": "139.866667"}, {"lat": "40.987778", "city": "Higashitazawa", "lon": "140.917222"}, {"lat": "40.533333", "city": "Hiiroku", "lon": "140.75"}, {"lat": "40.587282", "city": "Hirakawa", "lon": "140.571069"}, {"lat": "40.920278", "city": "Hiranai", "lon": "140.955556"}, {"lat": "40.920278", "city": "Hiranai-machi", "lon": "140.955556"}, {"lat": "40.866667", "city": "Hiranuma", "lon": "141.366667"}, {"lat": "40.593056", "city": "Hirosaki", "lon": "140.4725"}, {"lat": "40.65", "city": "Hiroto", "lon": "139.983333"}, {"lat": "40.483333", "city": "Hitoichi", "lon": "141.416667"}, {"lat": "40.633333", "city": "Hitokawame", "lon": "141.45"}, {"lat": "41.216667", "city": "Horotsuki", "lon": "140.533333"}, {"lat": "41.216667", "city": "Horozoki", "lon": "140.533333"}, {"lat": "41.216667", "city": "Horozuki", "lon": "140.533333"}, {"lat": "40.583333", "city": "Horyo", "lon": "141.1"}, {"lat": "40.616667", "city": "Hyakusawa", "lon": "140.333333"}, {"lat": "40.616667", "city": "Hyakuzawa", "lon": "140.333333"}, {"lat": "40.583333", "city": "Ichikawa", "lon": "141.45"}, {"lat": "40.4", "city": "Ichinosawa", "lon": "141.433333"}, {"lat": "41.483333", "city": "Ikokuma", "lon": "140.983333"}, {"lat": "41.175", "city": "Imabetsu", "lon": "140.484444"}, {"lat": "41.175", "city": "Imabetu", "lon": "140.484444"}, {"lat": "41.033333", "city": "Imaizumi", "lon": "140.416667"}, {"lat": "41.116667", "city": "Imatsu", "lon": "140.633333"}, {"lat": "41.116667", "city": "Imazu", "lon": "140.633333"}, {"lat": "41.183333", "city": "Ishizaki", "lon": "140.633333"}, {"lat": "41.066667", "city": "Isomatsu", "lon": "140.333333"}, {"lat": "41.416667", "city": "Isoya", "lon": "140.85"}, {"lat": "40.690278", "city": "Itavanagi", "lon": "140.456944"}, {"lat": "40.690278", "city": "Itayanagi", "lon": "140.456944"}, {"lat": "40.586944", "city": "Iwasaki", "lon": "139.906944"}, {"lat": "40.433333", "city": "Jitarube", "lon": "140.933333"}, {"lat": "41.216667", "city": "Jogasawa", "lon": "141.133333"}, {"lat": "41.033333", "city": "Jusan", "lon": "140.333333"}, {"lat": "41.316667", "city": "Kabayama", "lon": "141.216667"}, {"lat": "41.166667", "city": "Kakizaki", "lon": "140.921667"}, {"lat": "41.5", "city": "Kamaya", "lon": "140.966667"}, {"lat": "40.736111", "city": "Kamikita", "lon": "140.956111"}, {"lat": "40.736111", "city": "Kamikitakozan", "lon": "140.956111"}, {"lat": "40.583333", "city": "Kamishikizawa", "lon": "140.383333"}, {"lat": "40.583333", "city": "Kamisukizawa", "lon": "140.383333"}, {"lat": "40.901111", "city": "Kanagi", "lon": "140.455"}, {"lat": "40.483333", "city": "Kanahama", "lon": "141.633333"}, {"lat": "40.483333", "city": "Kanehama", "lon": "141.633333"}, {"lat": "41.038889", "city": "Kanida", "lon": "140.640278"}, {"lat": "41.038889", "city": "Kanita", "lon": "140.640278"}, {"lat": "40.716667", "city": "Kareezawa", "lon": "140.65"}, {"lat": "40.716667", "city": "Kareisawa", "lon": "140.65"}, {"lat": "40.716667", "city": "Kareizawa", "lon": "140.65"}, {"lat": "40.633333", "city": "Karekitai", "lon": "140.233333"}, {"lat": "40.566667", "city": "Kashiwagi", "lon": "140.566667"}, {"lat": "40.566667", "city": "Kashiwagimachi", "lon": "140.566667"}, {"lat": "40.75", "city": "Kasose", "lon": "140.016667"}, {"lat": "40.766667", "city": "Katchi", "lon": "141.266667"}, {"lat": "40.633333", "city": "Kawabe", "lon": "140.533333"}, {"lat": "40.516667", "city": "Kawaharatai", "lon": "140.233333"}, {"lat": "40.783333", "city": "Kawajiri", "lon": "140.233333"}, {"lat": "41.266667", "city": "Kawamori", "lon": "141.166667"}, {"lat": "40.516667", "city": "Kawaratai", "lon": "140.233333"}, {"lat": "41.192222", "city": "Kawauchi", "lon": "140.991944"}, {"lat": "41.192222", "city": "Kawauti", "lon": "140.991944"}, {"lat": "40.441389", "city": "Kenyoshi", "lon": "141.342778"}, {"lat": "40.593056", "city": "Khirosaki", "lon": "140.4725"}, {"lat": "40.75", "city": "Kitaganegasawa", "lon": "140.083333"}, {"lat": "40.75", "city": "Kita-kanegasawa", "lon": "140.083333"}, {"lat": "40.75", "city": "Kita-kanegazawa", "lon": "140.083333"}, {"lat": "40.566667", "city": "Kitanuma", "lon": "141.483333"}, {"lat": "40.806111", "city": "Kizukuri", "lon": "140.386111"}, {"lat": "41.222778", "city": "Kodanosawa", "lon": "141.400556"}, {"lat": "41.124444", "city": "Kodomari", "lon": "140.305278"}, {"lat": "40.833333", "city": "Kohama", "lon": "140.716667"}, {"lat": "40.920278", "city": "Kominato", "lon": "140.955556"}, {"lat": "40.85", "city": "Komotsuchi", "lon": "140.333333"}, {"lat": "40.85", "city": "Kurauchi", "lon": "141.366667"}, {"lat": "40.638889", "city": "Kuroishi", "lon": "140.592222"}, {"lat": "40.516667", "city": "Kurosaki", "lon": "139.95"}, {"lat": "41.133333", "city": "Kusodomari", "lon": "140.8"}, {"lat": "41.183333", "city": "Masukawa", "lon": "140.433333"}, {"lat": "40.537222", "city": "Matsugami", "lon": "139.942778"}, {"lat": "40.537222", "city": "Matsukami", "lon": "139.942778"}, {"lat": "41.3", "city": "Mena", "lon": "141.266667"}, {"lat": "41.2", "city": "Mimaya", "lon": "140.433333"}, {"lat": "41.2", "city": "Mimmaya", "lon": "140.433333"}, {"lat": "40.75", "city": "Minamikanazawa", "lon": "140.216667"}, {"lat": "40.6", "city": "Minami-nakano", "lon": "140.683333"}, {"lat": "40.521667", "city": "Minatomachi", "lon": "141.509722"}, {"lat": "40.521667", "city": "Minato", "lon": "141.509722"}, {"lat": "40.521667", "city": "Minatomura", "lon": "141.509722"}, {"lat": "41.2", "city": "Minmaya", "lon": "140.433333"}, {"lat": "40.683611", "city": "Misawa", "lon": "141.359722"}, {"lat": "40.583333", "city": "Mita", "lon": "141.4"}, {"lat": "41.2", "city": "Miumaya", "lon": "140.433333"}, {"lat": "40.590278", "city": "Momoishi", "lon": "141.433611"}, {"lat": "40.940556", "city": "Mora", "lon": "140.87"}, {"lat": "40.55", "city": "Moriyama", "lon": "139.933333"}, {"lat": "40.940556", "city": "Moura", "lon": "140.87"}, {"lat": "41.289444", "city": "Mutsu", "lon": "141.216944"}, {"lat": "40.816667", "city": "Nagashimacho", "lon": "140.733333"}, {"lat": "40.816667", "city": "Nagashima-machi", "lon": "140.733333"}, {"lat": "40.816667", "city": "Nagashima", "lon": "140.733333"}, {"lat": "41.05", "city": "Nakaokuni", "lon": "140.6"}, {"lat": "40.958333", "city": "Nakasato", "lon": "140.436111"}, {"lat": "40.958333", "city": "Nakazato", "lon": "140.436111"}, {"lat": "40.8", "city": "Namidate", "lon": "140.716667"}, {"lat": "40.707222", "city": "Namioka", "lon": "140.589444"}, {"lat": "40.292222", "city": "Natsusaka", "lon": "141.008611"}, {"lat": "40.292222", "city": "Natsuzaka", "lon": "141.008611"}, {"lat": "40.466667", "city": "Nenokuchi", "lon": "140.933333"}, {"lat": "40.483333", "city": "Niida", "lon": "141.533333"}, {"lat": "40.483333", "city": "Niita", "lon": "141.533333"}, {"lat": "40.433333", "city": "Ninowatari", "lon": "140.633333"}, {"lat": "40.433333", "city": "Ninowatashi", "lon": "140.633333"}, {"lat": "40.866667", "city": "Nishitazawa", "lon": "140.683333"}, {"lat": "40.833333", "city": "Nitta", "lon": "140.716667"}, {"lat": "40.866667", "city": "Nobedi", "lon": "141.126111"}, {"lat": "40.866667", "city": "Nobeji", "lon": "141.126111"}, {"lat": "40.866667", "city": "Nobeti", "lon": "141.126111"}, {"lat": "40.866667", "city": "Noheji", "lon": "141.126111"}, {"lat": "40.866667", "city": "Nohezi", "lon": "141.126111"}, {"lat": "40.843056", "city": "Nonai", "lon": "140.822778"}, {"lat": "41.133333", "city": "Nota", "lon": "140.65"}, {"lat": "40.716667", "city": "Obatakesawa", "lon": "140.75"}, {"lat": "41.403611", "city": "Obata", "lon": "141.167222"}, {"lat": "40.716667", "city": "Obatazawa", "lon": "140.75"}, {"lat": "40.966667", "city": "Obuchi", "lon": "141.373333"}, {"lat": "41.058889", "city": "Odai", "lon": "140.553056"}, {"lat": "41.283333", "city": "Odaira", "lon": "141.166667"}, {"lat": "40.783333", "city": "Odate", "lon": "140.316667"}, {"lat": "41.216667", "city": "Odomari", "lon": "140.516667"}, {"lat": "40.716667", "city": "Ogara", "lon": "141.3"}, {"lat": "40.716667", "city": "Ogawara", "lon": "141.3"}, {"lat": "40.483333", "city": "Ogida", "lon": "141.316667"}, {"lat": "40.483333", "city": "Ogita", "lon": "141.316667"}, {"lat": "40.8", "city": "Oguno", "lon": "140.766667"}, {"lat": "41.403611", "city": "Ohata", "lon": "141.167222"}, {"lat": "41.283333", "city": "Ohira", "lon": "141.166667"}, {"lat": "40.683611", "city": "Oirase", "lon": "139.971667"}, {"lat": "40.65", "city": "Okamachi", "lon": "139.933333"}, {"lat": "40.65", "city": "Okanomachi", "lon": "139.933333"}, {"lat": "40.833333", "city": "Okidate", "lon": "140.733333"}, {"lat": "41.483333", "city": "Okoppe", "lon": "140.9"}, {"lat": "40.483333", "city": "Okuki", "lon": "141.616667"}, {"lat": "40.8", "city": "Okuno", "lon": "140.766667"}, {"lat": "40.8", "city": "Okuno Uramachi", "lon": "140.766667"}, {"lat": "40.585", "city": "Okuse", "lon": "141.092222"}, {"lat": "40.484444", "city": "Omagoe", "lon": "139.952778"}, {"lat": "40.484444", "city": "Omagoshi", "lon": "139.952778"}, {"lat": "40.484444", "city": "Omakoshi", "lon": "139.952778"}, {"lat": "41.521944", "city": "Oma", "lon": "140.906667"}, {"lat": "41.273056", "city": "Ominatocho", "lon": "141.155278"}, {"lat": "41.273056", "city": "Ominato", "lon": "141.155278"}, {"lat": "40.683611", "city": "Omisawa", "lon": "141.359722"}, {"lat": "40.683333", "city": "Onizawa", "lon": "140.4"}, {"lat": "40.816667", "city": "Ono", "lon": "140.733333"}, {"lat": "40.966667", "city": "Osame", "lon": "141.373333"}, {"lat": "41.058889", "city": "Otaira", "lon": "140.553056"}, {"lat": "41.222778", "city": "Otanosawa", "lon": "141.400556"}, {"lat": "40.518611", "city": "Owani", "lon": "140.570556"}, {"lat": "40.866667", "city": "Sabishiro", "lon": "141.216667"}, {"lat": "40.866667", "city": "Sabishiyo", "lon": "141.216667"}, {"lat": "40.866667", "city": "Sabushiro", "lon": "141.216667"}, {"lat": "41.425556", "city": "Sai", "lon": "140.867778"}, {"lat": "40.6", "city": "Sambongi", "lon": "141.216667"}, {"lat": "40.533611", "city": "Samemachi", "lon": "141.554167"}, {"lat": "40.533611", "city": "Same", "lon": "141.554167"}, {"lat": "40.6", "city": "Sanbongi", "lon": "141.216667"}, {"lat": "40.373056", "city": "Sannohe", "lon": "141.257222"}, {"lat": "41.283333", "city": "Sarugamori", "lon": "141.4"}, {"lat": "41.35", "city": "Sekine", "lon": "141.216667"}, {"lat": "40.691111", "city": "Shichinohe", "lon": "141.154722"}, {"lat": "40.466667", "city": "Shikada", "lon": "141.166667"}, {"lat": "41.366667", "city": "Shikkari", "lon": "141.45"}, {"lat": "40.35", "city": "Shimizugashira", "lon": "141.1"}, {"lat": "40.916667", "city": "Shimizugawa", "lon": "141.016667"}, {"lat": "40.916667", "city": "Shimizukawa", "lon": "141.016667"}, {"lat": "40.583333", "city": "Shimoda", "lon": "141.4"}, {"lat": "41.466667", "city": "Shimofuro", "lon": "141.1"}, {"lat": "41.133333", "city": "Shiranuka", "lon": "141.4"}, {"lat": "41.366667", "city": "Shirikari", "lon": "141.45"}, {"lat": "40.5", "city": "Shiriuchi", "lon": "141.433333"}, {"lat": "41.4", "city": "Shiriya", "lon": "141.45"}, {"lat": "41.116667", "city": "Shitamae", "lon": "140.266667"}, {"lat": "41.116667", "city": "Shitamai", "lon": "140.266667"}, {"lat": "40.633333", "city": "Shitokawame", "lon": "141.45"}, {"lat": "40.35", "city": "Shizugashira", "lon": "141.1"}, {"lat": "40.916667", "city": "Shizuga", "lon": "141.016667"}, {"lat": "40.916667", "city": "Shizukawa", "lon": "141.016667"}, {"lat": "40.733333", "city": "Shobugawa", "lon": "140.416667"}, {"lat": "40.733333", "city": "Shobukawa", "lon": "140.416667"}, {"lat": "41.166667", "city": "Shukunobe", "lon": "140.933333"}, {"lat": "41.466667", "city": "Simohuro", "lon": "141.1"}, {"lat": "41.133333", "city": "Siranuka", "lon": "141.4"}, {"lat": "41.4", "city": "Siriya", "lon": "141.45"}, {"lat": "40.75", "city": "Suginosawa", "lon": "140.6"}, {"lat": "40.75", "city": "Sugizawa", "lon": "140.6"}, {"lat": "41.216667", "city": "Sunagamori", "lon": "140.55"}, {"lat": "41.366667", "city": "Suri-noushigawa", "lon": "141.366667"}, {"lat": "41.15", "city": "Tairadate", "lon": "140.633333"}, {"lat": "41.15", "city": "Tairatate", "lon": "140.633333"}, {"lat": "40.766667", "city": "Takada", "lon": "140.716667"}, {"lat": "40.766667", "city": "Takata", "lon": "140.716667"}, {"lat": "40.4", "city": "Takayashiki", "lon": "141.266667"}, {"lat": "40.7", "city": "Takibuchi", "lon": "140.233333"}, {"lat": "40.7", "city": "Takifuchi", "lon": "140.233333"}, {"lat": "40.336111", "city": "Takko", "lon": "141.151667"}, {"lat": "41.289444", "city": "Tanabe", "lon": "141.216944"}, {"lat": "41.289444", "city": "Tanabu", "lon": "141.216944"}, {"lat": "40.5", "city": "Tanesashi", "lon": "141.616667"}, {"lat": "40.783333", "city": "Tanichito", "lon": "141.366667"}, {"lat": "40.756111", "city": "Tanosawa", "lon": "140.050278"}, {"lat": "41.253889", "city": "Tappi", "lon": "140.340278"}, {"lat": "40.390278", "city": "Tashiro", "lon": "141.535556"}, {"lat": "40.583333", "city": "Tateishi", "lon": "141.05"}, {"lat": "40.873611", "city": "Tateoka", "lon": "140.336667"}, {"lat": "41.183333", "city": "Tawosawa", "lon": "141.016667"}, {"lat": "40.45", "city": "Tegurabashi", "lon": "141.266667"}, {"lat": "40.45", "city": "Tekurabashi", "lon": "141.266667"}, {"lat": "40.7", "city": "Todoriki", "lon": "139.983333"}, {"lat": "40.7", "city": "Todoroki", "lon": "139.983333"}, {"lat": "40.9", "city": "Togisaka", "lon": "140.333333"}, {"lat": "40.633333", "city": "Tokiwano-karekitai", "lon": "140.233333"}, {"lat": "40.633333", "city": "Tokiwano", "lon": "140.233333"}, {"lat": "40.75", "city": "Tokoshinai", "lon": "140.333333"}, {"lat": "40.933333", "city": "Tokusari", "lon": "141.3"}, {"lat": "41.088056", "city": "Tomari", "lon": "141.391111"}, {"lat": "40.966667", "city": "Tomiyachi", "lon": "140.366667"}, {"lat": "40.966667", "city": "Tomiyashi", "lon": "140.366667"}, {"lat": "40.620495", "city": "Towada", "lon": "141.210674"}, {"lat": "40.916667", "city": "Tsuchiya", "lon": "140.866667"}, {"lat": "40.80357", "city": "Tsugaru", "lon": "140.40299"}, {"lat": "40.916667", "city": "Tsujiya", "lon": "140.866667"}, {"lat": "40.607778", "city": "Tsukiya", "lon": "139.87"}, {"lat": "41.216667", "city": "Tsunashirazu", "lon": "140.583333"}, {"lat": "40.9", "city": "Uchimambe", "lon": "140.666667"}, {"lat": "40.9", "city": "Uchimampe", "lon": "140.666667"}, {"lat": "40.9", "city": "Uchimappe", "lon": "140.666667"}, {"lat": "40.816667", "city": "Uramachi", "lon": "140.75"}, {"lat": "40.919722", "city": "Ushigata", "lon": "140.368611"}, {"lat": "41.283333", "city": "Ushitaki", "lon": "140.8"}, {"lat": "41.283333", "city": "Usitaki", "lon": "140.8"}, {"lat": "40.433333", "city": "Utarube", "lon": "140.933333"}, {"lat": "41.25", "city": "Uta", "lon": "141.133333"}, {"lat": "40.9", "city": "Utsumampe", "lon": "140.666667"}, {"lat": "40.733333", "city": "Uwano", "lon": "141.25"}, {"lat": "41.090278", "city": "Wakimoto", "lon": "140.321667"}, {"lat": "41.141111", "city": "Wakinosawa", "lon": "140.821944"}, {"lat": "40.733333", "city": "Wano", "lon": "141.25"}, {"lat": "40.783333", "city": "Yachigashira", "lon": "141.366667"}, {"lat": "40.783333", "city": "Yachikashira", "lon": "141.366667"}, {"lat": "41.416667", "city": "Yagoshi", "lon": "140.85"}, {"lat": "41.416667", "city": "Yagosi", "lon": "140.85"}, {"lat": "40.571389", "city": "Yakeyama", "lon": "140.983889"}, {"lat": "40.75", "city": "Yanagida", "lon": "140.166667"}, {"lat": "40.816667", "city": "Yanagimachi", "lon": "140.75"}, {"lat": "40.505", "city": "Yato", "lon": "141.491944"}, {"lat": "41.083333", "city": "Yokohama", "lon": "141.25"}, {"lat": "40.966667", "city": "Yomogita", "lon": "140.666667"}, {"lat": "40.866667", "city": "Yugurizaka", "lon": "140.85"}, {"lat": "41.033333", "city": "Zy\u00fbsan", "lon": "140.333333"}], "26": [{"lat": "35.783333", "city": "Agematsu", "lon": "137.7"}, {"lat": "36.35", "city": "Aida", "lon": "138"}, {"lat": "36.35", "city": "Aita", "lon": "138"}, {"lat": "35.516667", "city": "Ajima", "lon": "137.883333"}, {"lat": "35.733333", "city": "Akaho", "lon": "137.933333"}, {"lat": "36.983333", "city": "Akaishi", "lon": "138.516667"}, {"lat": "36.183333", "city": "Akamatsu", "lon": "137.8"}, {"lat": "36.35", "city": "Akanashi", "lon": "137.933333"}, {"lat": "36.983333", "city": "Akashi", "lon": "138.516667"}, {"lat": "36.35", "city": "Akashina", "lon": "137.933333"}, {"lat": "36.35", "city": "Akeshina", "lon": "137.933333"}, {"lat": "36.6", "city": "Aogu", "lon": "137.883333"}, {"lat": "36.366667", "city": "Aoki", "lon": "138.133333"}, {"lat": "36.35", "city": "Aoki-gemi", "lon": "137.883333"}, {"lat": "36.616667", "city": "Aokijima", "lon": "138.183333"}, {"lat": "36.616667", "city": "Aokijimamachi-Aokijima", "lon": "138.183333"}, {"lat": "36.35", "city": "Aoki-kemi", "lon": "137.883333"}, {"lat": "36.6", "city": "Aoku", "lon": "137.883333"}, {"lat": "36.6", "city": "Aotomo", "lon": "137.883333"}, {"lat": "35.55", "city": "Araragi", "lon": "137.633333"}, {"lat": "36.266667", "city": "Asama", "lon": "137.983333"}, {"lat": "36.266667", "city": "Ashida", "lon": "138.316667"}, {"lat": "35.516667", "city": "Ashima", "lon": "137.883333"}, {"lat": "36.266667", "city": "Ashita", "lon": "138.316667"}, {"lat": "35.966667", "city": "Atsusayama", "lon": "138.666667"}, {"lat": "35.35", "city": "Awano", "lon": "137.8"}, {"lat": "36.133333", "city": "Azumi", "lon": "137.716667"}, {"lat": "36.288155", "city": "Azumino", "lon": "137.887055"}, {"lat": "36.25", "city": "Azusabashi", "lon": "137.916667"}, {"lat": "36.25", "city": "Azusaboshi", "lon": "137.916667"}, {"lat": "35.966667", "city": "Azusayama", "lon": "138.666667"}, {"lat": "36.966667", "city": "Baba", "lon": "138.45"}, {"lat": "36.966667", "city": "Bamba", "lon": "138.45"}, {"lat": "36.233333", "city": "Bammachi", "lon": "138.433333"}, {"lat": "36.35", "city": "Bessho", "lon": "138.15"}, {"lat": "36.45", "city": "Chikaraishi", "lon": "138.166667"}, {"lat": "36.527147", "city": "Chikuma", "lon": "138.089426"}, {"lat": "36.75", "city": "Chikuni", "lon": "137.9"}, {"lat": "35.983333", "city": "Chino", "lon": "138.15"}, {"lat": "36.733333", "city": "Chusha", "lon": "138.083333"}, {"lat": "36.1", "city": "Daimon", "lon": "137.966667"}, {"lat": "36.5", "city": "Daishinden", "lon": "137.866667"}, {"lat": "36.083333", "city": "Domura", "lon": "138.483333"}, {"lat": "36.766667", "city": "Dorosaki", "lon": "137.9"}, {"lat": "36.766667", "city": "Dorozaki", "lon": "137.9"}, {"lat": "36.233333", "city": "Fukase", "lon": "137.966667"}, {"lat": "36.233333", "city": "Fukashi", "lon": "137.966667"}, {"lat": "35.85", "city": "Fukushima", "lon": "137.7"}, {"lat": "36.133333", "city": "Gobara", "lon": "137.933333"}, {"lat": "36.133333", "city": "Gohara", "lon": "137.933333"}, {"lat": "36.05", "city": "Hanaoka", "lon": "138.05"}, {"lat": "35.966667", "city": "Hara", "lon": "138.55"}, {"lat": "36.133333", "city": "Hata", "lon": "138.466667"}, {"lat": "36.533333", "city": "Higashi-gumi", "lon": "138.333333"}, {"lat": "36.55", "city": "Higashi-jo", "lon": "138.216667"}, {"lat": "36.55", "city": "Higashi-jo-mura", "lon": "138.216667"}, {"lat": "36.983333", "city": "Higashi-otaki", "lon": "138.483333"}, {"lat": "36.633333", "city": "Higashitsuruga", "lon": "138.183333"}, {"lat": "36.633333", "city": "Higashi-tsurugamachi", "lon": "138.183333"}, {"lat": "36.05", "city": "Hirano", "lon": "138.05"}, {"lat": "35.266667", "city": "Hiraoka", "lon": "137.85"}, {"lat": "35.983333", "city": "Hirasawa", "lon": "137.833333"}, {"lat": "35.316667", "city": "Hiratani", "lon": "137.633333"}, {"lat": "35.316667", "city": "Hiraya", "lon": "137.633333"}, {"lat": "36.133333", "city": "Hirooka-Gobara", "lon": "137.933333"}, {"lat": "35.45", "city": "Hirugami", "lon": "137.716667"}, {"lat": "35.45", "city": "Hirukami", "lon": "137.716667"}, {"lat": "36.25", "city": "Hitoichiba", "lon": "137.9"}, {"lat": "36.25", "city": "Hitoichi", "lon": "137.9"}, {"lat": "36.733333", "city": "Hokosha", "lon": "138.083333"}, {"lat": "36.583333", "city": "Hoshina", "lon": "138.266667"}, {"lat": "36.333333", "city": "Hotaka", "lon": "137.883333"}, {"lat": "35.55", "city": "Ichiba", "lon": "137.9"}, {"lat": "35.733333", "city": "Ichinose", "lon": "138.083333"}, {"lat": "35.516667", "city": "Iida", "lon": "137.833333"}, {"lat": "35.3", "city": "Iijima", "lon": "137.883333"}, {"lat": "36.85", "city": "Iiyama", "lon": "138.366667"}, {"lat": "36.416667", "city": "Ikeda", "lon": "137.883333"}, {"lat": "35.716667", "city": "Ikenoshiri", "lon": "137.716667"}, {"lat": "35.833333", "city": "Ina", "lon": "137.95"}, {"lat": "36.533333", "city": "Inariyama", "lon": "138.116667"}, {"lat": "35.5", "city": "Inayawata", "lon": "137.85"}, {"lat": "36.8", "city": "Ishihara", "lon": "137.916667"}, {"lat": "36.8", "city": "Ishiwara", "lon": "137.916667"}, {"lat": "35.966667", "city": "Itabashi", "lon": "138.483333"}, {"lat": "35.966667", "city": "Itahashi", "lon": "138.483333"}, {"lat": "36.266667", "city": "Iwamurada", "lon": "138.466667"}, {"lat": "36.266667", "city": "Iwamurata", "lon": "138.466667"}, {"lat": "36.85", "city": "Iyama", "lon": "138.366667"}, {"lat": "35.383333", "city": "Kadomachi", "lon": "137.966667"}, {"lat": "35.383333", "city": "Kadomura", "lon": "137.966667"}, {"lat": "36.766667", "city": "Kaesa", "lon": "138.316667"}, {"lat": "36.6", "city": "Kakajo", "lon": "138.033333"}, {"lat": "35.8", "city": "Kakehashi", "lon": "137.683333"}, {"lat": "36.3", "city": "Kakevu", "lon": "138.133333"}, {"lat": "36.3", "city": "Kakeyu", "lon": "138.133333"}, {"lat": "35.6", "city": "Kami-arai", "lon": "137.916667"}, {"lat": "36.266667", "city": "Kami-honiri", "lon": "138.15"},