{"KI": {"00": [{"lat": "1.4666667", "city": "Abaokoro", "lon": "173.0166667"}, {"lat": "1.4", "city": "Abatao", "lon": "173.1166667"}, {"lat": "-1.9166667", "city": "Aiaki", "lon": "175.5833333"}, {"lat": "2.0333333", "city": "Antai", "lon": "173.2833333"}, {"lat": "-1.3", "city": "Aoniman", "lon": "175.9833333"}, {"lat": "1.8833333", "city": "Aonobuaba", "lon": "172.9833333"}, {"lat": "1.8833333", "city": "Aonobuaka", "lon": "172.9833333"}, {"lat": "-4.5166667", "city": "Arariki", "lon": "-172.2166667"}, {"lat": "-0.6833333", "city": "Aubeanai", "lon": "174.4666667"}, {"lat": "-0.6833333", "city": "Aubeanau", "lon": "174.4666667"}, {"lat": "-0.6833333", "city": "Aubeangai", "lon": "174.4666667"}, {"lat": "-1.3", "city": "Autokia", "lon": "175.9666667"}, {"lat": "-0.65", "city": "Autukia", "lon": "174.45"}, {"lat": "1.3166667", "city": "Bairiki", "lon": "172.9666667"}, {"lat": "1.3333333", "city": "Banraeaba", "lon": "173.0333333"}, {"lat": "1.3333333", "city": "Banreaba", "lon": "173.0333333"}, {"lat": "0.45", "city": "Baretoa", "lon": "173.9"}, {"lat": "1.35", "city": "Betio", "lon": "172.9333333"}, {"lat": "1.35", "city": "Bikenibeu", "lon": "173.1333333"}, {"lat": "1.0", "city": "Bikerei", "lon": "173.0"}, {"lat": "0.4166667", "city": "Binoinano", "lon": "173.9166667"}, {"lat": "1.9", "city": "Borotiam", "lon": "172.9666667"}, {"lat": "1.9", "city": "Borotium", "lon": "172.9666667"}, {"lat": "-0.8833333", "city": "Buakonikai", "lon": "169.55"}, {"lat": "1.5833333", "city": "Buariki", "lon": "172.9666667"}, {"lat": "2.0166667", "city": "Buoata", "lon": "173.2666667"}, {"lat": "1.3666667", "city": "Buota", "lon": "173.1333333"}, {"lat": "3.0833333", "city": "Butaritari", "lon": "172.8166667"}, {"lat": "-1.2", "city": "Eita", "lon": "174.7333333"}, {"lat": "-1.9166667", "city": "Ijaki", "lon": "175.5833333"}, {"lat": "0.3166667", "city": "Kabanaki", "lon": "173.9333333"}, {"lat": "0.3166667", "city": "Kabangaki", "lon": "173.9333333"}, {"lat": "-0.6666667", "city": "Kaiaroa", "lon": "174.4666667"}, {"lat": "-0.6666667", "city": "Kairaoa", "lon": "174.4666667"}, {"lat": "0.4", "city": "Kariatebike", "lon": "173.9333333"}, {"lat": "-1.3", "city": "Kariri", "lon": "175.9666667"}, {"lat": "-0.6666667", "city": "Kawantetua", "lon": "174.4666667"}, {"lat": "3.1333333", "city": "Keua", "lon": "172.9166667"}, {"lat": "3.1333333", "city": "Keuea", "lon": "172.9166667"}, {"lat": "0.9", "city": "King", "lon": "173.0333333"}, {"lat": "1.8666667", "city": "Koinawa", "lon": "172.9833333"}, {"lat": "-4.5166667", "city": "Kukutin", "lon": "-172.2166667"}, {"lat": "3.1666667", "city": "Kuma", "lon": "172.9666667"}, {"lat": "1.8333333", "city": "Kuria", "lon": "173.0166667"}, {"lat": "1.9833333", "city": "London", "lon": "-157.4666667"}, {"lat": "-0.7166667", "city": "Makauro", "lon": "174.4666667"}, {"lat": "0.3333333", "city": "Manoku", "lon": "173.95"}, {"lat": "4.7", "city": "Manounou", "lon": "-160.4"}, {"lat": "-1.35", "city": "Manriki", "lon": "176.45"}, {"lat": "1.4666667", "city": "Maranenuka Village", "lon": "173.0333333"}, {"lat": "1.4666667", "city": "Marenanuka", "lon": "173.0333333"}, {"lat": "1.85", "city": "Morikao", "lon": "173.0"}, {"lat": "-1.3166667", "city": "Muribenua", "lon": "176.4166667"}, {"lat": "3.9", "city": "Nabari", "lon": "-159.3833333"}, {"lat": "1.4166667", "city": "Nabeina", "lon": "173.0833333"}, {"lat": "-2.6333333", "city": "Naimoa", "lon": "176.8166667"}, {"lat": "-0.6666667", "city": "Nanibaba", "lon": "174.45"}, {"lat": "-1.3166667", "city": "Nansaba", "lon": "176.0"}, {"lat": "3.9", "city": "Napari", "lon": "-159.3833333"}, {"lat": "3.0833333", "city": "New Butaritari", "lon": "172.8166667"}, {"lat": "-1.3833333", "city": "Nikumanu", "lon": "176.4666667"}, {"lat": "-1.4833333", "city": "Nikutoru", "lon": "175.0666667"}, {"lat": "-4.6666667", "city": "Noriti", "lon": "-174.5333333"}, {"lat": "1.5", "city": "Noto", "lon": "173.0166667"}, {"lat": "1.5333333", "city": "Nuatabu", "lon": "172.9833333"}, {"lat": "-1.35", "city": "Nuka", "lon": "176.0"}, {"lat": "-1.3833333", "city": "Nukumanu", "lon": "176.4666667"}, {"lat": "-1.15", "city": "Nuribenua", "lon": "174.6666667"}, {"lat": "-1.4833333", "city": "Nutoru", "lon": "175.0666667"}, {"lat": "-0.8833333", "city": "O-N-Aorakai", "lon": "169.55"}, {"lat": "-0.9", "city": "Ooma", "lon": "169.55"}, {"lat": "-0.8833333", "city": "Puakoikai", "lon": "169.55"}, {"lat": "-0.8833333", "city": "Puakonikai", "lon": "169.55"}, {"lat": "-1.4833333", "city": "Puarik", "lon": "175.0666667"}, {"lat": "-0.65", "city": "Rakentai", "lon": "174.4666667"}, {"lat": "-0.65", "city": "Rakewai", "lon": "174.4666667"}, {"lat": "2.05", "city": "Rawannawi", "lon": "173.2666667"}, {"lat": "1.7833333", "city": "Riaria", "lon": "173.05"}, {"lat": "-4.6666667", "city": "Ritiati", "lon": "-174.5333333"}, {"lat": "-1.35", "city": "Rongata", "lon": "176.4333333"}, {"lat": "-1.3333333", "city": "Rongorongo", "lon": "176.0"}, {"lat": "2.0", "city": "Roreauea", "lon": "173.3"}, {"lat": "-2.65", "city": "Roreti", "lon": "176.8333333"}, {"lat": "-0.6166667", "city": "Rotuma", "lon": "174.4166667"}, {"lat": "-1.35", "city": "Rungata", "lon": "176.4333333"}, {"lat": "0.4833333", "city": "Tabiang", "lon": "173.8333333"}, {"lat": "0.4833333", "city": "Tabia\u00f1", "lon": "173.8333333"}, {"lat": "0.9", "city": "Tabiauea", "lon": "173.0333333"}, {"lat": "1.4", "city": "Tabiteuea", "lon": "173.1"}, {"lat": "-1.3833333", "city": "Taboiaki", "lon": "176.0166667"}, {"lat": "-1.4", "city": "Tabomatang", "lon": "176.4833333"}, {"lat": "1.7166667", "city": "Taboneaba", "lon": "173.0"}, {"lat": "1.7166667", "city": "Tabontebike", "lon": "172.9833333"}, {"lat": "3.1", "city": "Tabonuea", "lon": "172.8166667"}, {"lat": "3.1", "city": "Tabonuuia", "lon": "172.8166667"}, {"lat": "1.5", "city": "Taborio", "lon": "173.0166667"}, {"lat": "-1.9166667", "city": "Tabuarorae", "lon": "175.5666667"}, {"lat": "1.8", "city": "Tabuiroa", "lon": "173.0333333"}, {"lat": "-1.35", "city": "Tabukinberu", "lon": "175.9833333"}, {"lat": "-1.35", "city": "Tabukiniberu", "lon": "175.9833333"}, {"lat": "1.8166667", "city": "Taburao", "lon": "173.0166667"}, {"lat": "-1.9166667", "city": "Taburari", "lon": "175.5666667"}, {"lat": "-1.3333333", "city": "Tabutoa", "lon": "176.4333333"}, {"lat": "-0.8833333", "city": "Tabwewa", "lon": "169.5333333"}, {"lat": "1.8", "city": "Tabwirao", "lon": "173.0333333"}, {"lat": "1.95", "city": "Takarano", "lon": "172.9166667"}, {"lat": "1.95", "city": "Takarona", "lon": "172.9166667"}, {"lat": "-1.5166667", "city": "Taku", "lon": "175.0666667"}, {"lat": "-2.6333333", "city": "Tamaroa", "lon": "176.8166667"}, {"lat": "-1.1666667", "city": "Tanaeang", "lon": "174.7"}, {"lat": "-1.1666667", "city": "Tanaiang", "lon": "174.7"}, {"lat": "4.7166667", "city": "Tanekore", "lon": "-160.4333333"}, {"lat": "1.7666667", "city": "Tanimaiaki", "lon": "173.05"}, {"lat": "1.7666667", "city": "Tanimaiki", "lon": "173.05"}, {"lat": "0.4833333", "city": "Tanimainiku", "lon": "173.8666667"}, {"lat": "-0.8833333", "city": "Tapiang", "lon": "169.5333333"}, {"lat": "-0.8833333", "city": "Tapiwa", "lon": "169.5333333"}, {"lat": "-0.6666667", "city": "Tarakarawa", "lon": "174.4666667"}, {"lat": "1.5333333", "city": "Taratai", "lon": "172.9833333"}, {"lat": "-0.8833333", "city": "Tarawa", "lon": "169.5333333"}, {"lat": "-2.6333333", "city": "Taribo", "lon": "176.8166667"}, {"lat": "1.5333333", "city": "Taritai", "lon": "172.9833333"}, {"lat": "1.3333333", "city": "Teaoraereka", "lon": "173.0166667"}, {"lat": "1.3333333", "city": "Teaoraereke Mission", "lon": "173.0166667"}, {"lat": "1.3333333", "city": "Teaoraereke", "lon": "173.0166667"}, {"lat": "1.5666667", "city": "Tearinibai", "lon": "172.9666667"}, {"lat": "0.3666667", "city": "Tebana", "lon": "173.95"}, {"lat": "0.3666667", "city": "Tebanga", "lon": "173.95"}, {"lat": "-0.7", "city": "Tebatabuki", "lon": "174.4666667"}, {"lat": "-0.7", "city": "Tebatibaki", "lon": "174.4666667"}, {"lat": "1.8166667", "city": "Tebero", "lon": "173.0166667"}, {"lat": "0.9", "city": "Tebiauea", "lon": "173.0333333"}, {"lat": "0.9", "city": "Tebiayea", "lon": "173.0333333"}, {"lat": "1.0", "city": "Tebikerai", "lon": "173.0"}, {"lat": "1.0", "city": "Tebikerei", "lon": "173.0"}, {"lat": "-1.3", "city": "Tebikeriki", "lon": "175.95"}, {"lat": "-0.6833333", "city": "Tebobonga", "lon": "174.4666667"}, {"lat": "1.7166667", "city": "Tebontebike", "lon": "172.9833333"}, {"lat": "1.9166667", "city": "Tebunginako", "lon": "172.95"}, {"lat": "-1.1666667", "city": "Te Kabuibui", "lon": "174.7"}, {"lat": "-1.1666667", "city": "Te Kapuipui", "lon": "174.7"}, {"lat": "2.0", "city": "Tekarakan", "lon": "173.25"}, {"lat": "0.4666667", "city": "Tekatirirake", "lon": "173.8666667"}, {"lat": "2.0333333", "city": "Tekuanga", "lon": "173.2833333"}, {"lat": "-0.6666667", "city": "Temaraia Matang", "lon": "174.45"}, {"lat": "-0.6666667", "city": "Temaraia", "lon": "174.45"}, {"lat": "-0.7833333", "city": "Tenanoraoi", "lon": "174.4833333"}, {"lat": "-1.4666667", "city": "Teobokia", "lon": "175.0666667"}, {"lat": "-1.1666667", "city": "Terikai", "lon": "174.7166667"}, {"lat": "-1.1666667", "city": "Terikiai", "lon": "174.7166667"}, {"lat": "-0.8", "city": "Tetabakea", "lon": "174.4666667"}, {"lat": "-0.8", "city": "Tetabakia", "lon": "174.4666667"}, {"lat": "2.0166667", "city": "Tetabuki", "lon": "173.2666667"}, {"lat": "-0.7166667", "city": "Tetake", "lon": "174.4666667"}, {"lat": "-1.35", "city": "Teteirio", "lon": "176.0"}, {"lat": "-1.4333333", "city": "Tewai", "lon": "175.0166667"}, {"lat": "1.8", "city": "Tuarabu", "lon": "173.05"}, {"lat": "1.9333333", "city": "Ubanteman", "lon": "172.9333333"}, {"lat": "3.05", "city": "Ukiangang", "lon": "172.7666667"}, {"lat": "-0.7333333", "city": "Umanterwena", "lon": "174.4666667"}, {"lat": "-0.7333333", "city": "Umantewena", "lon": "174.4666667"}, {"lat": "-0.7333333", "city": "Umantewenei Taboiaki", "lon": "174.4666667"}, {"lat": "-0.9", "city": "Uma", "lon": "169.55"}, {"lat": "-0.7166667", "city": "Umauma", "lon": "174.4666667"}, {"lat": "-1.2166667", "city": "Utiroa", "lon": "174.75"}]}}