{"KN": {"11": [{"lat": "17.3333333", "city": "Bayford's", "lon": "-62.7166667"}, {"lat": "17.3333333", "city": "Bayfords Village", "lon": "-62.7166667"}, {"lat": "17.3333333", "city": "Canada", "lon": "-62.7"}, {"lat": "17.3166667", "city": "Douglas", "lon": "-62.7166667"}, {"lat": "17.3166667", "city": "Golden Rock", "lon": "-62.7166667"}, {"lat": "17.3166667", "city": "Greatheeds", "lon": "-62.7"}, {"lat": "17.3166667", "city": "John England Village", "lon": "-62.7166667"}, {"lat": "17.3333333", "city": "Key", "lon": "-62.7"}, {"lat": "17.3333333", "city": "Key Village", "lon": "-62.7"}, {"lat": "17.2833333", "city": "Kittitian Village", "lon": "-62.6833333"}, {"lat": "17.3333333", "city": "Lower Canada", "lon": "-62.7"}, {"lat": "17.3166667", "city": "Mardenbrough", "lon": "-62.7166667"}, {"lat": "17.3166667", "city": "Monkey Hill", "lon": "-62.7166667"}, {"lat": "17.3166667", "city": "Monkey Hill Village", "lon": "-62.7166667"}, {"lat": "17.3166667", "city": "Ogee's", "lon": "-62.7333333"}, {"lat": "17.3166667", "city": "Ogees Village", "lon": "-62.7333333"}, {"lat": "17.3166667", "city": "Parry's", "lon": "-62.7166667"}, {"lat": "17.3166667", "city": "Parrys Village", "lon": "-62.7166667"}, {"lat": "17.3166667", "city": "Perry", "lon": "-62.7166667"}, {"lat": "17.3166667", "city": "Stapleton", "lon": "-62.7333333"}, {"lat": "17.3166667", "city": "Stapleton Village", "lon": "-62.7333333"}, {"lat": "17.3166667", "city": "Upper Conaree", "lon": "-62.7"}], "03": [{"lat": "17.3", "city": "Basseterre", "lon": "-62.7166667"}, {"lat": "17.3", "city": "Basse Terre Town", "lon": "-62.7166667"}, {"lat": "17.3", "city": "Brumaire", "lon": "-62.7333333"}, {"lat": "17.3", "city": "Kit Stoddart's", "lon": "-62.7166667"}, {"lat": "17.3", "city": "Kit Stoddarts Village", "lon": "-62.7166667"}, {"lat": "17.3", "city": "Kitt Stoddarts Village", "lon": "-62.7166667"}, {"lat": "17.3", "city": "La Gu\u00e9rite", "lon": "-62.7166667"}, {"lat": "17.3", "city": "La Guerite Village", "lon": "-62.7166667"}, {"lat": "17.2833333", "city": "Limekiln", "lon": "-62.7333333"}, {"lat": "17.3", "city": "Saint Peter's", "lon": "-62.7166667"}], "13": [{"lat": "17.3333333", "city": "Half Way Tree", "lon": "-62.8166667"}, {"lat": "17.3333333", "city": "Half Way Tree Village", "lon": "-62.8166667"}, {"lat": "17.3166667", "city": "Middle Island", "lon": "-62.8166667"}, {"lat": "17.3166667", "city": "Middle Island Village", "lon": "-62.8166667"}, {"lat": "17.3166667", "city": "Old Road", "lon": "-62.8"}, {"lat": "17.3166667", "city": "Old Road Town", "lon": "-62.8"}, {"lat": "17.3333333", "city": "Romney", "lon": "-62.7833333"}, {"lat": "17.3333333", "city": "Romneys", "lon": "-62.7833333"}, {"lat": "17.3333333", "city": "Wingfield Estate", "lon": "-62.7833333"}, {"lat": "17.3333333", "city": "Wingfield Manor", "lon": "-62.7833333"}], "12": [{"lat": "17.1666667", "city": "Barnes Ghaut", "lon": "-62.6"}, {"lat": "17.1666667", "city": "Barnes Gut Village", "lon": "-62.6"}, {"lat": "17.1833333", "city": "Clifton", "lon": "-62.6"}, {"lat": "17.1833333", "city": "Cliftons", "lon": "-62.6"}, {"lat": "17.1666667", "city": "Cotton Ground", "lon": "-62.6166667"}, {"lat": "17.1666667", "city": "Cotton Ground Village", "lon": "-62.6166667"}, {"lat": "17.15", "city": "Jessup", "lon": "-62.6166667"}, {"lat": "17.15", "city": "Jessup's Village", "lon": "-62.6166667"}, {"lat": "17.15", "city": "Vaughans", "lon": "-62.6166667"}, {"lat": "17.1666667", "city": "Westbury", "lon": "-62.6"}], "06": [{"lat": "17.4", "city": "Belle Vue", "lon": "-62.7833333"}, {"lat": "17.3833333", "city": "Bramble", "lon": "-62.7666667"}, {"lat": "17.3833333", "city": "Brambles", "lon": "-62.7666667"}, {"lat": "17.4", "city": "Brown", "lon": "-62.8"}, {"lat": "17.4", "city": "Brownes", "lon": "-62.8"}, {"lat": "17.4", "city": "Clifton", "lon": "-62.8"}, {"lat": "17.4", "city": "Cliftons", "lon": "-62.8"}, {"lat": "17.4166667", "city": "Dieppe Bay", "lon": "-62.8"}, {"lat": "17.4166667", "city": "Dieppe Bay Town", "lon": "-62.8"}, {"lat": "17.3833333", "city": "Geagans", "lon": "-62.7833333"}, {"lat": "17.3833333", "city": "Geoghan", "lon": "-62.7833333"}, {"lat": "17.4", "city": "Harris", "lon": "-62.7833333"}, {"lat": "17.3833333", "city": "Houston", "lon": "-62.7833333"}, {"lat": "17.3833333", "city": "Houstons", "lon": "-62.7833333"}, {"lat": "17.3", "city": "Lucas", "lon": "-62.7"}, {"lat": "17.4", "city": "Parson's Ground", "lon": "-62.8"}, {"lat": "17.4", "city": "Parson's Village", "lon": "-62.8"}, {"lat": "17.4", "city": "Saddlers' Village", "lon": "-62.7833333"}, {"lat": "17.4", "city": "Sadlers", "lon": "-62.7833333"}, {"lat": "17.4", "city": "Sadlers Village", "lon": "-62.7833333"}, {"lat": "17.3833333", "city": "Tabernacle", "lon": "-62.7666667"}, {"lat": "17.3833333", "city": "Tabernacle Village", "lon": "-62.7666667"}], "07": [{"lat": "17.1333333", "city": "Bath", "lon": "-62.6166667"}, {"lat": "17.1333333", "city": "Bath Village", "lon": "-62.6166667"}, {"lat": "17.1166667", "city": "Beaumont", "lon": "-62.5666667"}, {"lat": "17.1166667", "city": "Beaumont Village", "lon": "-62.5666667"}, {"lat": "17.1166667", "city": "Brown Hill", "lon": "-62.6"}, {"lat": "17.1166667", "city": "Brown Pasture", "lon": "-62.5833333"}, {"lat": "17.1166667", "city": "Brown Pasture Village", "lon": "-62.5833333"}, {"lat": "17.1333333", "city": "Charlestown", "lon": "-62.6166667"}, {"lat": "17.1166667", "city": "Chicken Stone", "lon": "-62.5666667"}, {"lat": "17.1166667", "city": "Church Ground", "lon": "-62.6"}, {"lat": "17.1166667", "city": "Cole Hill", "lon": "-62.5833333"}, {"lat": "17.1166667", "city": "Cox", "lon": "-62.5833333"}, {"lat": "17.1166667", "city": "Cox's Village", "lon": "-62.5833333"}, {"lat": "17.1333333", "city": "Craddocks", "lon": "-62.6166667"}, {"lat": "17.1333333", "city": "Craddock's Village", "lon": "-62.6166667"}, {"lat": "17.1166667", "city": "Crook's Ground", "lon": "-62.5666667"}, {"lat": "17.1166667", "city": "Fig Tree", "lon": "-62.6"}, {"lat": "17.1166667", "city": "Fig Tree Village", "lon": "-62.6"}, {"lat": "17.1166667", "city": "Hermitage", "lon": "-62.5666667"}, {"lat": "17.1166667", "city": "Market Shop", "lon": "-62.5666667"}, {"lat": "17.1166667", "city": "Maynards Ground", "lon": "-62.5666667"}, {"lat": "17.1166667", "city": "Montpelier", "lon": "-62.5833333"}, {"lat": "17.1", "city": "Pembroke", "lon": "-62.6"}, {"lat": "17.1166667", "city": "Pond Hill", "lon": "-62.5833333"}, {"lat": "17.1166667", "city": "Taylors Pasture", "lon": "-62.5666667"}], "04": [{"lat": "17.1333333", "city": "Bachelor Hall", "lon": "-62.5166667"}, {"lat": "17.1333333", "city": "Bachelors Hall", "lon": "-62.5166667"}, {"lat": "17.1333333", "city": "Box Hill", "lon": "-62.55"}, {"lat": "17.1333333", "city": "Buck Hill Village", "lon": "-62.55"}, {"lat": "17.1333333", "city": "Buck's Hill", "lon": "-62.55"}, {"lat": "17.1333333", "city": "Fenton Hill", "lon": "-62.5666667"}, {"lat": "17.15", "city": "Fothergill", "lon": "-62.55"}, {"lat": "17.15", "city": "Fothergill's", "lon": "-62.55"}, {"lat": "17.1333333", "city": "Gingerland", "lon": "-62.55"}, {"lat": "17.1333333", "city": "Hard Time", "lon": "-62.55"}, {"lat": "17.1333333", "city": "Hardtimes", "lon": "-62.55"}, {"lat": "17.1333333", "city": "Harris", "lon": "-62.55"}, {"lat": "17.1333333", "city": "Hichmans", "lon": "-62.55"}, {"lat": "17.1333333", "city": "Hickmans Village", "lon": "-62.55"}, {"lat": "17.1166667", "city": "Holmes Hill", "lon": "-62.55"}, {"lat": "17.1333333", "city": "Hull Ground", "lon": "-62.5666667"}, {"lat": "17.15", "city": "Mannings", "lon": "-62.55"}, {"lat": "17.1333333", "city": "New River", "lon": "-62.55"}, {"lat": "17.1333333", "city": "Rawlins", "lon": "-62.5666667"}, {"lat": "17.1166667", "city": "Rices", "lon": "-62.55"}, {"lat": "17.1166667", "city": "Sheriffs Village", "lon": "-62.55"}, {"lat": "17.1166667", "city": "Sherriffs", "lon": "-62.55"}, {"lat": "17.1333333", "city": "Stonyhill", "lon": "-62.5666667"}, {"lat": "17.1333333", "city": "Webb's Ground", "lon": "-62.55"}, {"lat": "17.1333333", "city": "Zetlands", "lon": "-62.5666667"}, {"lat": "17.1333333", "city": "Zion Hill Village", "lon": "-62.55"}, {"lat": "17.1333333", "city": "Zion Hill", "lon": "-62.55"}, {"lat": "17.1333333", "city": "Zion Village", "lon": "-62.55"}, {"lat": "17.1333333", "city": "Zion", "lon": "-62.55"}], "05": [{"lat": "17.2", "city": "Barnabys Village", "lon": "-62.55"}, {"lat": "17.1833333", "city": "Brick Kiln", "lon": "-62.55"}, {"lat": "17.1833333", "city": "Brick Kiln Village", "lon": "-62.55"}, {"lat": "17.1833333", "city": "Burnaby", "lon": "-62.5666667"}, {"lat": "17.1666667", "city": "Butlers", "lon": "-62.55"}, {"lat": "17.1833333", "city": "Camps", "lon": "-62.5666667"}, {"lat": "17.1666667", "city": "Fountain", "lon": "-62.5833333"}, {"lat": "17.1666667", "city": "Fountain Village", "lon": "-62.5833333"}, {"lat": "17.2", "city": "Hick's", "lon": "-62.55"}, {"lat": "17.2", "city": "Hicks Village", "lon": "-62.55"}, {"lat": "17.1833333", "city": "Maddens", "lon": "-62.5333333"}, {"lat": "17.1833333", "city": "Maddon", "lon": "-62.5333333"}, {"lat": "17.1833333", "city": "Mount Lily", "lon": "-62.5833333"}, {"lat": "17.1833333", "city": "Mount Lily Village", "lon": "-62.5833333"}, {"lat": "17.2", "city": "Newcastle", "lon": "-62.5833333"}, {"lat": "17.2", "city": "Newcastle Village", "lon": "-62.5833333"}, {"lat": "17.1833333", "city": "Rawlins", "lon": "-62.5833333"}, {"lat": "17.1833333", "city": "Scarborough", "lon": "-62.5666667"}, {"lat": "17.1666667", "city": "Whitehall", "lon": "-62.55"}], "08": [{"lat": "17.35", "city": "Cayon", "lon": "-62.7333333"}, {"lat": "17.35", "city": "Cayon Village", "lon": "-62.7333333"}, {"lat": "17.35", "city": "Cayton", "lon": "-62.7333333"}, {"lat": "17.35", "city": "Dalzells", "lon": "-62.7"}, {"lat": "17.3666667", "city": "Hermitage", "lon": "-62.7166667"}, {"lat": "17.35", "city": "Jack in the Box", "lon": "-62.7333333"}, {"lat": "17.35", "city": "Ottley's", "lon": "-62.7333333"}, {"lat": "17.35", "city": "Ottley's Village", "lon": "-62.7333333"}], "02": [{"lat": "17.3666667", "city": "Burts", "lon": "-62.8166667"}, {"lat": "17.3666667", "city": "Fig Tree", "lon": "-62.85"}, {"lat": "17.35", "city": "Sandy Point", "lon": "-62.8333333"}, {"lat": "17.35", "city": "Sandy Point Town", "lon": "-62.8333333"}, {"lat": "17.35", "city": "Sandy Point Village", "lon": "-62.8333333"}], "01": [{"lat": "17.3833333", "city": "Boreo", "lon": "-62.7333333"}, {"lat": "17.3833333", "city": "Bourryau", "lon": "-62.7333333"}, {"lat": "17.35", "city": "Lodge", "lon": "-62.75"}, {"lat": "17.35", "city": "Lodge Village", "lon": "-62.75"}, {"lat": "17.3666667", "city": "Mansion", "lon": "-62.75"}, {"lat": "17.3666667", "city": "Molineaux", "lon": "-62.75"}, {"lat": "17.3666667", "city": "Molyneux", "lon": "-62.75"}, {"lat": "17.3666667", "city": "Nicola Town", "lon": "-62.75"}, {"lat": "17.35", "city": "Phillips", "lon": "-62.75"}, {"lat": "17.35", "city": "Phillips Village", "lon": "-62.75"}], "09": [{"lat": "17.4", "city": "Heldens", "lon": "-62.8333333"}, {"lat": "17.3833333", "city": "Lees", "lon": "-62.85"}, {"lat": "17.3833333", "city": "Leigh's Village", "lon": "-62.85"}, {"lat": "17.3833333", "city": "Newton Ground", "lon": "-62.85"}, {"lat": "17.3833333", "city": "Newton Ground Village", "lon": "-62.85"}, {"lat": "17.3833333", "city": "Ortons", "lon": "-62.8333333"}, {"lat": "17.4", "city": "Saint Paul's", "lon": "-62.8166667"}, {"lat": "17.4", "city": "Saint Paul's Village", "lon": "-62.8166667"}, {"lat": "17.3833333", "city": "Trants", "lon": "-62.85"}, {"lat": "17.3833333", "city": "Trant", "lon": "-62.85"}, {"lat": "17.4166667", "city": "Whitegate", "lon": "-62.8166667"}], "15": [{"lat": "17.2833333", "city": "Boyd's", "lon": "-62.7666667"}, {"lat": "17.3", "city": "Challengers", "lon": "-62.7833333"}, {"lat": "17.3", "city": "Challengers Village", "lon": "-62.7833333"}, {"lat": "17.3", "city": "Otley", "lon": "-62.7666667"}, {"lat": "17.3", "city": "Ottley's", "lon": "-62.7666667"}, {"lat": "17.3", "city": "Trinity", "lon": "-62.7666667"}]}}