{"KW": {"02": [{"lat": "29.132222", "city": "Abi Huleifa", "lon": "48.126111"}, {"lat": "29.2925", "city": "Abrag Khitan", "lon": "47.968889"}, {"lat": "29.2925", "city": "Abrak Khetan", "lon": "47.968889"}, {"lat": "29.2925", "city": "Abraq Haytan", "lon": "47.968889"}, {"lat": "29.2925", "city": "Abraq Khaitan", "lon": "47.968889"}, {"lat": "29.2925", "city": "Abraq Khaytan", "lon": "47.968889"}, {"lat": "29.2925", "city": "Abraq Khetan", "lon": "47.968889"}, {"lat": "29.2925", "city": "Abraq Khitan", "lon": "47.968889"}, {"lat": "29.132222", "city": "Abu Halaifa", "lon": "48.126111"}, {"lat": "29.132222", "city": "Abu Halaifah", "lon": "48.126111"}, {"lat": "29.132222", "city": "Abu Halifah", "lon": "48.126111"}, {"lat": "29.132222", "city": "Abu-Hleifa", "lon": "48.126111"}, {"lat": "29.132222", "city": "Abu Hulaifa", "lon": "48.126111"}, {"lat": "29.132222", "city": "Abu Hulaifah", "lon": "48.126111"}, {"lat": "29.132222", "city": "Abu Hulayfah", "lon": "48.126111"}, {"lat": "29.333333", "city": "Ad Da`iyah", "lon": "47.983333"}, {"lat": "29.4625", "city": "Ad Dasht", "lon": "48.313889"}, {"lat": "29.365", "city": "Ad Dasma'", "lon": "48.001389"}, {"lat": "29.365", "city": "Ad Dasmah", "lon": "48.001389"}, {"lat": "29.333889", "city": "Ad Dumna", "lon": "48.076111"}, {"lat": "29.333889", "city": "Ad Dumnah", "lon": "48.076111"}, {"lat": "29.076944", "city": "Ahmad", "lon": "48.083889"}, {"lat": "29.076944", "city": "Ahmadi", "lon": "48.083889"}, {"lat": "29.076944", "city": "Ahmedi", "lon": "48.083889"}, {"lat": "29.250278", "city": "Al `Abbasiyah", "lon": "47.931111"}, {"lat": "29.0425", "city": "Al `Abdaliyah", "lon": "47.706111"}, {"lat": "29.320556", "city": "Al `Adiliyah", "lon": "47.976944"}, {"lat": "29.076944", "city": "Al Ahmadi", "lon": "48.083889"}, {"lat": "29.284167", "city": "Al `Aridiyah", "lon": "47.875"}, {"lat": "29.284167", "city": "Al Aridiyah", "lon": "47.875"}, {"lat": "29.420278", "city": "Al `Awazim", "lon": "48.385"}, {"lat": "29.081389", "city": "Al Badawiyah", "lon": "48.117778"}, {"lat": "29.3025", "city": "Al Bida`", "lon": "48.086944"}, {"lat": "29.3025", "city": "Al Bid`", "lon": "48.086944"}, {"lat": "29.3025", "city": "Al Biddah", "lon": "48.086944"}, {"lat": "29.3025", "city": "Al-Bidde", "lon": "48.086944"}, {"lat": "29.4575", "city": "Al Bult", "lon": "48.281389"}, {"lat": "29.333333", "city": "Al Diya", "lon": "47.983333"}, {"lat": "29.333333", "city": "Al Edeiya", "lon": "47.983333"}, {"lat": "29.0825", "city": "Al-Fahaheel", "lon": "48.130278"}, {"lat": "29.0825", "city": "Al-Fahahil", "lon": "48.130278"}, {"lat": "29.225278", "city": "Al Fanaitis", "lon": "48.101667"}, {"lat": "29.173889", "city": "Al Fantas", "lon": "48.121111"}, {"lat": "29.2775", "city": "Al-Farawaniyah", "lon": "47.958611"}, {"lat": "29.2775", "city": "Al Farwania", "lon": "47.958611"}, {"lat": "29.2775", "city": "Al Farwaniyah", "lon": "47.958611"}, {"lat": "29.2775", "city": "Al-Farwaniyyah", "lon": "47.958611"}, {"lat": "29.336389", "city": "Al Fayha'", "lon": "47.975833"}, {"lat": "29.225278", "city": "Al-Finaitees", "lon": "48.101667"}, {"lat": "29.173889", "city": "Al Fintas", "lon": "48.121111"}, {"lat": "29.173889", "city": "Al Fintass", "lon": "48.121111"}, {"lat": "29.0825", "city": "Al Fuhayhil", "lon": "48.130278"}, {"lat": "29.225278", "city": "Al Funaytis", "lon": "48.101667"}, {"lat": "29.333333", "city": "Al Hadeeqa", "lon": "47.983333"}, {"lat": "29.333333", "city": "Al Hadiqah", "lon": "47.983333"}, {"lat": "29.0825", "city": "Al Ifhaihil", "lon": "48.130278"}, {"lat": "29.322222", "city": "Al Jabiriyah", "lon": "48.023611"}, {"lat": "29.328056", "city": "Al Khalidiyah", "lon": "47.965556"}, {"lat": "29.464444", "city": "Al Khidr", "lon": "48.288333"}, {"lat": "29.369722", "city": "Al Kuwait", "lon": "47.978333"}, {"lat": "29.369722", "city": "Al Kuwayt", "lon": "47.978333"}, {"lat": "29.166667", "city": "Al Magwa", "lon": "47.983333"}, {"lat": "29.145", "city": "Al Mahbulah", "lon": "48.130278"}, {"lat": "29.096111", "city": "Al-Mangaf", "lon": "48.132778"}, {"lat": "29.096111", "city": "Al Manjaf", "lon": "48.132778"}, {"lat": "29.096111", "city": "Al Manqaf", "lon": "48.132778"}, {"lat": "29.355556", "city": "Al Mansuriyah", "lon": "47.980556"}, {"lat": "29.166667", "city": "Al Maqwa`", "lon": "47.983333"}, {"lat": "29.261944", "city": "Al Masilah", "lon": "48.079722"}, {"lat": "29.246389", "city": "Al Mijifa", "lon": "48.075833"}, {"lat": "29.329722", "city": "Al Mina'", "lon": "47.936111"}, {"lat": "29.365556", "city": "Al Murqab", "lon": "47.978056"}, {"lat": "29.246389", "city": "Al-Najafa", "lon": "48.075833"}, {"lat": "29.246389", "city": "Al Nijifa", "lon": "48.075833"}, {"lat": "29.3475", "city": "Al Qadisiyah", "lon": "47.985"}, {"lat": "29.373611", "city": "Al Qiblah", "lon": "47.971667"}, {"lat": "29.145833", "city": "Al-Riqqah", "lon": "48.094722"}, {"lat": "29.105833", "city": "Al-Sabahiyah", "lon": "48.108056"}, {"lat": "29.347222", "city": "Al Shamiya", "lon": "47.961667"}, {"lat": "29.041111", "city": "Al-Shuaiba", "lon": "48.1375"}, {"lat": "29.343611", "city": "Al Shuwaikh", "lon": "47.946111"}, {"lat": "29.320556", "city": "Al `Udayliyah", "lon": "47.976944"}, {"lat": "29.293333", "city": "Al `Umariyah", "lon": "47.953333"}, {"lat": "29.177778", "city": "Al `Uqaylah", "lon": "48.094722"}, {"lat": "29.177778", "city": "Al `Uqlah", "lon": "48.094722"}, {"lat": "29.307778", "city": "Al Yarmuk", "lon": "47.9675"}, {"lat": "29.246389", "city": "An Nijfah", "lon": "48.075833"}, {"lat": "29.3375", "city": "An Nuqrah", "lon": "48.010556"}, {"lat": "29.341667", "city": "An Nuzhah", "lon": "47.989722"}, {"lat": "29.295", "city": "Ar Rabiyah", "lon": "47.933056"}, {"lat": "29.324722", "city": "Ar Raudha", "lon": "48.001389"}, {"lat": "29.315833", "city": "Ar Rawdah", "lon": "48.006389"}, {"lat": "29.309167", "city": "Ar Rayy", "lon": "47.934167"}, {"lat": "29.145833", "city": "Ar Riqqah", "lon": "48.094722"}, {"lat": "29.311667", "city": "Ar Rumaythiyah", "lon": "48.074167"}, {"lat": "29.346944", "city": "Ash Sha`b", "lon": "48.025"}, {"lat": "29.268056", "city": "Ash Shadadiyah", "lon": "47.845556"}, {"lat": "29.347222", "city": "Ash Shamiyah", "lon": "47.961667"}, {"lat": "29.379444", "city": "Ash Sharq", "lon": "47.987222"}, {"lat": "29.041111", "city": "Ash Shu`aiba", "lon": "48.1375"}, {"lat": "29.041111", "city": "Ash Shu`aybah", "lon": "48.1375"}, {"lat": "29.431667", "city": "Ash Shubaykah", "lon": "48.299167"}, {"lat": "29.343611", "city": "Ash Shuwaykh", "lon": "47.946111"}, {"lat": "29.105833", "city": "As Sabahiyah", "lon": "48.108056"}, {"lat": "29.363333", "city": "As Salihiyah", "lon": "47.968889"}, {"lat": "29.333889", "city": "As Salimiyah", "lon": "48.076111"}, {"lat": "29.041111", "city": "As Shu`aiba", "lon": "48.1375"}, {"lat": "29.275278", "city": "As Surrah", "lon": "47.99"}, {"lat": "28.978611", "city": "At Tawil", "lon": "47.907222"}, {"lat": "29.4425", "city": "Az Zaur", "lon": "48.274722"}, {"lat": "29.4425", "city": "Az Zawr", "lon": "48.274722"}, {"lat": "29.4425", "city": "Az Zor", "lon": "48.274722"}, {"lat": "29.3025", "city": "Bad'ah", "lon": "48.086944"}, {"lat": "29.343611", "city": "Bandar ash Shuwaykh", "lon": "47.946111"}, {"lat": "29.343611", "city": "Bandar Shuwaik", "lon": "47.946111"}, {"lat": "29.343611", "city": "Bandar Shuwaikh", "lon": "47.946111"}, {"lat": "29.343611", "city": "Bander Shweikh", "lon": "47.946111"}, {"lat": "29.318056", "city": "Bayan", "lon": "48.039167"}, {"lat": "29.375556", "city": "Bunayd al Qar", "lon": "48.0025"}, {"lat": "29.351389", "city": "Dahiyat `Abd Allah as Salim", "lon": "47.98"}, {"lat": "29.166667", "city": "Dant", "lon": "48.116667"}, {"lat": "29.365", "city": "Dasma", "lon": "48.001389"}, {"lat": "29.365", "city": "Dasmah", "lon": "48.001389"}, {"lat": "29.201111", "city": "Dhulai` Sa`ud", "lon": "48.111111"}, {"lat": "29.333889", "city": "Dimnah", "lon": "48.076111"}, {"lat": "29.201111", "city": "Dulay` Sa`ud", "lon": "48.111111"}, {"lat": "29.201111", "city": "Dulay` Su`ud", "lon": "48.111111"}, {"lat": "29.0825", "city": "Fahaheel", "lon": "48.130278"}, {"lat": "29.0825", "city": "Fahahil", "lon": "48.130278"}, {"lat": "29.0825", "city": "Fahaihil", "lon": "48.130278"}, {"lat": "29.0825", "city": "Fahayhil", "lon": "48.130278"}, {"lat": "29.4425", "city": "Failakka Village", "lon": "48.274722"}, {"lat": "29.225278", "city": "Fanaitis", "lon": "48.101667"}, {"lat": "29.173889", "city": "Fantas", "lon": "48.121111"}, {"lat": "29.173889", "city": "Fantass", "lon": "48.121111"}, {"lat": "29.2775", "city": "Farwaniah", "lon": "47.958611"}, {"lat": "29.2775", "city": "Farwaniyyeh", "lon": "47.958611"}, {"lat": "29.336389", "city": "Fayha", "lon": "47.975833"}, {"lat": "29.173889", "city": "Finatus", "lon": "48.121111"}, {"lat": "29.173889", "city": "Fintas", "lon": "48.121111"}, {"lat": "29.173889", "city": "Fintass", "lon": "48.121111"}, {"lat": "29.225278", "city": "Fraitsass", "lon": "48.101667"}, {"lat": "29.0825", "city": "Fuhayhil", "lon": "48.130278"}, {"lat": "29.225278", "city": "Funait\u00eds", "lon": "48.101667"}, {"lat": "29.225278", "city": "Funaytis", "lon": "48.101667"}, {"lat": "29.173889", "city": "Funt\u00e1s", "lon": "48.121111"}, {"lat": "29.132222", "city": "Halaifa", "lon": "48.126111"}, {"lat": "29.332778", "city": "Hawali-nogra", "lon": "48.028611"}, {"lat": "29.332778", "city": "Hawalli", "lon": "48.028611"}, {"lat": "29.332778", "city": "Hawaly", "lon": "48.028611"}, {"lat": "29.3252", "city": "Jabriya", "lon": "48.0322"}, {"lat": "29.258611", "city": "Jalib ash Shuyukh", "lon": "47.924167"}, {"lat": "29.269167", "city": "Janub as Surrah", "lon": "47.978056"}, {"lat": "29.272222", "city": "Janub Khaytan", "lon": "47.977778"}, {"lat": "29.266667", "city": "Jleeb al Shuyoukh", "lon": "47.933333"}, {"lat": "28.966667", "city": "Juaidan", "lon": "47.967222"}, {"lat": "28.966667", "city": "Ju`aydan", "lon": "47.967222"}, {"lat": "29.341389", "city": "Kaifan", "lon": "47.963333"}, {"lat": "29.341389", "city": "Kayfan", "lon": "47.963333"}, {"lat": "29.341389", "city": "Keefan", "lon": "47.963333"}, {"lat": "29.2925", "city": "Khaitan", "lon": "47.968889"}, {"lat": "29.2925", "city": "Khitan", "lon": "47.968889"}, {"lat": "29.341389", "city": "Kifan", "lon": "47.963333"}, {"lat": "29.2925", "city": "Koetan", "lon": "47.968889"}, {"lat": "29.369722", "city": "Koweit", "lon": "47.978333"}, {"lat": "29.369722", "city": "Kuwait", "lon": "47.978333"}, {"lat": "29.369722", "city": "Kuwayt", "lon": "47.978333"}, {"lat": "29.369722", "city": "Kuweit", "lon": "47.978333"}, {"lat": "29.369722", "city": "Madinat al Kuwayt", "lon": "47.978333"}, {"lat": "29.166667", "city": "Magwa", "lon": "47.983333"}, {"lat": "29.166667", "city": "Majiwah", "lon": "47.983333"}, {"lat": "29.160833", "city": "Manifah", "lon": "48.081111"}, {"lat": "29.166667", "city": "Maqwah", "lon": "47.983333"}, {"lat": "29.166667", "city": "Maqwa", "lon": "47.983333"}, {"lat": "29.160833", "city": "Munifah", "lon": "48.081111"}, {"lat": "29.3375", "city": "Muqrah", "lon": "48.010556"}, {"lat": "29.289167", "city": "Mushrif", "lon": "48.05"}, {"lat": "29.3375", "city": "Nigra", "lon": "48.010556"}, {"lat": "29.3375", "city": "Nugra", "lon": "48.010556"}, {"lat": "29.3375", "city": "Nuqrah", "lon": "48.010556"}, {"lat": "29.343611", "city": "Port Shuwaikh", "lon": "47.946111"}, {"lat": "29.258611", "city": "Qalib al Shuyukh", "lon": "47.924167"}, {"lat": "29.258611", "city": "Qalib ash Shuyukh", "lon": "47.924167"}, {"lat": "29.38", "city": "Qasm Dasman", "lon": "47.996111"}, {"lat": "29.459167", "city": "Qullat Shujayr", "lon": "48.299722"}, {"lat": "29.312222", "city": "Qurtubah", "lon": "47.985556"}, {"lat": "29.324722", "city": "Rowda", "lon": "48.001389"}, {"lat": "29.311667", "city": "Rumaithiya", "lon": "48.074167"}, {"lat": "29.257222", "city": "Sabah as Salim as Sabbah", "lon": "48.057222"}, {"lat": "29.257222", "city": "Sabah as Salim", "lon": "48.057222"}, {"lat": "29.333889", "city": "Salimiyah", "lon": "48.076111"}, {"lat": "29.333889", "city": "Salmiyah", "lon": "48.076111"}, {"lat": "29.333889", "city": "Salmiya", "lon": "48.076111"}, {"lat": "29.333889", "city": "Salmiyyeh", "lon": "48.076111"}, {"lat": "29.295833", "city": "Salw\u00e1", "lon": "48.078611"}, {"lat": "29.041111", "city": "Shaabah", "lon": "48.1375"}, {"lat": "29.041111", "city": "Shaab", "lon": "48.1375"}, {"lat": "29.041111", "city": "Sha'iba", "lon": "48.1375"}, {"lat": "29.347222", "city": "Shamiyah", "lon": "47.961667"}, {"lat": "29.347222", "city": "Shamiya", "lon": "47.961667"}, {"lat": "29.347222", "city": "Shamiyeh", "lon": "47.961667"}, {"lat": "29.347222", "city": "Shamiyyeh", "lon": "47.961667"}, {"lat": "29.336111", "city": "Sharq Hawalli", "lon": "48.0425"}, {"lat": "29.041111", "city": "Shauiba", "lon": "48.1375"}, {"lat": "29.041111", "city": "Shi'aibah", "lon": "48.1375"}, {"lat": "29.041111", "city": "Shua'ibah", "lon": "48.1375"}, {"lat": "29.041111", "city": "Shuaiba", "lon": "48.1375"}, {"lat": "29.041111", "city": "Shu`aybah", "lon": "48.1375"}, {"lat": "29.343611", "city": "Shuwaikh Port", "lon": "47.946111"}, {"lat": "29.343611", "city": "Shuwaikh", "lon": "47.946111"}, {"lat": "29.343611", "city": "Shuwoikh", "lon": "47.946111"}, {"lat": "29.269167", "city": "South Surra", "lon": "47.978056"}, {"lat": "28.879444", "city": "Subayhiyah", "lon": "47.913889"}, {"lat": "29.177778", "city": "Ugla", "lon": "48.094722"}, {"lat": "28.992222", "city": "Umm Qasabah", "lon": "48.165556"}, {"lat": "28.992222", "city": "Umm Qasbah", "lon": "48.165556"}, {"lat": "29.361944", "city": "Umm Siddah", "lon": "47.9925"}, {"lat": "29.177778", "city": "`Uqaila", "lon": "48.094722"}, {"lat": "29.177778", "city": "`Uqallah", "lon": "48.094722"}, {"lat": "29.177778", "city": "`Uqlah", "lon": "48.094722"}, {"lat": "28.996111", "city": "Warah", "lon": "47.982222"}, {"lat": "29.4425", "city": "Zor", "lon": "48.274722"}], "04": [{"lat": "28.933333", "city": "Ad Diba`iyah", "lon": "48.166667"}, {"lat": "28.923611", "city": "Ad Duba`iyah", "lon": "48.207222"}, {"lat": "28.816667", "city": "Al Ad`ami", "lon": "48.266667"}, {"lat": "28.933333", "city": "Al Adhaba-iyah", "lon": "48.166667"}, {"lat": "28.933333", "city": "Al-Dhubaiyah", "lon": "48.166667"}, {"lat": "28.651111", "city": "Al Khiran", "lon": "48.390278"}, {"lat": "28.943056", "city": "Al-Nigaiyat", "lon": "48.198611"}, {"lat": "28.865833", "city": "Al Qulay`ah", "lon": "48.274722"}, {"lat": "28.554167", "city": "Al Wafrah", "lon": "48.053056"}, {"lat": "28.639722", "city": "An Nami", "lon": "48.364444"}, {"lat": "28.943056", "city": "An Niggaiyat", "lon": "48.198611"}, {"lat": "28.943056", "city": "An Nugayyat", "lon": "48.198611"}, {"lat": "28.943056", "city": "An Nuqay`at", "lon": "48.198611"}, {"lat": "28.943056", "city": "An Nuqayyat", "lon": "48.198611"}, {"lat": "28.9", "city": "`Araifjan", "lon": "48.183333"}, {"lat": "28.9", "city": "Arefjan", "lon": "48.183333"}, {"lat": "28.7375", "city": "Az Zawr", "lon": "48.372778"}, {"lat": "28.933333", "city": "Dhuba`iyah", "lon": "48.166667"}, {"lat": "28.933333", "city": "Dubayeiha", "lon": "48.166667"}, {"lat": "28.582778", "city": "Duwaydat", "lon": "48.399167"}, {"lat": "28.7375", "city": "Mina' az Zawr", "lon": "48.372778"}, {"lat": "28.7375", "city": "Mina' az-Zor", "lon": "48.372778"}, {"lat": "28.7375", "city": "Mina' Sa`ud", "lon": "48.372778"}, {"lat": "28.9", "city": "`Urayfijan", "lon": "48.183333"}], "05": [{"lat": "29.314444", "city": "Ad Dawhah", "lon": "47.811944"}, {"lat": "29.688056", "city": "Al-`Alaimah", "lon": "48.114167"}, {"lat": "29.700278", "city": "Al `Arfajiyah", "lon": "48.095556"}, {"lat": "29.666667", "city": "Al-Bahra", "lon": "47.866667"}, {"lat": "29.666667", "city": "Al Bahrah", "lon": "47.866667"}, {"lat": "29.383333", "city": "Al Bhar", "lon": "47.833333"}, {"lat": "29.367778", "city": "Al Doha", "lon": "47.81"}, {"lat": "29.654722", "city": "Al-Hijajah", "lon": "48.131111"}, {"lat": "29.654722", "city": "Al Hujayjah", "lon": "48.131111"}, {"lat": "29.3375", "city": "Al Jahara", "lon": "47.658056"}, {"lat": "29.3375", "city": "Al-Jaharah", "lon": "47.658056"}, {"lat": "29.3375", "city": "Al Jahra'", "lon": "47.658056"}, {"lat": "29.3375", "city": "Al Jahrah", "lon": "47.658056"}, {"lat": "29.403333", "city": "Al Khuwaysat", "lon": "47.711111"}, {"lat": "29.741944", "city": "Al Maghasil", "lon": "48.094444"}, {"lat": "29.364722", "city": "Al Muraytibah", "lon": "47.6525"}, {"lat": "29.315278", "city": "Al-Sulaibikhat", "lon": "47.835833"}, {"lat": "29.688056", "city": "Al `Ulaymiyah", "lon": "48.114167"}, {"lat": "29.385278", "city": "`Ashish ad Dawhah", "lon": "47.842222"}, {"lat": "29.317222", "city": "`Ashish al Jahra'", "lon": "47.677778"}, {"lat": "29.317222", "city": "Ashish al Jahrah", "lon": "47.677778"}, {"lat": "29.315278", "city": "As Sulaybikhat", "lon": "47.835833"}, {"lat": "29.666667", "city": "Bahra", "lon": "47.866667"}, {"lat": "29.666667", "city": "Bahrah", "lon": "47.866667"}, {"lat": "29.367778", "city": "Dauha", "lon": "47.81"}, {"lat": "29.367778", "city": "Doha", "lon": "47.81"}, {"lat": "29.654722", "city": "Hagaija", "lon": "48.131111"}, {"lat": "29.654722", "city": "Haqaija", "lon": "48.131111"}, {"lat": "29.654722", "city": "Haqaijah", "lon": "48.131111"}, {"lat": "29.654722", "city": "Hugaija", "lon": "48.131111"}, {"lat": "29.3375", "city": "Iahara", "lon": "47.658056"}, {"lat": "29.3375", "city": "Jahrah", "lon": "47.658056"}, {"lat": "29.3375", "city": "Jahra Village", "lon": "47.658056"}, {"lat": "29.617778", "city": "Shumaymah", "lon": "48.150556"}, {"lat": "29.315278", "city": "Sulaibikhat", "lon": "47.835833"}, {"lat": "29.315278", "city": "Suleibikhat", "lon": "47.835833"}, {"lat": "29.315833", "city": "`Ushaysh al Jahra'", "lon": "47.663889"}]}}