{"LA": {"02": [{"lat": "14.75", "city": "Bai Nong Deng", "lon": "105.616667"}, {"lat": "14.9", "city": "Ban Bak Kuk", "lon": "105.916667"}, {"lat": "14.9", "city": "Ban Bakkut", "lon": "105.916667"}, {"lat": "14.5", "city": "Ban Baktou", "lon": "105.866667"}, {"lat": "14.983333", "city": "Ban Bangliang", "lon": "105.916667"}, {"lat": "14.883333", "city": "Ban Bangsai", "lon": "105.9"}, {"lat": "14.983333", "city": "Ban Beng Lieng", "lon": "105.916667"}, {"lat": "14.7", "city": "Ban Boc", "lon": "106.133333"}, {"lat": "14.65", "city": "Ban B\u00f4k", "lon": "105.783333"}, {"lat": "15.3", "city": "Ban Bouang Kha", "lon": "105.65"}, {"lat": "14.216667", "city": "Ban Boun", "lon": "105.816667"}, {"lat": "14.216667", "city": "Ban Boune", "lon": "105.816667"}, {"lat": "14.166667", "city": "Ban Boung", "lon": "105.883333"}, {"lat": "14.5", "city": "Ban Boung Bao", "lon": "105.85"}, {"lat": "14.5", "city": "Ban Bounghao", "lon": "105.85"}, {"lat": "14.633333", "city": "Ban Boungk\u00e8o", "lon": "105.85"}, {"lat": "15.3", "city": "Ban Boungkha", "lon": "105.65"}, {"lat": "14.033333", "city": "Ban Boungkh\u00e8", "lon": "105.85"}, {"lat": "14.983333", "city": "Ban Boungmai", "lon": "105.8"}, {"lat": "14.416667", "city": "Ban Boun Tai", "lon": "105.866667"}, {"lat": "14.283333", "city": "Ban Chak", "lon": "105.416667"}, {"lat": "15.266667", "city": "Ban Champi", "lon": "105.816667"}, {"lat": "14.65", "city": "Ban Chan Ang", "lon": "106.15"}, {"lat": "14.816667", "city": "Ban Chane K\u00eao", "lon": "105.716667"}, {"lat": "14.316667", "city": "Ban Chane No\u00ef", "lon": "105.883333"}, {"lat": "14.733333", "city": "Ban Changhouay", "lon": "106.15"}, {"lat": "14.733333", "city": "Ban Chang Houei", "lon": "106.15"}, {"lat": "14.733333", "city": "Ban Chan Huei", "lon": "106.15"}, {"lat": "14.816667", "city": "Ban Chankiao", "lon": "105.716667"}, {"lat": "14.316667", "city": "Ban Chan Noy", "lon": "105.883333"}, {"lat": "15.133333", "city": "Ban Chik", "lon": "105.583333"}, {"lat": "14.65", "city": "Ban Chon Ang", "lon": "106.15"}, {"lat": "14.65", "city": "Ban Ch\u00f4ng-Ang", "lon": "106.15"}, {"lat": "15.066667", "city": "Ban Choung", "lon": "105.75"}, {"lat": "15.066667", "city": "Ban Chuong", "lon": "105.75"}, {"lat": "13.933333", "city": "Ban Dan Sadam", "lon": "105.966667"}, {"lat": "13.933333", "city": "Ban Dan Sdam", "lon": "105.966667"}, {"lat": "13.983333", "city": "Ban Det", "lon": "105.933333"}, {"lat": "14.066667", "city": "Ban Deua", "lon": "105.85"}, {"lat": "14.05", "city": "Ban Dinchi", "lon": "105.866667"}, {"lat": "14.05", "city": "Ban Dinky", "lon": "105.866667"}, {"lat": "14.9", "city": "Ban Dond\u00e8ng", "lon": "105.9"}, {"lat": "13.983333", "city": "Ban Dond\u00e9t", "lon": "105.933333"}, {"lat": "14.916667", "city": "Ban Dondou", "lon": "105.9"}, {"lat": "13.983333", "city": "Ban Done De", "lon": "105.933333"}, {"lat": "14.9", "city": "Ban Done Deng", "lon": "105.9"}, {"lat": "13.983333", "city": "Ban Done Det", "lon": "105.933333"}, {"lat": "14.916667", "city": "Ban Done Dou", "lon": "105.9"}, {"lat": "14.183333", "city": "Ban Done H\u00eat", "lon": "105.75"}, {"lat": "14.183333", "city": "Ban Done Hi", "lon": "105.8"}, {"lat": "14.15", "city": "Ban Done Houei Tat", "lon": "105.783333"}, {"lat": "14.766667", "city": "Ban Done Kai Sao", "lon": "105.783333"}, {"lat": "14.85", "city": "Ban Done Kao", "lon": "105.866667"}, {"lat": "14.45", "city": "Ban Done Khamao", "lon": "105.866667"}, {"lat": "14.066667", "city": "Ban Done Khe", "lon": "105.883333"}, {"lat": "15.15", "city": "Ban Donekho", "lon": "105.75"}, {"lat": "15.183333", "city": "Ban Done Kho", "lon": "105.716667"}, {"lat": "14.2", "city": "Ban Done Koi", "lon": "105.766667"}, {"lat": "14.7", "city": "Ban Done Kong", "lon": "105.733333"}, {"lat": "14.766667", "city": "Ban Done Mak Eoh", "lon": "105.866667"}, {"lat": "14.733333", "city": "Ban Done Mak Giang", "lon": "105.883333"}, {"lat": "14.433333", "city": "Ban Done Phouane", "lon": "105.85"}, {"lat": "14.45", "city": "Ban Done Pue\u00ef", "lon": "105.85"}, {"lat": "13.983333", "city": "Ban Done Sang", "lon": "105.9"}, {"lat": "14.25", "city": "Ban Done San Tavan Tok", "lon": "105.85"}, {"lat": "15.083333", "city": "Ban Done Sat", "lon": "105.733333"}, {"lat": "15.333333", "city": "Ban Done S\u00ea", "lon": "105.816667"}, {"lat": "13.966667", "city": "Ban Done Som", "lon": "105.933333"}, {"lat": "13.983333", "city": "Ban Done Some Ta\u00ef", "lon": "105.916667"}, {"lat": "14.783333", "city": "Ban Done Talat", "lon": "105.816667"}, {"lat": "14.066667", "city": "Ban Done Tane", "lon": "105.816667"}, {"lat": "13.983333", "city": "Ban Done Tholath", "lon": "105.866667"}, {"lat": "13.983333", "city": "Ban Done Tholathi", "lon": "105.866667"}, {"lat": "14.183333", "city": "Ban D\u00f4ng", "lon": "105.85"}, {"lat": "14.6", "city": "Ban D\u00f4nggnang", "lon": "105.833333"}, {"lat": "14.25", "city": "Ban Dong Hoi", "lon": "105.833333"}, {"lat": "14.25", "city": "Ban D\u00f4nghoy", "lon": "105.833333"}, {"lat": "14.733333", "city": "Ban D\u00f4ngk\u00e8m", "lon": "105.883333"}, {"lat": "14.6", "city": "Ban D\u00f4ng Nhang", "lon": "105.833333"}, {"lat": "15.216667", "city": "Ban D\u00f4ngsa", "lon": "105.766667"}, {"lat": "15.216667", "city": "Ban Dongsang", "lon": "105.966667"}, {"lat": "15.083333", "city": "Ban Dong Sat", "lon": "105.733333"}, {"lat": "14.183333", "city": "Ban Don-H\u00e8t", "lon": "105.75"}, {"lat": "14.183333", "city": "Ban Don-Hi", "lon": "105.8"}, {"lat": "14.15", "city": "Ban Don-Hithat", "lon": "105.783333"}, {"lat": "14.766667", "city": "Ban Donkaixao", "lon": "105.783333"}, {"lat": "14.833333", "city": "Ban Donkao", "lon": "105.883333"}, {"lat": "14.45", "city": "Ban Donkhamao", "lon": "105.866667"}, {"lat": "14.066667", "city": "Ban Donkh\u00e8", "lon": "105.883333"}, {"lat": "15.15", "city": "Ban Donkh\u00f4", "lon": "105.75"}, {"lat": "14.7", "city": "Ban Donkong", "lon": "105.733333"}, {"lat": "14.2", "city": "Ban Donkoy", "lon": "105.766667"}, {"lat": "14.733333", "city": "Ban Donmakyang", "lon": "105.883333"}, {"lat": "15.1", "city": "Ban Donnam", "lon": "105.683333"}, {"lat": "14.433333", "city": "Ban Donphouan", "lon": "105.85"}, {"lat": "14.45", "city": "Ban Donpuay", "lon": "105.85"}, {"lat": "13.933333", "city": "Ban Donsadam", "lon": "105.966667"}, {"lat": "14.25", "city": "Ban Donsan", "lon": "105.85"}, {"lat": "14.266667", "city": "Ban Donsan-Ban Noy", "lon": "105.866667"}, {"lat": "13.983333", "city": "Ban Donsang", "lon": "105.9"}, {"lat": "14.25", "city": "Ban Donsan-Tavan-Ok", "lon": "105.866667"}, {"lat": "13.966667", "city": "Ban Dons\u00f4m", "lon": "105.933333"}, {"lat": "13.983333", "city": "Ban Dons\u00f4m Tai", "lon": "105.916667"}, {"lat": "14.783333", "city": "Ban Dontalat", "lon": "105.816667"}, {"lat": "14.066667", "city": "Ban Dontan", "lon": "105.816667"}, {"lat": "14.55", "city": "Ban Donxai", "lon": "105.85"}, {"lat": "15.083333", "city": "Ban Donxat", "lon": "105.733333"}, {"lat": "15.333333", "city": "Ban Donx\u00e9", "lon": "105.816667"}, {"lat": "15.133333", "city": "Ban Dou", "lon": "105.633333"}, {"lat": "13.983333", "city": "Ban Doutholathi", "lon": "105.866667"}, {"lat": "14.066667", "city": "Ban Dua", "lon": "105.85"}, {"lat": "15.25", "city": "Ban Dua Nua", "lon": "105.8"}, {"lat": "15.233333", "city": "Ban Dua Tay", "lon": "105.8"}, {"lat": "14.3", "city": "Ban Duatia", "lon": "105.866667"}, {"lat": "14.183333", "city": "Ban Fang", "lon": "105.85"}, {"lat": "15.083333", "city": "Ban Fangd\u00e8ng", "lon": "105.666667"}, {"lat": "15.233333", "city": "Ban Gnang", "lon": "105.666667"}, {"lat": "14.6", "city": "Ban Gnangsao", "lon": "105.816667"}, {"lat": "14.883333", "city": "Ban Hai", "lon": "105.866667"}, {"lat": "15.316667", "city": "Ban Ha Khan Nhang", "lon": "105.616667"}, {"lat": "14.233333", "city": "Ban Hangdon", "lon": "105.833333"}, {"lat": "14.233333", "city": "Ban Hang Done", "lon": "105.833333"}, {"lat": "14.183333", "city": "Ban Hang Done Het", "lon": "105.75"}, {"lat": "14.166667", "city": "Ban Hang Done Koi", "lon": "105.766667"}, {"lat": "14.116667", "city": "Ban Hang Done Leuchfay", "lon": "105.783333"}, {"lat": "14.183333", "city": "Ban Hangdonh\u00e8t", "lon": "105.75"}, {"lat": "14.166667", "city": "Ban Hangdonkoy", "lon": "105.766667"}, {"lat": "14.116667", "city": "Ban Hangdonl\u00e9kfai", "lon": "105.783333"}, {"lat": "14.1", "city": "Ban Hang Kamaou", "lon": "105.766667"}, {"lat": "14.1", "city": "Ban Hangkhamao", "lon": "105.766667"}, {"lat": "14.066667", "city": "Ban Hangkh\u00f4ng", "lon": "105.85"}, {"lat": "14.016667", "city": "Ban Hanglong", "lon": "105.8"}, {"lat": "14", "city": "Ban Hang Lopaddy", "lon": "105.85"}, {"lat": "14", "city": "Ban Hang-L\u00f4ppadi", "lon": "105.85"}, {"lat": "14.216667", "city": "Ban Hat", "lon": "105.833333"}, {"lat": "14", "city": "Ban Hat Done Nhang", "lon": "105.9"}, {"lat": "14.216667", "city": "Ban Hate", "lon": "105.833333"}, {"lat": "14", "city": "Ban Hatkhikhoay", "lon": "105.916667"}, {"lat": "14", "city": "Ban Hat Khi Khoay", "lon": "105.916667"}, {"lat": "15.15", "city": "Ban Hatkika", "lon": "105.716667"}, {"lat": "14.066667", "city": "Ban Hat Pong", "lon": "105.883333"}, {"lat": "14.116667", "city": "Ban Hat Sa\u00ef Khoune", "lon": "105.866667"}, {"lat": "14.116667", "city": "Ban Hatxaykhoun", "lon": "105.866667"}, {"lat": "14.883333", "city": "Ban He\u00ef", "lon": "105.866667"}, {"lat": "14.7", "city": "Ban Hiang", "lon": "105.583333"}, {"lat": "14.7", "city": "Ban Hieng", "lon": "105.583333"}, {"lat": "14.483333", "city": "Ban Hine Ng\u00f4m", "lon": "105.85"}, {"lat": "14.133333", "city": "Ban Hin Lai", "lon": "105.633333"}, {"lat": "14.133333", "city": "Ban Hinlat", "lon": "105.633333"}, {"lat": "14.483333", "city": "Ban Hinng\u00f4m", "lon": "105.85"}, {"lat": "14.083333", "city": "Ban Hinsiou", "lon": "105.816667"}, {"lat": "14.683333", "city": "Ban H. Ngeun", "lon": "105.883333"}, {"lat": "14.4", "city": "Ban Ho Cao", "lon": "105.866667"}, {"lat": "14.4", "city": "Ban Hokhao", "lon": "105.866667"}, {"lat": "15.15", "city": "Ban Hongkoung", "lon": "105.8"}, {"lat": "15.416667", "city": "Ban Hoph\u00f4n", "lon": "105.833333"}, {"lat": "14.066667", "city": "Ban Houa", "lon": "105.816667"}, {"lat": "14.433333", "city": "Ban Houadon", "lon": "105.866667"}, {"lat": "14.05", "city": "Ban Houa Donchi", "lon": "105.816667"}, {"lat": "14.433333", "city": "Ban Houa Done", "lon": "105.866667"}, {"lat": "14.133333", "city": "Ban Houa Done Leuchfay", "lon": "105.783333"}, {"lat": "14.133333", "city": "Ban Houa Done Leuhtay", "lon": "105.783333"}, {"lat": "14.55", "city": "Ban Houa Done Sai", "lon": "105.85"}, {"lat": "14.133333", "city": "Ban Houadonl\u00e9kfai", "lon": "105.783333"}, {"lat": "14.55", "city": "Ban Houadonxai", "lon": "105.85"}, {"lat": "14.183333", "city": "Ban Houah\u00e8t", "lon": "105.733333"}, {"lat": "14.133333", "city": "Ban Houak\u00e8ng", "lon": "105.883333"}, {"lat": "14.15", "city": "Ban Houakhamao", "lon": "105.766667"}, {"lat": "14.2", "city": "Ban Houakh\u00f4ng Gnai", "lon": "105.816667"}, {"lat": "14.233333", "city": "Ban Houakh\u00f4ngl\u00e8m", "lon": "105.85"}, {"lat": "14.05", "city": "Ban Houa Lappady", "lon": "105.833333"}, {"lat": "14.05", "city": "Ban Houal\u00f4ppadi", "lon": "105.833333"}, {"lat": "15", "city": "Ban Houapakho", "lon": "105.866667"}, {"lat": "14.066667", "city": "Ban Houaphouman", "lon": "105.833333"}, {"lat": "14.066667", "city": "Ban Houa Puman", "lon": "105.833333"}, {"lat": "14.016667", "city": "Ban Houa Sam", "lon": "105.883333"}, {"lat": "14.216667", "city": "Ban Houasing", "lon": "105.85"}, {"lat": "14.016667", "city": "Ban Houas\u00f4m", "lon": "105.883333"}, {"lat": "14.016667", "city": "Ban Houa Soung", "lon": "105.883333"}, {"lat": "15.3", "city": "Ban Houaych\u00e8", "lon": "105.716667"}, {"lat": "14.516667", "city": "Ban Houayd\u00e8ng", "lon": "105.866667"}, {"lat": "15.116667", "city": "Ban Houayd\u00f4n", "lon": "105.766667"}, {"lat": "14", "city": "Ban Houaydon-Gnang", "lon": "105.9"}, {"lat": "14.2", "city": "Ban Houaygnang", "lon": "105.8"}, {"lat": "14.25", "city": "Ban Houayhai", "lon": "105.866667"}, {"lat": "14.866667", "city": "Ban Houayhok", "lon": "105.85"}, {"lat": "14.183333", "city": "Ban Houayko", "lon": "105.75"}, {"lat": "15.15", "city": "Ban Houaykoy", "lon": "106.066667"}, {"lat": "14.75", "city": "Ban Houaykua", "lon": "106"}, {"lat": "14.65", "city": "Ban Houaylak", "lon": "105.866667"}, {"lat": "15.133333", "city": "Ban Houaylao", "lon": "105.766667"}, {"lat": "14.116667", "city": "Ban Houaylouang", "lon": "105.766667"}, {"lat": "14.383333", "city": "Ban Houayluat", "lon": "105.866667"}, {"lat": "14.466667", "city": "Ban Houaymai", "lon": "105.85"}, {"lat": "15.183333", "city": "Ban Houayman", "lon": "106.2"}, {"lat": "14.883333", "city": "Ban Houayna", "lon": "105.633333"}, {"lat": "14.683333", "city": "Ban Houayngeun", "lon": "105.883333"}, {"lat": "14.166667", "city": "Ban Houayphai", "lon": "105.866667"}, {"lat": "14.683333", "city": "Ban Houayph\u00e8ng", "lon": "105.716667"}, {"lat": "15.2", "city": "Ban Houayphun", "lon": "105.933333"}, {"lat": "14.066667", "city": "Ban Houaypong", "lon": "105.883333"}, {"lat": "14.866667", "city": "Ban Houaysahoua", "lon": "105.85"}, {"lat": "14.866667", "city": "Ban Houaysahoua Loum", "lon": "105.85"}, {"lat": "14.883333", "city": "Ban Houay Sahoua Theung", "lon": "105.85"}, {"lat": "14.816667", "city": "Ban Houaysak", "lon": "105.833333"}, {"lat": "14.35", "city": "Ban Houaysamon", "lon": "105.866667"}, {"lat": "14.416667", "city": "Ban Houaysang", "lon": "105.633333"}, {"lat": "14.966667", "city": "Ban Houaysot", "lon": "106.116667"}, {"lat": "15.216667", "city": "Ban Houaytong", "lon": "105.95"}, {"lat": "15.3", "city": "Ban Houei Ch\u00e8", "lon": "105.716667"}, {"lat": "14.516667", "city": "Ban Houei Deng", "lon": "105.866667"}, {"lat": "14.516667", "city": "Ban Houei Gniang", "lon": "105.883333"}, {"lat": "14.25", "city": "Ban Houe\u00ef Hai", "lon": "105.866667"}, {"lat": "14.466667", "city": "Ban Houei Hay", "lon": "105.85"}, {"lat": "14.183333", "city": "Ban Houei H\u00eat", "lon": "105.733333"}, {"lat": "14.75", "city": "Ban Houei Kau", "lon": "106"}, {"lat": "14.183333", "city": "Ban Houei Ko", "lon": "105.75"}, {"lat": "14.866667", "city": "Ban Houei Kok", "lon": "105.85"}, {"lat": "15.15", "city": "Ban Houei Koy", "lon": "106.066667"}, {"lat": "14.75", "city": "Ban Houe\u00ef Kua", "lon": "106"}, {"lat": "14.65", "city": "Ban Houe\u00ef Lak", "lon": "105.866667"}, {"lat": "15.133333", "city": "Ban Houei Lao", "lon": "105.766667"}, {"lat": "14.65", "city": "Ban Houei Lek", "lon": "105.866667"}, {"lat": "14.383333", "city": "Ban Houe\u00ef Leuat", "lon": "105.866667"}, {"lat": "14.116667", "city": "Ban Houei Louang", "lon": "105.766667"}, {"lat": "15.183333", "city": "Ban Houei Mane", "lon": "106.2"}, {"lat": "14.883333", "city": "Ban Houe\u00ef Na", "lon": "105.633333"}, {"lat": "14.2", "city": "Ban Houei Nhang", "lon": "105.8"}, {"lat": "14.166667", "city": "Ban Houei Pha\u00ef", "lon": "105.866667"}, {"lat": "14.45", "city": "Ban Houei Phay", "lon": "105.883333"}, {"lat": "14.683333", "city": "Ban Houei Ph\u00eang", "lon": "105.716667"}, {"lat": "15.2", "city": "Ban Houei Phune", "lon": "105.933333"}, {"lat": "14.866667", "city": "Ban Houei Sahoua", "lon": "105.85"}, {"lat": "14.866667", "city": "Ban Houei Sahoua Loum", "lon": "105.85"}, {"lat": "14.883333", "city": "Ban Houei Sahoua Theung", "lon": "105.85"}, {"lat": "14.816667", "city": "Ban Houei Sak", "lon": "105.833333"}, {"lat": "14.416667", "city": "Ban Houei Sang", "lon": "105.633333"}, {"lat": "14.35", "city": "Ban Houe\u00ef Sanone", "lon": "105.866667"}, {"lat": "14.883333", "city": "Ban Houei Sanova Theung", "lon": "105.85"}, {"lat": "14.216667", "city": "Ban Houe\u00ef Sing", "lon": "105.85"}, {"lat": "14.966667", "city": "Ban Houei Sot", "lon": "106.116667"}, {"lat": "14.783333", "city": "Ban Houe\u00ef Ta Hou", "lon": "106"}, {"lat": "14.783333", "city": "Ban Houei To Hou", "lon": "106"}, {"lat": "15.216667", "city": "Ban Houei Tong", "lon": "105.95"}, {"lat": "14.15", "city": "Ban Hovahhamauu", "lon": "105.766667"}, {"lat": "14.133333", "city": "Ban Inde", "lon": "105.783333"}, {"lat": "15.15", "city": "Ban Kabao", "lon": "105.766667"}, {"lat": "14.05", "city": "Ban Kadan", "lon": "105.9"}, {"lat": "14.05", "city": "Ban Kadane", "lon": "105.9"}, {"lat": "14.433333", "city": "Ban Kadian", "lon": "105.7"}, {"lat": "14.433333", "city": "Ban Kadiene", "lon": "105.7"}, {"lat": "15.166667", "city": "Ban Kal\u00f4ng", "lon": "105.766667"}, {"lat": "14.083333", "city": "Ban Kamaou Khan", "lon": "105.766667"}, {"lat": "14.083333", "city": "Ban Kamaou Tech", "lon": "105.783333"}, {"lat": "14.6", "city": "Ban Kang", "lon": "106.05"}, {"lat": "15.1", "city": "Ban Kanh\u00e8", "lon": "105.816667"}, {"lat": "14.833333", "city": "Ban Kao", "lon": "105.883333"}, {"lat": "14.9", "city": "Ban Katay", "lon": "105.866667"}, {"lat": "14.816667", "city": "Ban Kateup", "lon": "105.883333"}, {"lat": "15.2", "city": "Ban Katin", "lon": "105.7"}, {"lat": "15.2", "city": "Ban Katine", "lon": "105.7"}, {"lat": "14.816667", "city": "Ban Katsup Theung", "lon": "105.833333"}, {"lat": "14.816667", "city": "Ban Katup", "lon": "105.883333"}, {"lat": "14.816667", "city": "Ban Katup Theung", "lon": "105.833333"}, {"lat": "14.733333", "city": "Ban Kaut Hou", "lon": "106.166667"}, {"lat": "14.7", "city": "Ban Kaut Sane", "lon": "106.1"}, {"lat": "14.183333", "city": "Ban K\u00e8", "lon": "105.8"}, {"lat": "14.183333", "city": "Ban K\u00eah", "lon": "105.8"}, {"lat": "14.766667", "city": "Ban K\u00e9l\u00e8", "lon": "106.116667"}, {"lat": "14.983333", "city": "Ban K\u00e8ng-Gnao", "lon": "105.766667"}, {"lat": "15.216667", "city": "Ban K\u00e8ngk\u00e8o", "lon": "105.8"}, {"lat": "14.983333", "city": "Ban Keng Khao", "lon": "105.766667"}, {"lat": "15.316667", "city": "Ban K\u00e8ngkok", "lon": "105.833333"}, {"lat": "14.016667", "city": "Ban K\u00e8ngkoum", "lon": "105.883333"}, {"lat": "15.383333", "city": "Ban K\u00e8ngmai", "lon": "105.866667"}, {"lat": "15.383333", "city": "Ban Keng May", "lon": "105.866667"}, {"lat": "14.983333", "city": "Ban Keng Nhao", "lon": "105.766667"}, {"lat": "14.866667", "city": "Ban Keng-\u00d4ng", "lon": "105.716667"}, {"lat": "15.383333", "city": "Ban K\u00e8ngph\u00f4", "lon": "105.833333"}, {"lat": "15.166667", "city": "Ban K\u00e8ngsan", "lon": "105.783333"}, {"lat": "15.166667", "city": "Ban Keng Sanh", "lon": "105.783333"}, {"lat": "15.25", "city": "Ban K\u00e8ngsan\u00f4m", "lon": "105.816667"}, {"lat": "14.7", "city": "Ban Kha", "lon": "105.733333"}, {"lat": "14.85", "city": "Ban Khaboun", "lon": "105.933333"}, {"lat": "14.85", "city": "Ban Khaboune", "lon": "105.933333"}, {"lat": "14.383333", "city": "Ban Khaidiao", "lon": "105.866667"}, {"lat": "14.55", "city": "Ban Khak Kong", "lon": "105.583333"}, {"lat": "14.083333", "city": "Ban Khamao Kang", "lon": "105.766667"}, {"lat": "14.083333", "city": "Ban Khamao Tiak", "lon": "105.783333"}, {"lat": "14.833333", "city": "Ban Kham", "lon": "105.85"}, {"lat": "15.1", "city": "Ban Kham-Gn\u00e8ng", "lon": "105.816667"}, {"lat": "15.216667", "city": "Ban Khamlay", "lon": "105.883333"}, {"lat": "15.316667", "city": "Ban Khamlouang", "lon": "105.75"}, {"lat": "14.716667", "city": "Ban Kham Makhua", "lon": "105.8"}, {"lat": "14.716667", "city": "Ban Khammakkhua", "lon": "105.8"}, {"lat": "14.9", "city": "Ban Khamniam", "lon": "105.85"}, {"lat": "14.9", "city": "Ban Kham Niem", "lon": "105.85"}, {"lat": "15.35", "city": "Ban Khamp\u00e8ng", "lon": "105.783333"}, {"lat": "14.633333", "city": "Ban Khamph\u00f4", "lon": "106.283333"}, {"lat": "14.633333", "city": "Ban Kham Po", "lon": "106.283333"}, {"lat": "14.9", "city": "Ban Khams\u00f4m", "lon": "105.866667"}, {"lat": "15.4", "city": "Ban Khams\u00f4mmo", "lon": "105.8"}, {"lat": "14.9", "city": "Ban Kham Soum", "lon": "105.866667"}, {"lat": "15.3", "city": "Ban Khamva", "lon": "105.633333"}, {"lat": "15.4", "city": "Ban Khamyat", "lon": "105.833333"}, {"lat": "15.233333", "city": "Ban Khanat", "lon": "105.65"}, {"lat": "13.95", "city": "Ban Khane", "lon": "105.933333"}, {"lat": "15.116667", "city": "Ban Khangkeung", "lon": "105.783333"}, {"lat": "14.95", "city": "Ban Khan-Gn\u00e8ng", "lon": "105.883333"}, {"lat": "15.116667", "city": "Ban Khan Keun", "lon": "105.783333"}, {"lat": "15.116667", "city": "Ban Khan Keung", "lon": "105.783333"}, {"lat": "15.316667", "city": "Ban Khan Louang", "lon": "105.75"}, {"lat": "14.95", "city": "Ban Khan Nh\u00eang", "lon": "105.883333"}, {"lat": "14.85", "city": "Ban Kha-Nongsaming", "lon": "105.983333"}, {"lat": "15.3", "city": "Ban Khan Va", "lon": "105.633333"}, {"lat": "15.4", "city": "Ban Khan Vat", "lon": "105.833333"}, {"lat": "15.25", "city": "Ban Kha Tin", "lon": "105.583333"}, {"lat": "14.916667", "city": "Ban Khatouay", "lon": "106.016667"}, {"lat": "14.916667", "city": "Ban Kha Touei", "lon": "106.016667"}, {"lat": "14.8", "city": "Ban Kh\u00e8kkong", "lon": "105.85"}, {"lat": "14.766667", "city": "Ban Kho", "lon": "105.733333"}, {"lat": "14.783333", "city": "Ban Khok", "lon": "105.9"}, {"lat": "14.55", "city": "Ban Kh\u00f4kkong", "lon": "105.583333"}, {"lat": "14.8", "city": "Ban Khok Kong", "lon": "105.85"}, {"lat": "15.233333", "city": "Ban Kh\u00f4kkong", "lon": "105.616667"}, {"lat": "14.733333", "city": "Ban Kh\u00f4kphoro", "lon": "105.866667"}, {"lat": "15.033333", "city": "Ban Kh\u00f4ksak", "lon": "105.933333"}, {"lat": "13.95", "city": "Ban Khon", "lon": "105.933333"}, {"lat": "13.95", "city": "Ban Kh\u00f4ne", "lon": "105.933333"}, {"lat": "14.983333", "city": "Ban Khone Kene", "lon": "105.883333"}, {"lat": "15", "city": "Ban Kh\u00f4ne Li\u00e8o", "lon": "105.866667"}, {"lat": "14.833333", "city": "Ban Khone No\u00ef", "lon": "105.916667"}, {"lat": "15.233333", "city": "Ban Khong Kong", "lon": "105.616667"}, {"lat": "14.983333", "city": "Ban Khonk\u00e8n", "lon": "105.883333"}, {"lat": "15", "city": "Ban Khonliao", "lon": "105.866667"}, {"lat": "14.833333", "city": "Ban Khon Noy", "lon": "105.916667"}, {"lat": "13.933333", "city": "Ban Khon Tai", "lon": "105.95"}, {"lat": "15.233333", "city": "Ban Khoumthong", "lon": "105.566667"}, {"lat": "14.733333", "city": "Ban Khout-Hout", "lon": "106.166667"}, {"lat": "14.766667", "city": "Ban Kian-Ng\u00f4ng", "lon": "106.033333"}, {"lat": "14.766667", "city": "Ban Kiatng\u00f4ng", "lon": "106.033333"}, {"lat": "14.766667", "city": "Ban Ki\u00ean Ng\u00f4ng", "lon": "106.033333"}, {"lat": "15.083333", "city": "Ban Kieu", "lon": "107.133333"}, {"lat": "14.4", "city": "Ban Kok", "lon": "105.483333"}, {"lat": "14.283333", "city": "Ban K\u00f4kpad\u00e8k", "lon": "105.883333"}, {"lat": "14.65", "city": "Ban Kong", "lon": "105.766667"}, {"lat": "14.633333", "city": "Ban K\u00f4ngkian", "lon": "105.816667"}, {"lat": "14.633333", "city": "Ban Kong Kiene", "lon": "105.816667"}, {"lat": "14.866667", "city": "Ban Kong Ong", "lon": "105.716667"}, {"lat": "15.066667", "city": "Ban Kouai", "lon": "105.766667"}, {"lat": "14.75", "city": "Ban Kouang", "lon": "105.933333"}, {"lat": "14.566667", "city": "Ban Kouay", "lon": "105.833333"}, {"lat": "15.333333", "city": "Ban Koum", "lon": "105.766667"}, {"lat": "15.4", "city": "Ban Koum Noi", "lon": "105.583333"}, {"lat": "15.4", "city": "Ban Koum Noy", "lon": "105.583333"}, {"lat": "15.233333", "city": "Ban Koum Thong", "lon": "105.566667"}, {"lat": "15.133333", "city": "Ban Koung", "lon": "105.683333"}, {"lat": "14.966667", "city": "Ban Koutchik", "lon": "105.716667"}, {"lat": "15.233333", "city": "Ban Koutkh\u00e8n", "lon": "105.6"}, {"lat": "15.233333", "city": "Ban Koutkhene", "lon": "105.6"}, {"lat": "14.683333", "city": "Ban Koutnadi", "lon": "106.166667"}, {"lat": "15.25", "city": "Ban Koutnamkhoun", "lon": "105.6"}, {"lat": "14.7", "city": "Ban Koutsan\u00e8", "lon": "106.1"}, {"lat": "14.616667", "city": "Ban Kouttaboun", "lon": "105.8"}, {"lat": "14.616667", "city": "Ban Kouttaboune", "lon": "105.8"}, {"lat": "14.683333", "city": "Ban Koutvian", "lon": "105.75"}, {"lat": "14.683333", "city": "Ban Kout Viene", "lon": "105.75"}, {"lat": "14.966667", "city": "Ban Lai", "lon": "105.716667"}, {"lat": "14.116667", "city": "Ban La Oc", "lon": "105.733333"}, {"lat": "14.883333", "city": "Ban Laogna", "lon": "106.083333"}, {"lat": "14.616667", "city": "Ban Laohua", "lon": "105.783333"}, {"lat": "14.116667", "city": "Ban Laok", "lon": "105.733333"}, {"lat": "14.883333", "city": "Ban Lao Nha", "lon": "106.083333"}, {"lat": "14.016667", "city": "Ban Lappady Chok", "lon": "105.85"}, {"lat": "14.033333", "city": "Ban Lappady-Khan", "lon": "105.833333"}, {"lat": "14.633333", "city": "Ban Lat Gnai", "lon": "105.783333"}, {"lat": "14.633333", "city": "Ban Lat Nhai", "lon": "105.783333"}, {"lat": "14.633333", "city": "Ban Lat Noi", "lon": "105.766667"}, {"lat": "14.633333", "city": "Ban Lat Noy", "lon": "105.766667"}, {"lat": "15.316667", "city": "Ban Latsua", "lon": "105.633333"}, {"lat": "15.383333", "city": "Ban Lau", "lon": "105.866667"}, {"lat": "14.15", "city": "Ban Liao", "lon": "105.783333"}, {"lat": "14.15", "city": "Ban Lleu", "lon": "105.783333"}, {"lat": "14.266667", "city": "Ban L\u00f4mphat", "lon": "105.866667"}, {"lat": "14.033333", "city": "Ban Long Kang", "lon": "105.8"}, {"lat": "14.033333", "city": "Ban Long Khan", "lon": "105.8"}, {"lat": "14", "city": "Ban Lopaddy", "lon": "105.866667"}, {"lat": "14.016667", "city": "Ban Lopaddy Chok", "lon": "105.85"}, {"lat": "14", "city": "Ban L\u00f4ppadi", "lon": "105.866667"}, {"lat": "14.016667", "city": "Ban L\u00f4ppadi Chok", "lon": "105.85"}, {"lat": "14.033333", "city": "Ban L\u00f4ppadi Kang", "lon": "105.833333"}, {"lat": "14.116667", "city": "Ban Louang", "lon": "105.783333"}, {"lat": "14.4", "city": "Ban Louangs\u00f4", "lon": "105.85"}, {"lat": "15.216667", "city": "Ban Louang T\u00f4m", "lon": "105.666667"}, {"lat": "15.35", "city": "Ban Louy", "lon": "105.766667"}, {"lat": "14.416667", "city": "Ban Ma", "lon": "105.833333"}, {"lat": "14.2", "city": "Ban Mai", "lon": "105.933333"}, {"lat": "14.583333", "city": "Ban Mai Vang Mak Seo", "lon": "105.816667"}, {"lat": "14.583333", "city": "Ban Mai-Vangmakx\u00e8o", "lon": "105.816667"}, {"lat": "14.366667", "city": "Ban Makmi", "lon": "105.916667"}, {"lat": "14.533333", "city": "Ban Makmu", "lon": "105.833333"}, {"lat": "14.483333", "city": "Ban Maknao", "lon": "105.833333"}, {"lat": "15.266667", "city": "Ban Makng\u00e8o", "lon": "105.95"}, {"lat": "15.016667", "city": "Ban Maktong", "lon": "106.016667"}, {"lat": "14.95", "city": "Ban Mali", "lon": "105.75"}, {"lat": "14.75", "city": "Ban May", "lon": "105.916667"}, {"lat": "14.733333", "city": "Ban M\u00e9k", "lon": "105.9"}, {"lat": "15.183333", "city": "Ban M\u00easouk", "lon": "106.033333"}, {"lat": "14.833333", "city": "Ban Meuille", "lon": "105.7"}, {"lat": "14.816667", "city": "Ban Meu Mene", "lon": "105.783333"}, {"lat": "14.833333", "city": "Ban Meuy", "lon": "105.7"}, {"lat": "14.733333", "city": "Ban M\u00f4", "lon": "105.733333"}, {"lat": "14.983333", "city": "Ban Mophou", "lon": "105.9"}, {"lat": "14.033333", "city": "Ban Mouang", "lon": "105.883333"}, {"lat": "14.816667", "city": "Ban Moum\u00e9n", "lon": "105.783333"}, {"lat": "14.833333", "city": "Ban Muangkang", "lon": "105.883333"}, {"lat": "14.95", "city": "Ban Muangkao", "lon": "105.9"}, {"lat": "14.666667", "city": "Ban Mune Nane", "lon": "105.766667"}, {"lat": "14.666667", "city": "Ban Munnan", "lon": "105.766667"}, {"lat": "14.833333", "city": "Ban Muong Kang", "lon": "105.883333"}, {"lat": "14.95", "city": "Ban Muong Kau", "lon": "105.9"}, {"lat": "14.333333", "city": "Ban Na", "lon": "105.95"}, {"lat": "14.883333", "city": "Ban Nabon", "lon": "106.016667"}, {"lat": "14.883333", "city": "Ban Nabone", "lon": "106.016667"}, {"lat": "15.166667", "city": "Ban Nachiang", "lon": "105.816667"}, {"lat": "15.166667", "city": "Ban Nachieng", "lon": "105.816667"}, {"lat": "14.166667", "city": "Ban Nadi", "lon": "105.75"}, {"lat": "15.133333", "city": "Ban Nadou", "lon": "105.633333"}, {"lat": "14.483333", "city": "Ban Nafang", "lon": "105.866667"}, {"lat": "14.466667", "city": "Ban Nafang No\u00ef", "lon": "105.866667"}, {"lat": "14.466667", "city": "Ban Nafang Noy", "lon": "105.866667"}, {"lat": "14.416667", "city": "Ban Nag Lo\u00ef", "lon": "105.85"}, {"lat": "14.733333", "city": "Ban Nagno", "lon": "105.966667"}, {"lat": "15.133333", "city": "Ban Nah\u00e8", "lon": "105.833333"}, {"lat": "14.8", "city": "Ban Nakala", "lon": "106.15"}, {"lat": "14.816667", "city": "Ban Na Kam", "lon": "105.983333"}, {"lat": "14.183333", "city": "Ban Nakang", "lon": "105.75"}, {"lat": "15.266667", "city": "Ban Nak\u00ea", "lon": "105.85"}, {"lat": "15.266667", "city": "Ban Nak\u00e8o", "lon": "105.666667"}, {"lat": "14.233333", "city": "Ban Nakham", "lon": "105.816667"}, {"lat": "14.233333", "city": "Ban Nakhame", "lon": "105.816667"}, {"lat": "15.316667", "city": "Ban Nakhan-Gnang", "lon": "105.616667"}, {"lat": "15.316667", "city": "Ban Na Khan Nhang", "lon": "105.616667"}, {"lat": "14.733333", "city": "Ban Nakhikhoay", "lon": "105.833333"}, {"lat": "14.733333", "city": "Ban Na Khi Khouai", "lon": "105.833333"}, {"lat": "15.183333", "city": "Ban Nakhouang", "lon": "105.733333"}, {"lat": "14.683333", "city": "Ban Nakhou", "lon": "105.816667"}, {"lat": "15.183333", "city": "Ban Nakhoung", "lon": "105.733333"}, {"lat": "14.55", "city": "Ban Nakok", "lon": "105.733333"}, {"lat": "14.816667", "city": "Ban Nakoutd\u00f4n", "lon": "106.133333"}, {"lat": "14.816667", "city": "Ban Na Kout Done", "lon": "106.133333"}, {"lat": "14.733333", "city": "Ban Nalai", "lon": "106.15"}, {"lat": "15.266667", "city": "Ban Nalak", "lon": "105.75"}, {"lat": "14.816667", "city": "Ban Na Lam", "lon": "106.016667"}, {"lat": "14.216667", "city": "Ban Nalan", "lon": "105.85"}, {"lat": "14.216667", "city": "Ban Nalane", "lon": "105.85"}, {"lat": "15.25", "city": "Ban Nal\u00f4ng", "lon": "105.75"}, {"lat": "14.9", "city": "Ban Nam Kham", "lon": "105.866667"}, {"lat": "15.233333", "city": "Ban Nammav\u00f4ng", "lon": "105.95"}, {"lat": "14.85", "city": "Ban Nam-Om", "lon": "106.1"}, {"lat": "15.15", "city": "Ban Nam On", "lon": "106.05"}, {"lat": "14.95", "city": "Ban Namsai", "lon": "105.916667"}, {"lat": "15.383333", "city": "Ban Nanai", "lon": "105.816667"}, {"lat": "14.183333", "city": "Ban Nanaktek", "lon": "105.8"}, {"lat": "15.383333", "city": "Ban Na Nay", "lon": "105.816667"}, {"lat": "14.9", "city": "Ban Nangie", "lon": "105.683333"}, {"lat": "14.416667", "city": "Ban Nangloy", "lon": "105.85"}, {"lat": "14.9", "city": "Ban Nangte", "lon": "105.683333"}, {"lat": "14.733333", "city": "Ban Na Nho", "lon": "105.966667"}, {"lat": "14.9", "city": "Ban Nankham", "lon": "105.866667"}, {"lat": "14.15", "city": "Ban Nanongkh\u00e8n", "lon": "105.933333"}, {"lat": "14.15", "city": "Ban Na Nong Khene", "lon": "105.933333"}, {"lat": "15.266667", "city": "Ban Na\u00f4", "lon": "105.816667"}, {"lat": "14.733333", "city": "Ban Naph\u00f4", "lon": "105.966667"}, {"lat": "14.916667", "city": "Ban Naphou", "lon": "105.733333"}, {"lat": "14.15", "city": "Ban Napouta", "lon": "105.8"}, {"lat": "14.616667", "city": "Ban Na Saheng", "lon": "105.7"}, {"lat": "14.616667", "city": "Ban Na Salieng", "lon": "105.7"}, {"lat": "14.616667", "city": "Ban Nasamliang", "lon": "105.7"}, {"lat": "14.15", "city": "Ban Nas\u00f4mhong", "lon": "105.916667"}, {"lat": "15.233333", "city": "Ban Nas\u00f4ne", "lon": "105.75"}, {"lat": "15.066667", "city": "Ban Natakd\u00e8t", "lon": "105.766667"}, {"lat": "15.066667", "city": "Ban Na Tak D\u00e8te", "lon": "105.766667"}, {"lat": "15.05", "city": "Ban Natakou", "lon": "105.816667"}, {"lat": "14.216667", "city": "Ban Natan", "lon": "105.816667"}, {"lat": "14.216667", "city": "Ban Na Tane", "lon": "105.816667"}, {"lat": "14.133333", "city": "Ban Natouk-Louk", "lon": "106.016667"}, {"lat": "15.05", "city": "Ban Nava", "lon": "105.8"}, {"lat": "14.233333", "city": "Ban Nav\u00e8ng", "lon": "105.933333"}, {"lat": "15.233333", "city": "Ban Naxon", "lon": "105.75"}, {"lat": "15.216667", "city": "Ban Ngiou", "lon": "105.683333"}, {"lat": "14.85", "city": "Ban Ngouaba", "lon": "105.7"}, {"lat": "15.233333", "city": "Ban Nhang", "lon": "105.666667"}, {"lat": "14.6", "city": "Ban Nhang Sao", "lon": "105.816667"}, {"lat": "14.766667", "city": "Ban N\u00f4", "lon": "105.833333"}, {"lat": "14.75", "city": "Ban N\u00f4deng", "lon": "105.616667"}, {"lat": "14.9", "city": "Ban No\u00ef", "lon": "105.9"}, {"lat": "14.533333", "city": "Ban N\u00f4n", "lon": "105.7"}, {"lat": "14.533333", "city": "Ban N\u00f4ne", "lon": "105.7"}, {"lat": "14.8", "city": "Ban None Chane Kieo", "lon": "105.816667"}, {"lat": "14.6", "city": "Ban N\u00f4ne Kho", "lon": "105.816667"}, {"lat": "14.6", "city": "Ban N\u00f4ne Khoum", "lon": "105.75"}, {"lat": "14.683333", "city": "Ban N\u00f4ne Nhang", "lon": "105.716667"}, {"lat": "14.733333", "city": "Ban None Pachao", "lon": "105.733333"}, {"lat": "14.65", "city": "Ban None Pheung", "lon": "105.783333"}, {"lat": "14.033333", "city": "Ban None Soung", "lon": "105.9"}, {"lat": "14.75", "city": "Ban Nongb\u00e8ng", "lon": "105.633333"}, {"lat": "15.1", "city": "Ban Nongboua", "lon": "105.716667"}, {"lat": "14.65", "city": "Ban Nongboua Gnai", "lon": "105.883333"}, {"lat": "14.666667", "city": "Ban Nong Boua Nhia", "lon": "105.883333"}, {"lat": "14.666667", "city": "Ban Nong Boua Nhiai", "lon": "105.883333"}, {"lat": "14.65", "city": "Ban Nong Boua No\u00ef", "lon": "105.883333"}, {"lat": "14.2", "city": "Ban Nongbung", "lon": "105.85"}, {"lat": "14.8", "city": "Ban Nongchan", "lon": "105.833333"}, {"lat": "14.8", "city": "Ban Nong Chane", "lon": "105.833333"}, {"lat": "14.75", "city": "Ban Nong Deng", "lon": "105.616667"}, {"lat": "14.583333", "city": "Ban Nongd\u00f4n", "lon": "105.7"}, {"lat": "14.583333", "city": "Ban Nong Done", "lon": "105.7"}, {"lat": "14.9", "city": "Ban Nongd\u00f4ng", "lon": "105.933333"}, {"lat": "15.383333", "city": "Ban Nongdou", "lon": "105.8"}, {"lat": "15.133333", "city": "Ban Nong Ha\u00ef", "lon": "105.616667"}, {"lat": "15.133333", "city": "Ban Nonghai Kh\u00f4k", "lon": "105.616667"}, {"lat": "15.283333", "city": "Ban Nonghai Tha", "lon": "105.65"}, {"lat": "14.483333", "city": "Ban Nonghi", "lon": "105.866667"}, {"lat": "14.816667", "city": "Ban Nonghin", "lon": "105.8"}, {"lat": "14.816667", "city": "Ban Nong Hine", "lon": "105.8"}, {"lat": "14.8", "city": "Ban Nonghip", "lon": "105.766667"}, {"lat": "15.05", "city": "Ban Nong Hoi", "lon": "105.833333"}, {"lat": "15.15", "city": "Ban Nongho\u00ef", "lon": "105.716667"}, {"lat": "15.166667", "city": "Ban Nong Hoi", "lon": "105.733333"}, {"lat": "15.266667", "city": "Ban Nonghouakhoay", "lon": "105.9"}, {"lat": "15.266667", "city": "Ban Nong Houa Khouai", "lon": "105.9"}, {"lat": "14.833333", "city": "Ban Nong Hou", "lon": "105.966667"}, {"lat": "15.05", "city": "Ban Nonghoy", "lon": "105.833333"}, {"lat": "14.833333", "city": "Ban Nong-Itou", "lon": "105.966667"}, {"lat": "15.3", "city": "Ban Nongkang", "lon": "105.883333"}, {"lat": "14.233333", "city": "Ban Nong K\u00e9", "lon": "105.9"}, {"lat": "15.35", "city": "Ban Nongkham", "lon": "105.8"}, {"lat": "14.233333", "city": "Ban Nongkh\u00e8", "lon": "105.9"}, {"lat": "15.25", "city": "Ban Nongkh\u00f4n", "lon": "105.966667"}, {"lat": "15.25", "city": "Ban Nong Kh\u00f4ne", "lon": "105.966667"}, {"lat": "15.2", "city": "Ban Nongkin", "lon": "106.3"}, {"lat": "15.2", "city": "Ban Nong Kine", "lon": "106.3"}, {"lat": "15.166667", "city": "Ban Nongkok", "lon": "105.9"}, {"lat": "14.983333", "city": "Ban Nongkou", "lon": "106.066667"}, {"lat": "15.316667", "city": "Ban Nonglaikhian", "lon": "105.7"}, {"lat": "15.316667", "city": "Ban Nong Lai Khiene", "lon": "105.7"}, {"lat": "15.2", "city": "Ban Nongl\u00e8", "lon": "106.25"}, {"lat": "14.816667", "city": "Ban Nonglouang", "lon": "105.866667"}, {"lat": "14.816667", "city": "Ban Nong Makeo", "lon": "105.783333"}, {"lat": "15.15", "city": "Ban Nongmak-Euk", "lon": "105.933333"}, {"lat": "14.816667", "city": "Ban Nongmakk\u00e9o", "lon": "105.783333"}, {"lat": "14.9", "city": "Ban Nongmoun", "lon": "106.283333"}, {"lat": "15.116667", "city": "Ban Nong Muong Noi", "lon": "106.566667"}, {"lat": "14.683333", "city": "Ban N\u00f4n-Gnang", "lon": "105.716667"}, {"lat": "14.616667", "city": "Ban Nongngoua", "lon": "105.8"}, {"lat": "15.383333", "city": "Ban Nong-Nou", "lon": "105.9"}, {"lat": "15.033333", "city": "Ban Nongp\u00e8n", "lon": "106.283333"}, {"lat": "14.616667", "city": "Ban Nongpham", "lon": "105.583333"}, {"lat": "15.35", "city": "Ban Nongphang", "lon": "105.8"}, {"lat": "15.1", "city": "Ban Nongphanuang", "lon": "106.316667"}, {"lat": "15.1", "city": "Ban Nong Phnuong", "lon": "106.316667"}, {"lat": "14.85", "city": "Ban Nongphou", "lon": "105.833333"}, {"lat": "14.85", "city": "Ban Nong Phu", "lon": "105.833333"}, {"lat": "14.883333", "city": "Ban Nongphu", "lon": "106.183333"}, {"lat": "15.15", "city": "Ban Nong Poi", "lon": "106.333333"}, {"lat": "14.9", "city": "Ban Nongpop", "lon": "106.083333"}, {"lat": "15.15", "city": "Ban Nongpoy", "lon": "106.333333"}, {"lat": "14.85", "city": "Ban Nongsa", "lon": "105.833333"}, {"lat": "15.25", "city": "Ban Nongsai", "lon": "105.883333"}, {"lat": "14.783333", "city": "Ban Nongsim", "lon": "105.966667"}, {"lat": "14.766667", "city": "Ban Nongsonghong", "lon": "105.883333"}, {"lat": "14.9", "city": "Ban Nongte", "lon": "105.683333"}, {"lat": "15.05", "city": "Ban Nong T\u00e8", "lon": "105.766667"}, {"lat": "14.8", "city": "Ban Nongthon", "lon": "105.833333"}, {"lat": "15.116667", "city": "Ban Nongthuam Noy", "lon": "106.566667"}, {"lat": "15.05", "city": "Ban Nong To", "lon": "105.766667"}, {"lat": "14.8", "city": "Ban Nong T\u00f4n", "lon": "105.833333"}, {"lat": "14.85", "city": "Ban Nongvian", "lon": "105.883333"}, {"lat": "14.85", "city": "Ban Nong Vien", "lon": "105.883333"}, {"lat": "14.6", "city": "Ban N\u00f4nkho", "lon": "105.816667"}, {"lat": "14.6", "city": "Ban N\u00f4nkhoum", "lon": "105.75"}, {"lat": "14.733333", "city": "Ban N\u00f4nphrachao", "lon": "105.733333"}, {"lat": "14.033333", "city": "Ban N\u00f4nsoung", "lon": "105.9"}, {"lat": "14.65", "city": "Ban N\u00f4pheung", "lon": "105.783333"}, {"lat": "14.9", "city": "Ban Noy", "lon": "105.9"}, {"lat": "15.3", "city": "Ban Okmuang", "lon": "105.666667"}, {"lat": "15.3", "city": "Ban Ok Muong", "lon": "105.666667"}, {"lat": "15.166667", "city": "Ban Oussou", "lon": "105.6"}, {"lat": "14.516667", "city": "Ban Outhoum", "lon": "105.833333"}, {"lat": "14.516667", "city": "Ban Outhoum Kao", "lon": "105.833333"}, {"lat": "14.533333", "city": "Ban Outhoum Mai", "lon": "105.833333"}, {"lat": "15.166667", "city": "Ban Outsou", "lon": "105.6"}, {"lat": "14.516667", "city": "Ban Outthoum Kau", "lon": "105.833333"}, {"lat": "14.533333", "city": "Ban Outthoum Ma", "lon": "105.833333"}, {"lat": "14.3", "city": "Ban Pa", "lon": "105.966667"}, {"lat": "14.1", "city": "Ban Pachse", "lon": "105.75"}, {"lat": "14.566667", "city": "Ban Pahan", "lon": "105.866667"}, {"lat": "14.566667", "city": "Ban Pa Hao", "lon": "105.866667"}, {"lat": "14.366667", "city": "Ban Pah Song", "lon": "105.516667"}, {"lat": "14.966667", "city": "Ban Pak Houay", "lon": "105.9"}, {"lat": "14.8", "city": "Ban Pak-Houaylai", "lon": "105.716667"}, {"lat": "14.6", "city": "Ban Pak-Houayphai", "lon": "105.783333"}, {"lat": "14.6", "city": "Ban Pak-Houayphan", "lon": "105.783333"}, {"lat": "14.966667", "city": "Ban Pak Houei", "lon": "105.9"}, {"lat": "14.8", "city": "Ban Pak Houei Lai", "lon": "105.716667"}, {"lat": "14.6", "city": "Ban Pak Houei Phai", "lon": "105.783333"}, {"lat": "14.6", "city": "Ban Pak Houei Phane", "lon": "105.783333"}, {"lat": "14.633333", "city": "Ban Pak\u00f4", "lon": "105.566667"}, {"lat": "14.566667", "city": "Ban Pakouay", "lon": "105.833333"}, {"lat": "14.7", "city": "Ban Pak Sang Bo Lang", "lon": "105.7"}, {"lat": "14.366667", "city": "Ban Paksong", "lon": "105.516667"}, {"lat": "14.85", "city": "Ban Paktouay", "lon": "105.933333"}, {"lat": "14.85", "city": "Ban Pak Touei", "lon": "105.933333"}, {"lat": "14.7", "city": "Ban Pakxangbol\u00f4ng", "lon": "105.7"}, {"lat": "14.1", "city": "Ban Pakx\u00e9", "lon": "105.75"}, {"lat": "15.283333", "city": "Ban Palai", "lon": "105.833333"}, {"lat": "15.083333", "city": "Ban Pang Deng", "lon": "105.666667"}, {"lat": "14.15", "city": "Ban Pankaou", "lon": "105.783333"}, {"lat": "14.15", "city": "Ban Pankhao", "lon": "105.783333"}, {"lat": "15.3", "city": "Ban Papit", "lon": "105.9"}, {"lat": "15.183333", "city": "Ban Pats\u00f4n", "lon": "105.783333"}, {"lat": "15.183333", "city": "Ban Patxon", "lon": "105.783333"}, {"lat": "14.883333", "city": "Ban Phabang", "lon": "105.866667"}, {"lat": "15.033333", "city": "Ban Pha\u00efdom", "lon": "105.783333"}, {"lat": "15.033333", "city": "Ban Phailom", "lon": "105.783333"}, {"lat": "14.716667", "city": "Ban Phakkha", "lon": "106.083333"}, {"lat": "15.016667", "city": "Ban Phakph\u00e8o", "lon": "105.883333"}, {"lat": "14.7", "city": "Ban Pha Lai", "lon": "106.133333"}, {"lat": "14.7", "city": "Ban Phalay", "lon": "106.133333"}, {"lat": "15.133333", "city": "Ban Phaling", "lon": "105.733333"}, {"lat": "14.166667", "city": "Ban Phangkhao", "lon": "105.766667"}, {"lat": "14.916667", "city": "Ban Phaphin", "lon": "105.9"}, {"lat": "14.916667", "city": "Ban Phaphine", "lon": "105.9"}, {"lat": "14.733333", "city": "Ban Phaph\u00f4", "lon": "106.083333"}, {"lat": "15.183333", "city": "Ban Phasouam", "lon": "105.966667"}, {"lat": "15.183333", "city": "Ban Pha Souan", "lon": "105.966667"}, {"lat": "14.8", "city": "Ban Phiafay", "lon": "105.933333"}, {"lat": "15.166667", "city": "Ban Phin", "lon": "105.966667"}, {"lat": "15.166667", "city": "Ban Phine", "lon": "105.966667"}, {"lat": "14.25", "city": "Ban Ph\u00f4", "lon": "105.85"}, {"lat": "14.15", "city": "Ban Pho Done", "lon": "105.883333"}, {"lat": "14.783333", "city": "Ban Phom Maleu", "lon": "106.083333"}, {"lat": "14.783333", "city": "Ban Ph\u00f4mmalu", "lon": "106.083333"}, {"lat": "14.066667", "city": "Ban Ph\u00f4n", "lon": "105.866667"}, {"lat": "14.9", "city": "Ban Ph\u00f4nb\u00f4k", "lon": "105.9"}, {"lat": "14.8", "city": "Ban Ph\u00f4ndou", "lon": "105.833333"}, {"lat": "14.066667", "city": "Ban Ph\u00f4ne", "lon": "105.866667"}, {"lat": "14.9", "city": "Ban Ph\u00f4ne Bok", "lon": "105.9"}, {"lat": "14.8", "city": "Ban Phone Dou", "lon": "105.833333"}, {"lat": "14.2", "city": "Ban Phone Lao Khao", "lon": "105.933333"}, {"lat": "14.85", "city": "Ban Ph\u00f4ne Sao", "lon": "105.85"}, {"lat": "14.216667", "city": "Ban Phone Tane", "lon": "105.916667"}, {"lat": "15.05", "city": "Ban Ph\u00f4n Gnai", "lon": "105.75"}, {"lat": "14.6", "city": "Ban Ph\u00f4ngpho", "lon": "105.866667"}, {"lat": "14.583333", "city": "Ban Phong Pho Noi", "lon": "105.866667"}, {"lat": "14.583333", "city": "Ban Ph\u00f4ngpho Noy", "lon": "105.866667"}, {"lat": "14.916667", "city": "Ban Ph\u00f4ngph\u00f4t", "lon": "105.65"}, {"lat": "14.2", "city": "Ban Ph\u00f4nlaokhao", "lon": "105.933333"}, {"lat": "14.716667", "city": "Ban Phon Ngam", "lon": "106.083333"}, {"lat": "15.05", "city": "Ban Ph\u00f4n Nhai", "lon": "105.75"}, {"lat": "15.033333", "city": "Ban Phon Noi", "lon": "105.75"}, {"lat": "15.033333", "city": "Ban Ph\u00f4n Noy", "lon": "105.75"}, {"lat": "14.85", "city": "Ban Ph\u00f4nsao\u00e9", "lon": "105.85"}, {"lat": "14.2", "city": "Ban Ph\u00f4ntab\u00e8ng", "lon": "105.95"}, {"lat": "14.216667", "city": "Ban Ph\u00f4ntan", "lon": "105.916667"}, {"lat": "14.183333", "city": "Ban Ph\u00f4nvisai", "lon": "105.966667"}, {"lat": "15.15", "city": "Ban Phouchiang Gnai", "lon": "105.9"}, {"lat": "15.166667", "city": "Ban Phouchiang Noy", "lon": "105.9"}, {"lat": "15.15", "city": "Ban Phou Chieng Nhai", "lon": "105.9"}, {"lat": "15.166667", "city": "Ban Phou Chieng Noi", "lon": "105.9"}, {"lat": "14.15", "city": "Ban Phoud\u00f4n", "lon": "105.883333"}, {"lat": "14.15", "city": "Ban Phou Done", "lon": "105.883333"}, {"lat": "14.216667", "city": "Ban Phougnavay", "lon": "105.916667"}, {"lat": "14.116667", "city": "Ban Phoumaktong", "lon": "105.8"}, {"lat": "14.116667", "city": "Ban Phoum\u00e8o", "lon": "105.766667"}, {"lat": "14.716667", "city": "Ban Phoungam", "lon": "106.083333"}, {"lat": "15.133333", "city": "Ban Phoutha", "lon": "105.816667"}, {"lat": "15.233333", "city": "Ban Phouthong Theung", "lon": "105.85"}, {"lat": "15.25", "city": "Ban Phoutoungloung", "lon": "105.816667"}, {"lat": "14.216667", "city": "Ban Phouyava\u00ef", "lon": "105.916667"}, {"lat": "14.216667", "city": "Ban Phouyvai", "lon": "105.916667"}, {"lat": "14.766667", "city": "Ban Phu", "lon": "105.733333"}, {"lat": "14.566667", "city": "Ban Po Hao", "lon": "105.866667"}, {"lat": "14.916667", "city": "Ban P\u00f4l\u00f4", "lon": "105.933333"}, {"lat": "14.75", "city": "Ban Pong", "lon": "105.983333"}, {"lat": "14.983333", "city": "Ban P\u00f4ngkh\u00e8n", "lon": "106.183333"}, {"lat": "15.133333", "city": "Ban P\u00f4tak", "lon": "105.816667"}, {"lat": "14.116667", "city": "Ban Pou Maktone", "lon": "105.8"}, {"lat": "14.116667", "city": "Ban Pou Meo", "lon": "105.766667"}, {"lat": "14.75", "city": "Ban Puay", "lon": "105.833333"}, {"lat": "14.866667", "city": "Ban Puaydao", "lon": "105.916667"}, {"lat": "14.866667", "city": "Ban Puei Dao", "lon": "105.916667"}, {"lat": "14.75", "city": "Ban Puey", "lon": "105.833333"}, {"lat": "14.566667", "city": "Ban Rouay", "lon": "105.833333"}, {"lat": "14.616667", "city": "Ban Sa", "lon": "105.65"}, {"lat": "14.216667", "city": "Ban Sadam", "lon": "105.833333"}, {"lat": "14.216667", "city": "Ban Sadame", "lon": "105.833333"}, {"lat": "15.2", "city": "Ban Sai Moun", "lon": "105.716667"}, {"lat": "15.2", "city": "Ban Sakmuang", "lon": "105.666667"}, {"lat": "15.2", "city": "Ban Sak Muong", "lon": "105.666667"}, {"lat": "14.066667", "city": "Ban Sala", "lon": "105.866667"}, {"lat": "14.933333", "city": "Ban Saladin", "lon": "105.95"}, {"lat": "14.933333", "city": "Ban Saladine", "lon": "105.95"}, {"lat": "14.95", "city": "Ban Saladine No\u00ef", "lon": "105.966667"}, {"lat": "14.95", "city": "Ban Saladin Noy", "lon": "105.966667"}, {"lat": "15.066667", "city": "Ban Salao", "lon": "105.816667"}, {"lat": "15.066667", "city": "Ban Salao Noi", "lon": "105.833333"}, {"lat": "15.066667", "city": "Ban Salao Noy", "lon": "105.833333"}, {"lat": "14.133333", "city": "Ban Salaoson", "lon": "105.733333"}, {"lat": "15.066667", "city": "Ban Salaou", "lon": "105.816667"}, {"lat": "14.133333", "city": "Ban Salva", "lon": "105.75"}, {"lat": "15.183333", "city": "Ban Saman", "lon": "105.7"}, {"lat": "15.183333", "city": "Ban Samanh", "lon": "105.7"}, {"lat": "13.983333", "city": "Ban Sameta", "lon": "105.916667"}, {"lat": "14.783333", "city": "Ban Sam Hong", "lon": "105.933333"}, {"lat": "14.8", "city": "Ban Saming", "lon": "106.116667"}, {"lat": "14.683333", "city": "Ban Samkha", "lon": "105.8"}, {"lat": "14.616667", "city": "Ban Samkham", "lon": "105.866667"}, {"lat": "15.116667", "city": "Ban Samoliep", "lon": "105.766667"}, {"lat": "15.116667", "city": "Ban Samotlep", "lon": "105.766667"}, {"lat": "14.816667", "city": "Ban San", "lon": "106.066667"}, {"lat": "14.833333", "city": "Ban Sangdua", "lon": "105.816667"}, {"lat": "14.183333", "city": "Ban Sang Peuei", "lon": "105.85"}, {"lat": "14.033333", "city": "Ban Sang Phay", "lon": "105.85"}, {"lat": "14.816667", "city": "Ban Sanot", "lon": "106.066667"}, {"lat": "14.133333", "city": "Ban Sanva", "lon": "105.75"}, {"lat": "15.183333", "city": "Ban Saphai", "lon": "105.716667"}, {"lat": "14.266667", "city": "Ban Saphang", "lon": "105.833333"}, {"lat": "15.183333", "city": "Ban Saphay", "lon": "105.716667"}, {"lat": "15.133333", "city": "Ban Sap Thot", "lon": "106.033333"}, {"lat": "15.283333", "city": "Ban Savang", "lon": "105.65"}, {"lat": "14.616667", "city": "Ban Se", "lon": "105.65"}, {"lat": "14.133333", "city": "Ban Selaosom", "lon": "105.733333"}, {"lat": "14.133333", "city": "Ban Selaoson", "lon": "105.733333"}, {"lat": "13.983333", "city": "Ban Seme Lai", "lon": "105.916667"}, {"lat": "14", "city": "Ban Sene Hom", "lon": "105.95"}, {"lat": "14.783333", "city": "Ban Sene Muong", "lon": "105.716667"}, {"lat": "14.783333", "city": "Ban S\u00e8ne Muong Mai", "lon": "105.716667"}, {"lat": "14.75", "city": "Ban Seng", "lon": "105.95"}, {"lat": "14.133333", "city": "Ban S\u00e8n-Hat", "lon": "105.8"}, {"lat": "14", "city": "Ban S\u00e8n-Hom", "lon": "105.95"}, {"lat": "14.783333", "city": "Ban S\u00e8nmuang", "lon": "105.716667"}, {"lat": "14.783333", "city": "Ban S\u00e8nmuang Mai", "lon": "105.716667"}, {"lat": "14.733333", "city": "Ban S\u00e8nto", "lon": "105.9"}, {"lat": "15.133333", "city": "Ban S\u00e9pien", "lon": "106.283333"}, {"lat": "14.016667", "city": "Ban S\u00e9t", "lon": "105.966667"}, {"lat": "14.05", "city": "Ban Set Name Ome", "lon": "105.966667"}, {"lat": "14.05", "city": "Ban S\u00e9tnam-Om", "lon": "105.966667"}, {"lat": "14.05", "city": "Ban S\u00e9tphailom", "lon": "105.966667"}, {"lat": "14.05", "city": "Ban Set Pha\u00ef Lome", "lon": "105.966667"}, {"lat": "14.033333", "city": "Ban Set Phone", "lon": "105.95"}, {"lat": "14.033333", "city": "Ban Set Phone Kad\u00e9o", "lon": "105.95"}, {"lat": "14.033333", "city": "Ban S\u00e9t-Ph\u00f4nkadao", "lon": "105.95"}, {"lat": "14", "city": "Ban S\u00e9t Tai", "lon": "105.95"}, {"lat": "14.883333", "city": "Ban Sichanth\u00f4 Gnai", "lon": "105.916667"}, {"lat": "14.883333", "city": "Ban Sichantho Nhai", "lon": "105.916667"}, {"lat": "14.9", "city": "Ban Sichanth\u00f4 Noi", "lon": "105.9"}, {"lat": "14.9", "city": "Ban Sichanth\u00f4 Noy", "lon": "105.9"}, {"lat": "14.316667", "city": "Ban Sieng Vang", "lon": "105.866667"}, {"lat": "14.866667", "city": "Ban Simoung Khoun Noi", "lon": "105.9"}, {"lat": "14.866667", "city": "Ban Simoungkhoun Noy", "lon": "105.9"}, {"lat": "15.3", "city": "Ban Sithouan", "lon": "105.7"}, {"lat": "15.3", "city": "Ban Si Thouane", "lon": "105.7"}, {"lat": "15.316667", "city": "Ban S\u00f4koung", "lon": "105.733333"}, {"lat": "14.033333", "city": "Ban Sollavieng", "lon": "105.9"}, {"lat": "15.3", "city": "Ban Solo Gnai", "lon": "105.816667"}, {"lat": "15.3", "city": "Ban Solo Nhai", "lon": "105.816667"}, {"lat": "15.283333", "city": "Ban S\u00f4l\u00f3 No\u00ef", "lon": "105.816667"}, {"lat": "15.283333", "city": "Ban S\u00f4l\u00f4 Noy", "lon": "105.816667"}, {"lat": "13.983333", "city": "Ban S\u00f4m", "lon": "105.916667"}, {"lat": "14.783333", "city": "Ban S\u00f4mhong", "lon": "105.933333"}, {"lat": "15.283333", "city": "Ban Sone Pak", "lon": "105.75"}, {"lat": "14.516667", "city": "Ban Songgnang", "lon": "105.85"}, {"lat": "14.516667", "city": "Ban Song Gniang", "lon": "105.85"}, {"lat": "14.2", "city": "Ban Song Hong", "lon": "105.5"}, {"lat": "14.966667", "city": "Ban Songkhon", "lon": "105.7"}, {"lat": "14.966667", "city": "Ban Song Khone", "lon": "105.7"}, {"lat": "14.183333", "city": "Ban Song Peuei", "lon": "105.85"}, {"lat": "14.183333", "city": "Ban Songpouay", "lon": "105.85"}, {"lat": "14.45", "city": "Ban Songpuay", "lon": "105.866667"}, {"lat": "14.45", "city": "Ban Song Pue\u00ef", "lon": "105.866667"}, {"lat": "15.15", "city": "Ban S\u00f4ng Say", "lon": "105.716667"}, {"lat": "14.2", "city": "Ban Sonhong", "lon": "105.5"}, {"lat": "14.033333", "city": "Ban S\u00f4nlaviang", "lon": "105.9"}, {"lat": "15.283333", "city": "Ban S\u00f4np\u00e8k", "lon": "105.75"}, {"lat": "14.033333", "city": "Ban Sot", "lon": "106.116667"}, {"lat": "14.633333", "city": "Ban Soukhouma", "lon": "105.8"}, {"lat": "15.166667", "city": "Ban Soun", "lon": "105.8"}, {"lat": "14.633333", "city": "Ban Sukkhuma", "lon": "105.8"}, {"lat": "14.283333", "city": "Ban Tachian", "lon": "105.9"}, {"lat": "14.083333", "city": "Ban Tahay", "lon": "105.766667"}, {"lat": "14.783333", "city": "Ban Ta Hou", "lon": "105.983333"}, {"lat": "14.583333", "city": "Ban Tai", "lon": "105.866667"}, {"lat": "14.65", "city": "Ban Takd\u00e8t Gnai", "lon": "105.766667"}, {"lat": "14.65", "city": "Ban Takd\u00eat Nhai", "lon": "105.766667"}, {"lat": "14.65", "city": "Ban Takd\u00eat Noi", "lon": "105.766667"}, {"lat": "14.65", "city": "Ban Takd\u00e8t Noy", "lon": "105.766667"}, {"lat": "15.1", "city": "Ban Talai", "lon": "105.833333"}, {"lat": "15.1", "city": "Ban Talat", "lon": "105.833333"}, {"lat": "14.65", "city": "Ban Tal\u00f3", "lon": "105.783333"}, {"lat": "14.65", "city": "Ban Talou", "lon": "105.783333"}, {"lat": "15.066667", "city": "Ban Tam Din", "lon": "105.983333"}, {"lat": "15.416667", "city": "Ban Tanglang", "lon": "105.816667"}, {"lat": "15.416667", "city": "Ban Tang Sam", "lon": "105.816667"}, {"lat": "15.416667", "city": "Ban Tang San", "lon": "105.816667"}, {"lat": "14.633333", "city": "Ban Taong", "lon": "106.133333"}, {"lat": "14.266667", "city": "Ban Taopoun", "lon": "105.883333"}, {"lat": "14.266667", "city": "Ban Taopoung", "lon": "105.883333"}, {"lat": "14.883333", "city": "Ban Tapa", "lon": "106.2"}, {"lat": "14.566667", "city": "Ban Tap Que", "lon": "105.866667"}, {"lat": "14.8", "city": "Ban Taptao", "lon": "105.8"}, {"lat": "14.066667", "city": "Ban Tas\u00e8ng", "lon": "105.883333"}, {"lat": "14.166667", "city": "Ban Ta Soeul", "lon": "105.35"}, {"lat": "14.066667", "city": "Ban Tasseng", "lon": "105.883333"}, {"lat": "14.283333", "city": "Ban Tatiane", "lon": "105.9"}, {"lat": "14.966667", "city": "Ban Tet Sai", "lon": "105.883333"}, {"lat": "14.966667", "city": "Ban Tet Si", "lon": "105.883333"}, {"lat": "14.95", "city": "Ban Tha", "lon": "105.733333"}, {"lat": "14.633333", "city": "Ban Thab Cham", "lon": "105.8"}, {"lat": "14.2", "city": "Ban Thadeua", "lon": "105.766667"}, {"lat": "14.2", "city": "Ban Thadua", "lon": "105.766667"}, {"lat": "14.083333", "city": "Ban Thahai", "lon": "105.766667"}, {"lat": "14.483333", "city": "Ban Thah\u00e8", "lon": "105.85"}, {"lat": "14.783333", "city": "Ban Thahou", "lon": "105.983333"}, {"lat": "14.7", "city": "Ban Thai", "lon": "105.75"}, {"lat": "14.033333", "city": "Ban Thakham", "lon": "105.9"}, {"lat": "14.866667", "city": "Ban Thakh\u00e8k", "lon": "105.9"}, {"lat": "14.5", "city": "Ban Thakho", "lon": "105.833333"}, {"lat": "15.083333", "city": "Ban Thakkaleuy", "lon": "107.133333"}, {"lat": "14.566667", "city": "Ban Thakouang", "lon": "105.866667"}, {"lat": "14.566667", "city": "Ban Tha Kuang", "lon": "105.866667"}, {"lat": "14.8", "city": "Ban Thamaksan", "lon": "106.016667"}, {"lat": "14.2", "city": "Ban Thaman", "lon": "105.75"}, {"lat": "14.2", "city": "Ban Thamane", "lon": "105.75"}, {"lat": "15.066667", "city": "Ban Thamdin", "lon": "105.983333"}, {"lat": "15.066667", "city": "Ban Tham Dine", "lon": "105.983333"}, {"lat": "14.55", "city": "Ban Thamouang", "lon": "105.833333"}, {"lat": "14.466667", "city": "Ban Tha Nong", "lon": "105.85"}, {"lat": "14.8", "city": "Ban Thao Mak Sane", "lon": "106.016667"}, {"lat": "14.633333", "city": "Ban Thapcham", "lon": "105.8"}, {"lat": "15.016667", "city": "Ban Thaphakkha", "lon": "105.866667"}, {"lat": "15.016667", "city": "Ban Thaphak Khai", "lon": "105.866667"}, {"lat": "14.033333", "city": "Ban Thaphao", "lon": "105.866667"}, {"lat": "14.366667", "city": "Ban Thaph\u00f4", "lon": "105.883333"}, {"lat": "14.366667", "city": "Ban Thapho Neua", "lon": "105.883333"}, {"lat": "14.366667", "city": "Ban Thaph\u00f4 Nua", "lon": "105.883333"}, {"lat": "14.05", "city": "Ban Thaph\u00f4 Tai", "lon": "105.866667"}, {"lat": "14.05", "city": "Ban Thapho Tay", "lon": "105.866667"}, {"lat": "14.783333", "city": "Ban Thapsok", "lon": "106.05"}, {"lat": "15.133333", "city": "Ban Thapsot", "lon": "106.033333"}, {"lat": "14.466667", "city": "Ban Thasang", "lon": "105.85"}, {"lat": "14.75", "city": "Ban Thatan", "lon": "105.933333"}, {"lat": "14.5", "city": "Ban That", "lon": "105.833333"}, {"lat": "14.8", "city": "Ban That\u00e8ng", "lon": "105.9"}, {"lat": "14.833333", "city": "Ban Thatin", "lon": "105.9"}, {"lat": "14.733333", "city": "Ban Th\u00f4mchan", "lon": "105.8"}, {"lat": "14.733333", "city": "Ban Thom Chanh", "lon": "105.8"}, {"lat": "14.8", "city": "Ban Th\u00f4ng", "lon": "106.1"}, {"lat": "14.766667", "city": "Ban Th\u00f4ngkhikai Gnai", "lon": "105.783333"}, {"lat": "14.766667", "city": "Ban Thong Khi Kai Nhai", "lon": "105.783333"}, {"lat": "14.75", "city": "Ban Thong Khi Kai Noi", "lon": "105.766667"}, {"lat": "14.75", "city": "Ban Th\u00f4ngkhikai Noy", "lon": "105.766667"}, {"lat": "14.883333", "city": "Ban Th\u00f4ngkhoum", "lon": "106"}, {"lat": "15.183333", "city": "Ban Th\u00f4ngkoang", "lon": "105.516667"}, {"lat": "15.183333", "city": "Ban Thong Kouang", "lon": "105.516667"}, {"lat": "15.35", "city": "Ban Th\u00f4ng-Ni", "lon": "105.85"}, {"lat": "14.85", "city": "Ban Thong Pa", "lon": "106.05"}, {"lat": "14.783333", "city": "Ban Thong Say", "lon": "106.133333"}, {"lat": "14.9", "city": "Ban Th\u00f4ngsithouan", "lon": "105.966667"}, {"lat": "14.9", "city": "Ban Thong Sithouane", "lon": "105.966667"}, {"lat": "15.333333", "city": "Ban Th\u00f4ngson", "lon": "105.916667"}, {"lat": "15.333333", "city": "Ban Thong Sone", "lon": "105.916667"}, {"lat": "14.85", "city": "Ban Th\u00f4ngthan", "lon": "105.833333"}, {"lat": "14.85", "city": "Ban Thong Thanh", "lon": "105.833333"}, {"lat": "15.333333", "city": "Ban Th\u00f4ngthi", "lon": "105.883333"}, {"lat": "14.783333", "city": "Ban Th\u00f4ngxai", "lon": "106.133333"}, {"lat": "14.033333", "city": "Ban Thophao", "lon": "105.866667"}, {"lat": "14.783333", "city": "Ban Thop Sok", "lon": "106.05"}, {"lat": "14.316667", "city": "Ban Tian Noi", "lon": "105.883333"}, {"lat": "14.8", "city": "Ban T\u00f4m\u00f4", "lon": "105.933333"}, {"lat": "14.85", "city": "Ban T\u00f4ngpa", "lon": "106.05"}, {"lat": "14.133333", "city": "Ban Touk-Louk", "lon": "106.033333"}, {"lat": "15.066667", "city": "Ban Toumassa", "lon": "105.833333"}, {"lat": "15.066667", "city": "Ban Toumaxa", "lon": "105.833333"}, {"lat": "14.516667", "city": "Ban Toum", "lon": "105.866667"}, {"lat": "14.5", "city": "Ban Toum No\u00ef", "lon": "105.85"}, {"lat": "14.5", "city": "Ban Toum Noy", "lon": "105.85"}, {"lat": "15.016667", "city": "Ban Vang-Ikit", "lon": "105.7"}, {"lat": "14.583333", "city": "Ban Vangmakx\u00e8o", "lon": "105.816667"}, {"lat": "15.283333", "city": "Ban Vangm\u00f4n", "lon": "105.866667"}, {"lat": "15.283333", "city": "Ban Vang M\u00f4ne", "lon": "105.866667"}, {"lat": "14.733333", "city": "Ban Vangsalong", "lon": "105.75"}, {"lat": "14.616667", "city": "Ban Vang Seung Heup", "lon": "105.816667"}, {"lat": "15.166667", "city": "Ban Vangtao Nai", "lon": "105.516667"}, {"lat": "15.133333", "city": "Ban Vangtao Nok", "lon": "105.516667"}, {"lat": "15.166667", "city": "Ban Vang Taou", "lon": "105.516667"}, {"lat": "14.616667", "city": "Ban Vangxeungheup", "lon": "105.816667"}, {"lat": "15.016667", "city": "Ban Van Kit", "lon": "105.7"}, {"lat": "14.883333", "city": "Ban Vat Sisoumang", "lon": "105.866667"}, {"lat": "14.883333", "city": "Ban Vatthat", "lon": "105.883333"}, {"lat": "14.1", "city": "Ban Veun-An", "lon": "105.733333"}, {"lat": "14.15", "city": "Ban Veun", "lon": "105.75"}, {"lat": "14.133333", "city": "Ban Veunchan", "lon": "105.783333"}, {"lat": "14.15", "city": "Ban Veune", "lon": "105.75"}, {"lat": "14.133333", "city": "Ban Veune Chan", "lon": "105.783333"}, {"lat": "14.366667", "city": "Ban Veune Khene", "lon": "105.866667"}, {"lat": "15.266667", "city": "Ban Veunesai Nhai", "lon": "105.65"}, {"lat": "15.25", "city": "Ban Veunesai Noi", "lon": "105.65"}, {"lat": "14.166667", "city": "Ban Veune Thong", "lon": "105.85"}, {"lat": "14.1", "city": "Ban Veunian", "lon": "105.733333"}, {"lat": "14.366667", "city": "Ban Veunkh\u00e8n", "lon": "105.866667"}, {"lat": "14.166667", "city": "Ban Veunthong", "lon": "105.85"}, {"lat": "15.266667", "city": "Ban Veunxai", "lon": "105.65"}, {"lat": "15.266667", "city": "Ban Veunxai Gnai", "lon": "105.65"}, {"lat": "15.25", "city": "Ban Veunxai Noy", "lon": "105.65"}, {"lat": "14.033333", "city": "Ban Xangphai", "lon": "105.85"}, {"lat": "15.2", "city": "Ban Xaymoun", "lon": "105.716667"}, {"lat": "14.616667", "city": "Ban X\u00e8", "lon": "105.65"}, {"lat": "14.75", "city": "Ban X\u00e8ng", "lon": "105.95"}, {"lat": "15.133333", "city": "Ban X\u00e9pian", "lon": "106.283333"}, {"lat": "14.316667", "city": "Ban Xiangvang", "lon": "105.866667"}, {"lat": "15.15", "city": "Ban X\u00f4ng", "lon": "105.8"}, {"lat": "15.15", "city": "Ban Xongxay", "lon": "105.716667"}, {"lat": "14.033333", "city": "Ban Xot", "lon": "106.116667"}, {"lat": "15.2", "city": "Ban Y\u00f4ng", "lon": "105.716667"}, {"lat": "14.883333", "city": "Basak", "lon": "105.866667"}, {"lat": "14.883333", "city": "Bassac", "lon": "105.866667"}, {"lat": "14.883333", "city": "Bassak", "lon": "105.866667"}, {"lat": "14.283333", "city": "Chak", "lon": "105.416667"}, {"lat": "14.883333", "city": "Champasak", "lon": "105.866667"}, {"lat": "14.883333", "city": "Champassac", "lon": "105.866667"}, {"lat": "14.883333", "city": "Champassak", "lon": "105.866667"}, {"lat": "14.3", "city": "Ch\u00e9am", "lon": "105.266667"}, {"lat": "13.983333", "city": "Don Det", "lon": "105.933333"}, {"lat": "15.183333", "city": "Done Kho", "lon": "105.716667"}, {"lat": "15.1", "city": "Done Nha Ma", "lon": "105.683333"}, {"lat": "14.266667", "city": "Done Sane Bam Noi", "lon": "105.866667"}, {"lat": "14.266667", "city": "Done Sane Ban Noi", "lon": "105.866667"}, {"lat": "14.25", "city": "Done San Tavan Ok", "lon": "105.866667"}, {"lat": "14.783333", "city": "Done Talat", "lon": "105.816667"}, {"lat": "14.183333", "city": "Don Hi", "lon": "105.8"}, {"lat": "15.183333", "city": "Don Kh\u00f4", "lon": "105.716667"}, {"lat": "14.2", "city": "Don Koy", "lon": "105.766667"}, {"lat": "14.783333", "city": "Don Ta Lat", "lon": "105.816667"}, {"lat": "14.016667", "city": "D\u00f4ppadich\u00f4k", "lon": "105.85"}, {"lat": "14.116667", "city": "Hat Sa\u00ef Khoune", "lon": "105.866667"}, {"lat": "14.116667", "city": "Hatxaykhoun", "lon": "105.866667"}, {"lat": "14.2", "city": "Houa Khong Nhai", "lon": "105.816667"}, {"lat": "15.116667", "city": "Houei Loum", "lon": "105.766667"}, {"lat": "14.333333", "city": "Kaki", "lon": "105.3"}, {"lat": "15.383333", "city": "Keng Pho", "lon": "105.833333"}, {"lat": "14.4", "city": "Kheo", "lon": "105.866667"}, {"lat": "14.05", "city": "Khinak", "lon": "105.9"}, {"lat": "13.95", "city": "Khone", "lon": "105.933333"}, {"lat": "13.95", "city": "Khone Nord", "lon": "105.933333"}, {"lat": "13.933333", "city": "Khone Sua", "lon": "105.95"}, {"lat": "13.933333", "city": "Kh\u00f4ne Sud", "lon": "105.95"}, {"lat": "13.933333", "city": "Khone Suo", "lon": "105.95"}, {"lat": "14.116667", "city": "Khong", "lon": "105.85"}, {"lat": "14.116667", "city": "Khon", "lon": "105.85"}, {"lat": "14.05", "city": "Ki Nak", "lon": "105.9"}, {"lat": "20.983333", "city": "Kiu Kium", "lon": "102.616667"}, {"lat": "14.4", "city": "Kok", "lon": "105.483333"}, {"lat": "15.166667", "city": "Laongam", "lon": "105.983333"}, {"lat": "14.333333", "city": "Moulapamok", "lon": "105.866667"}, {"lat": "14.333333", "city": "Moulapamouk", "lon": "105.866667"}, {"lat": "14.333333", "city": "Mounlapam\u00f4k", "lon": "105.866667"}, {"lat": "14.333333", "city": "Mounlapamol", "lon": "105.866667"}, {"lat": "15.1", "city": "Muang Kao", "lon": "105.783333"}, {"lat": "14.116667", "city": "Muang Kh\u00f4ng", "lon": "105.85"}, {"lat": "15.183333", "city": "Muang Pakxong", "lon": "106.233333"}, {"lat": "14.8", "city": "Muang Pathoumphon", "lon": "105.933333"}, {"lat": "15.083333", "city": "Muang Ph\u00f4nthong", "lon": "105.65"}, {"lat": "14.1", "city": "Muang S\u00e8n", "lon": "105.783333"}, {"lat": "14.633333", "city": "Muang Soukhouma", "lon": "105.8"}, {"lat": "15.383333", "city": "Muang Souvannakhili", "lon": "105.816667"}, {"lat": "15.383333", "city": "Muang Svankhili", "lon": "105.816667"}, {"lat": "15.1", "city": "Muong Kau", "lon": "105.783333"}, {"lat": "14.116667", "city": "Muong Khong", "lon": "105.85"}, {"lat": "14.1", "city": "Muong S\u00eane", "lon": "105.783333"}, {"lat": "14.683333", "city": "Naboua", "lon": "105.8"}, {"lat": "14.583333", "city": "Nachan", "lon": "105.683333"}, {"lat": "14.733333", "city": "Na Khi Khouai", "lon": "105.833333"}, {"lat": "14.85", "city": "Nam Ngoua Ba", "lon": "105.7"}, {"lat": "14.733333", "city": "Na Nho", "lon": "105.966667"}, {"lat": "14.766667", "city": "Nong Song Hong", "lon": "105.883333"}, {"lat": "14.9", "city": "Nong T\u00ea", "lon": "105.683333"}, {"lat": "15.116667", "city": "Paks\u00e9", "lon": "105.783333"}, {"lat": "15.183333", "city": "Pak Song", "lon": "106.233333"}, {"lat": "15.116667", "city": "Pakx\u00e9", "lon": "105.783333"}, {"lat": "15.183333", "city": "Pakxong", "lon": "106.233333"}, {"lat": "14.8", "city": "Pathoumphone", "lon": "105.933333"}, {"lat": "14.8", "city": "Pathoumphon", "lon": "105.933333"}, {"lat": "14.733333", "city": "Phakkha", "lon": "105.733333"}, {"lat": "14.8", "city": "Phiafai", "lon": "105.933333"}, {"lat": "14.8", "city": "Phiafay", "lon": "105.933333"}, {"lat": "15.083333", "city": "Phon Thong", "lon": "105.65"}, {"lat": "15.083333", "city": "Phon Thuong", "lon": "105.65"}, {"lat": "15.083333", "city": "Phoune Thong", "lon": "105.65"}, {"lat": "14.233333", "city": "Phum Naveng", "lon": "105.933333"}, {"lat": "14.116667", "city": "Pring", "lon": "105.416667"}, {"lat": "14.2", "city": "Salam Phao", "lon": "105.783333"}, {"lat": "14.816667", "city": "Sangdua", "lon": "105.8"}, {"lat": "14.816667", "city": "Sangmakyang", "lon": "105.833333"}, {"lat": "14.633333", "city": "Soukkouma", "lon": "105.8"}, {"lat": "15.383333", "city": "Souvanna Khili", "lon": "105.816667"}, {"lat": "15.383333", "city": "Souvanna Khill", "lon": "105.816667"}, {"lat": "14.3", "city": "Srok Cheam", "lon": "105.266667"}, {"lat": "14.266667", "city": "Srok Trapeang Thom", "lon": "105.333333"}, {"lat": "14.166667", "city": "Ta Soeul", "lon": "105.35"}, {"lat": "14.25", "city": "Tavant\u00f4k", "lon": "105.833333"}, {"lat": "14.2", "city": "Thadeua", "lon": "105.766667"}, {"lat": "14.783333", "city": "That\u00e8ng Kang", "lon": "105.8"}, {"lat": "14.266667", "city": "Trapeang Popul", "lon": "105.416667"}, {"lat": "14.266667", "city": "Trapeang Thom", "lon": "105.333333"}, {"lat": "15.166667", "city": "Vang Taou", "lon": "105.516667"}, {"lat": "15.266667", "city": "Veun Sai", "lon": "105.65"}], "03": [{"lat": "20.311389", "city": "Ang Kouan", "lon": "104.294444"}, {"lat": "20.302222", "city": "Ang Mok", "lon": "104.318889"}, {"lat": "20.306944", "city": "Ang Sang", "lon": "104.264167"}, {"lat": "20.483333", "city": "Bam S\u00e8n Sam", "lon": "103.8"}, {"lat": "20.8", "city": "Ban A Luc", "lon": "104.283333"}, {"lat": "20.183333", "city": "Ban Ang", "lon": "103.883333"}, {"lat": "20.311389", "city": "Ban Angkouan", "lon": "104.294444"}, {"lat": "20.288889", "city": "Ban Ang Lang", "lon": "104.223056"}, {"lat": "20.288889", "city": "Ban Anglong", "lon": "104.223056"}, {"lat": "20.302222", "city": "Ban Angmok", "lon": "104.318889"}, {"lat": "20.306944", "city": "Ban Angxang", "lon": "104.264167"}, {"lat": "20.346111", "city": "Ban Ban", "lon": "104.038333"}, {"lat": "20.346111", "city": "Ban Banh", "lon": "104.038333"}, {"lat": "20.3275", "city": "Ban Ban-Tai", "lon": "104.095833"}, {"lat": "20.843333", "city": "Ban Bao", "lon": "104.126944"}, {"lat": "20.868056", "city": "Ban Bao-Nua", "lon": "104.166111"}, {"lat": "20.862778", "city": "Ban Bao-Tai", "lon": "104.177778"}, {"lat": "20.843333", "city": "Ban Bau", "lon": "104.126944"}, {"lat": "20.55", "city": "Ban Bay", "lon": "104.383333"}, {"lat": "20.408333", "city": "Ban B\u00e8ngthong", "lon": "103.402222"}, {"lat": "20.408333", "city": "Ban Beng Tong", "lon": "103.402222"}, {"lat": "20.916667", "city": "Ban Bet", "lon": "104.133333"}, {"lat": "20.884722", "city": "Ban Bia", "lon": "103.974167"}, {"lat": "20.404167", "city": "Ban Bo-3", "lon": "104.425"}, {"lat": "20.404167", "city": "Ban Bo", "lon": "104.425"}, {"lat": "20.933333", "city": "Ban Bo Bon", "lon": "104.083333"}, {"lat": "20.356667", "city": "Ban Bokay", "lon": "104.362222"}, {"lat": "20.151944", "city": "Ban B\u00f4k", "lon": "104.4275"}, {"lat": "19.916667", "city": "Ban Bona", "lon": "104.366667"}, {"lat": "20.583333", "city": "Ban Bone", "lon": "104.016667"}, {"lat": "20.577778", "city": "Ban B\u00f4ng", "lon": "103.583611"}, {"lat": "20.381111", "city": "Ban Bopha", "lon": "104.326944"}, {"lat": "20.366667", "city": "Ban Bo Pha Teu", "lon": "104.35"}, {"lat": "19.823611", "city": "Ban Bouak", "lon": "104.263056"}, {"lat": "20.616667", "city": "Ban Bouak Hia", "lon": "103.983333"}, {"lat": "19.683889", "city": "Ban Bouambay", "lon": "104.466667"}, {"lat": "19.976111", "city": "Ban Bouamgnoung", "lon": "104.440278"}, {"lat": "20.797778", "city": "Ban Bouamph\u00f4", "lon": "104.001111"}, {"lat": "20.066667", "city": "Ban Bouam Phou", "lon": "103.783333"}, {"lat": "20.937222", "city": "Ban Bouamphou", "lon": "104.063611"}, {"lat": "20.226667", "city": "Ban Bouam Phouok", "lon": "103.858889"}, {"lat": "20.183333", "city": "Ban Boue\u00ef", "lon": "103.883333"}, {"lat": "20.5", "city": "Ban Boung", "lon": "103.666667"}, {"lat": "20.016111", "city": "Ban Bouok", "lon": "104.018056"}, {"lat": "20.833333", "city": "Ban Buam Nghiou", "lon": "104.266667"}, {"lat": "20.032778", "city": "Ban Bun", "lon": "104.419167"}, {"lat": "20.033333", "city": "Ban Buoc", "lon": "104.033333"}, {"lat": "20.833333", "city": "Ban Bu\u00f4m Nghiou", "lon": "104.266667"}, {"lat": "20.5175", "city": "Ban Cha", "lon": "103.458611"}, {"lat": "20.4", "city": "Ban Cha Do", "lon": "104.183333"}, {"lat": "20.293611", "city": "Ban Chak", "lon": "103.456111"}, {"lat": "20.416667", "city": "Ban Cha Khi\u00e8n", "lon": "104.15"}, {"lat": "20.533333", "city": "Ban Cha Kou", "lon": "103.883333"}, {"lat": "20.119167", "city": "Ban Chal\u00f4k", "lon": "104.0575"}, {"lat": "20.183333", "city": "Ban Cha Meng", "lon": "104.166667"}, {"lat": "20.6725", "city": "Ban Chapouang", "lon": "103.826944"}, {"lat": "20.244167", "city": "Ban Chat", "lon": "104.476389"}, {"lat": "20.416667", "city": "Ban Chathao", "lon": "103.7"}, {"lat": "20.416667", "city": "Ban Cha Thao", "lon": "103.916667"}, {"lat": "20.55", "city": "Ban Chathao", "lon": "103.7"}, {"lat": "20.65", "city": "Ban Cha Th\u00e2u", "lon": "104.016667"}, {"lat": "20.344167", "city": "Ban Ch\u00e8fay", "lon": "104.483333"}, {"lat": "20.807778", "city": "Ban Ch\u00e9phay", "lon": "104.270556"}, {"lat": "20.883333", "city": "Ban Chien Kum", "lon": "103.983333"}, {"lat": "20.370278", "city": "Ban Chomkham", "lon": "104.118056"}, {"lat": "20.926111", "city": "Ban Chotlot", "lon": "104.234444"}, {"lat": "19.964444", "city": "Ban Choumkong", "lon": "104.088333"}, {"lat": "20.633333", "city": "Ban Co Kien", "lon": "104.483333"}, {"lat": "20.633333", "city": "Ban Co Lang", "lon": "104.483333"}, {"lat": "20.033333", "city": "Ban Coleu", "lon": "104.7"}, {"lat": "20.712222", "city": "Ban Cong Khoum", "lon": "104.24"}, {"lat": "20.716667", "city": "Ban Cong Meo", "lon": "104.15"}, {"lat": "20.633333", "city": "Ban Co Phuong", "lon": "104.566667"}, {"lat": "20.033333", "city": "Ban Co Sum", "lon": "104.733333"}, {"lat": "20.033333", "city": "Ban Cuong", "lon": "104.583333"}, {"lat": "20.901944", "city": "Ban Dam", "lon": "103.9775"}, {"lat": "20.038611", "city": "Ban Dan", "lon": "104.483889"}, {"lat": "20.304722", "city": "Ban Dand\u00e8ng", "lon": "104.162778"}, {"lat": "20.6075", "city": "Ban Danhang", "lon": "104.341111"}, {"lat": "20.533333", "city": "Ban Dan Hao", "lon": "104.416667"}, {"lat": "20.646667", "city": "Ban Danh\u00f4m", "lon": "104.311111"}, {"lat": "20.2", "city": "Ban Den", "lon": "103.833333"}, {"lat": "19.691389", "city": "Ban D\u00e8ndin", "lon": "104.656389"}, {"lat": "20.416667", "city": "Ban Den Din", "lon": "103.816667"}, {"lat": "20.276111", "city": "Ban Deunbin", "lon": "103.369444"}, {"lat": "20.7325", "city": "Ban Diang", "lon": "103.416389"}, {"lat": "20.85", "city": "Ban Din", "lon": "104.333333"}, {"lat": "20.382778", "city": "Ban Dind\u00e8ng", "lon": "104.089722"}, {"lat": "20.1725", "city": "Ban Dokkham", "lon": "103.801389"}, {"lat": "20.8", "city": "Ban Dom", "lon": "104.083333"}, {"lat": "19.785278", "city": "Ban Don", "lon": "104.715"}, {"lat": "20.283333", "city": "Ban Done", "lon": "104.033333"}, {"lat": "20.066667", "city": "Ban D\u00f4ng", "lon": "103.950833"}, {"lat": "20.364722", "city": "Ban Donphao-Nua", "lon": "104.386111"}, {"lat": "19.933333", "city": "Ban Ekpong-Lin", "lon": "104.033333"}, {"lat": "19.933333", "city": "Ban Ek Pong Linh", "lon": "104.033333"}, {"lat": "20.429167", "city": "Ban Eun", "lon": "104.2575"}, {"lat": "20.5475", "city": "Ban Fat", "lon": "104.166944"}, {"lat": "19.910833", "city": "Ban Gnia", "lon": "104.263889"}, {"lat": "20.433333", "city": "Ban Gnoi Mat", "lon": "103.533333"}, {"lat": "20.280833", "city": "Ban Gnot-Ang", "lon": "104.287222"}, {"lat": "19.929167", "city": "Ban Gnotb\u00f4t", "lon": "104.493056"}, {"lat": "20.333333", "city": "Ban Gnotgnut", "lon": "103.733333"}, {"lat": "19.920278", "city": "Ban Gnot-In", "lon": "104.535556"}, {"lat": "19.935833", "city": "Ban Gnotkoum", "lon": "104.39"}, {"lat": "20.078056", "city": "Ban Gnotl\u00e8m", "lon": "104.060556"}, {"lat": "20.489444", "city": "Ban Gnotlong", "lon": "104.103889"}, {"lat": "20.433333", "city": "Ban Gnotmat", "lon": "103.533333"}, {"lat": "20.266667", "city": "Ban Gnot Nam Pong", "lon": "103.833333"}, {"lat": "19.8975", "city": "Ban Gnotno", "lon": "104.533889"}, {"lat": "19.8775", "city": "Ban Gnotpao", "lon": "104.313333"}, {"lat": "19.906667", "city": "Ban Gnotpiak", "lon": "103.987222"}, {"lat": "20.064444", "city": "Ban Gnottao", "lon": "104.059444"}, {"lat": "19.863889", "city": "Ban Gnottoung", "lon": "104.464722"}, {"lat": "20.7", "city": "Ban Ha Luong", "lon": "104.233333"}, {"lat": "20.184167", "city": "Ban Ham", "lon": "104.256944"}, {"lat": "20.083333", "city": "Ban Han", "lon": "104.883333"}, {"lat": "20.083333", "city": "Ban Hang", "lon": "104.883333"}, {"lat": "20.465833", "city": "Ban Hanglong", "lon": "104.163611"}, {"lat": "20.246667", "city": "Ban Hao", "lon": "104.2625"}, {"lat": "20.241944", "city": "Ban Hao Neua", "lon": "104.273333"}, {"lat": "20.241944", "city": "Ban Hao-Nua", "lon": "104.273333"}, {"lat": "20.594722", "city": "Ban Haos\u00e8n", "lon": "104.426389"}, {"lat": "20.246667", "city": "Ban Hao-Tai", "lon": "104.2625"}, {"lat": "20.246667", "city": "Ban Hao Teu", "lon": "104.2625"}, {"lat": "20.840278", "city": "Ban Hap", "lon": "104.128889"}, {"lat": "20.728056", "city": "Ban Hat", "lon": "104.235"}, {"lat": "20.8925", "city": "Ban Hat Cu", "lon": "103.976944"}, {"lat": "20.033333", "city": "Ban Hatep", "lon": "103.7"}, {"lat": "20.2", "city": "Ban Hat H\u00eang", "lon": "103.9"}, {"lat": "20.035833", "city": "Ban Hatkai", "lon": "103.7825"}, {"lat": "20.766667", "city": "Ban Hat Kh\u00ea", "lon": "104.283333"}, {"lat": "19.935833", "city": "Ban Hatkhoum", "lon": "104.39"}, {"lat": "20.766667", "city": "Ban Hat Kne", "lon": "104.283333"}, {"lat": "20.363889", "city": "Ban Hatkok", "lon": "104.075556"}, {"lat": "20.003056", "city": "Ban Hatli", "lon": "103.834444"}, {"lat": "20.830278", "city": "Ban Hatl\u00f4k", "lon": "104.016389"}, {"lat": "20.366667", "city": "Ban Hat Nhao", "lon": "104.083333"}, {"lat": "20.665", "city": "Ban Hat Sane", "lon": "104.391944"}, {"lat": "20.8925", "city": "Ban Hatsou", "lon": "103.976944"}, {"lat": "20.033333", "city": "Ban Hatt\u00f4p", "lon": "103.7"}, {"lat": "20.665", "city": "Ban Hatxan", "lon": "104.391944"}, {"lat": "20.331111", "city": "Ban H\u00e8ang", "lon": "104.015278"}, {"lat": "20.545", "city": "Ban H\u00e8ng", "lon": "104.324167"}, {"lat": "20.262222", "city": "Ban H\u00e8o", "lon": "104.423056"}, {"lat": "20.881944", "city": "Ban Hi", "lon": "103.957778"}, {"lat": "20.184167", "city": "Ban Him", "lon": "104.256944"}, {"lat": "20.828889", "city": "Ban Him Kum", "lon": "103.964167"}, {"lat": "19.803611", "city": "Ban Hinkap", "lon": "104.657222"}, {"lat": "20.487778", "city": "Ban Hink\u00e8o", "lon": "104.140833"}, {"lat": "20.828889", "city": "Ban Hinkhoun", "lon": "103.964167"}, {"lat": "19.946389", "city": "Ban Hinp\u00e8n", "lon": "104.046111"}, {"lat": "19.902778", "city": "Ban Hintang", "lon": "104.510833"}, {"lat": "20.166667", "city": "Ban Hit", "lon": "104.333333"}, {"lat": "20.526667", "city": "Ban Ho", "lon": "104.444444"}, {"lat": "20.533333", "city": "Ban H\u00f4c", "lon": "104.2"}, {"lat": "20.466667", "city": "Ban Hok", "lon": "104.3"}, {"lat": "19.737222", "city": "Ban Hokkhai", "lon": "104.2225"}, {"lat": "20.068889", "city": "Ban H\u00f4msay", "lon": "103.846389"}, {"lat": "20.044722", "city": "Ban H\u00f4mthong", "lon": "103.605833"}, {"lat": "20.4", "city": "Ban H\u00f4ng N\u00f4n", "lon": "103.866667"}, {"lat": "20.176111", "city": "Ban Hong Oi Neua", "lon": "103.692222"}, {"lat": "19.994167", "city": "Ban H\u00f4ng-Oy", "lon": "104.071389"}, {"lat": "20.176111", "city": "Ban H\u00f4ng-Oy Nua", "lon": "103.692222"}, {"lat": "20.798889", "city": "Ban Hophiang", "lon": "104.368333"}, {"lat": "20.466667", "city": "Ban Houa\u00ef Nha", "lon": "104.166667"}, {"lat": "20.366667", "city": "Ban Houa\u00ef Pahine", "lon": "104.133333"}, {"lat": "20.461944", "city": "Ban Houakhang", "lon": "104.110833"}, {"lat": "20.466667", "city": "Ban Houa Khang M\u00e9o", "lon": "104.116667"}, {"lat": "20.466667", "city": "Ban Houa Khang Neua", "lon": "104.116667"}, {"lat": "20.45", "city": "Ban Houa Khang Teu", "lon": "104.1"}, {"lat": "20.8775", "city": "Ban Houakhong", "lon": "104.03"}, {"lat": "20.168611", "city": "Ban Houamuang", "lon": "103.819444"}, {"lat": "20.005", "city": "Ban Houana", "lon": "104.346389"}, {"lat": "20.633333", "city": "Ban Houa Na", "lon": "104.416667"}, {"lat": "20.05", "city": "Ban Houa Pha", "lon": "103.866667"}, {"lat": "20.069444", "city": "Ban Houaphou", "lon": "103.701667"}, {"lat": "20.45", "city": "Ban Houa Phou", "lon": "104.05"}, {"lat": "20.8525", "city": "Ban Houaphou", "lon": "104.320833"}, {"lat": "20.45", "city": "Ban Houa Phu", "lon": "104.05"}, {"lat": "19.991944", "city": "Ban Houaxiang", "lon": "104.253333"}, {"lat": "19.991944", "city": "Ban Houaxieng", "lon": "104.253333"}, {"lat": "20.207222", "city": "Ban Houa Xieng", "lon": "103.836667"}, {"lat": "20.304444", "city": "Ban Houay-At", "lon": "104.083611"}, {"lat": "20.316667", "city": "Ban Houay Bao", "lon": "104.566667"}, {"lat": "20.45", "city": "Ban Houaybao", "lon": "103.75"}, {"lat": "20.778333", "city": "Ban Houaybao-Tai", "lon": "104.135"}, {"lat": "20.881111", "city": "Ban Houaybia", "lon": "103.984722"}, {"lat": "20.333333", "city": "Ban Houaybouak", "lon": "103.716667"}, {"lat": "20.483333", "city": "Ban Houay Bouei", "lon": "103.983333"}, {"lat": "20.191944", "city": "Ban Houaybung", "lon": "104.185833"}, {"lat": "20.333333", "city": "Ban Houay Cha", "lon": "104.15"}, {"lat": "20.520556", "city": "Ban Houaycha", "lon": "104.360833"}, {"lat": "20.488889", "city": "Ban Houaychak", "lon": "103.430833"}, {"lat": "19.956389", "city": "Ban Houaychakit", "lon": "104.296389"}, {"lat": "19.956389", "city": "Ban Houaychaokit", "lon": "104.296389"}, {"lat": "20.053333", "city": "Ban Houaychiang", "lon": "104.124722"}, {"lat": "20.447778", "city": "Ban Houaychin", "lon": "104.115833"}, {"lat": "19.956389", "city": "Ban Houay Choa Kit", "lon": "104.296389"}, {"lat": "20.533333", "city": "Ban Houay Cho", "lon": "104.266667"}, {"lat": "20.527778", "city": "Ban Houaychon", "lon": "104.031111"}, {"lat": "20.447778", "city": "Ban Houay Chouan", "lon": "104.115833"}, {"lat": "19.953611", "city": "Ban Houaychun", "lon": "104.358333"}, {"lat": "20.566667", "city": "Ban Houay Dat", "lon": "103.966667"}, {"lat": "20.759444", "city": "Ban Houayd\u00e9k", "lon": "104.396944"}, {"lat": "20.766667", "city": "Ban Houay Dic", "lon": "104.133333"}, {"lat": "19.966667", "city": "Ban Houayding", "lon": "103.673056"}, {"lat": "20.033333", "city": "Ban Houay Eng", "lon": "103.85"}, {"lat": "20.570278", "city": "Ban Houaygnap", "lon": "103.296389"}, {"lat": "19.870556", "city": "Ban Houaygno", "lon": "104.531389"}, {"lat": "20.156389", "city": "Ban Houaygn\u00f4m", "lon": "103.663333"}, {"lat": "20.315833", "city": "Ban Houaygnong", "lon": "104.051389"}, {"lat": "20.850278", "city": "Ban Houayha", "lon": "104.021667"}, {"lat": "19.997778", "city": "Ban Houayhai", "lon": "103.925"}, {"lat": "20.256111", "city": "Ban Houayhak", "lon": "104.036667"}, {"lat": "20.256111", "city": "Ban Houay Hao", "lon": "104.036667"}, {"lat": "20.083333", "city": "Ban Houay Hap", "lon": "104.016667"}, {"lat": "20", "city": "Ban Houayhap", "lon": "104.166667"}, {"lat": "20.816667", "city": "Ban Houay Hap", "lon": "104.133333"}, {"lat": "20.133333", "city": "Ban Houay Hay", "lon": "104.1675"}, {"lat": "19.756944", "city": "Ban Houayh\u00e8", "lon": "104.368889"}, {"lat": "20.124444", "city": "Ban Houayhia", "lon": "103.773056"}, {"lat": "20.388056", "city": "Ban Houayhindam", "lon": "104.004444"}, {"lat": "19.765556", "city": "Ban Houayhinpin", "lon": "104.295278"}, {"lat": "19.633333", "city": "Ban Houayh\u00f4k", "lon": "104.55"}, {"lat": "20.666667", "city": "Ban Houay H\u00f4k", "lon": "104.25"}, {"lat": "19.874167", "city": "Ban Houayhom", "lon": "104.179722"}, {"lat": "19.771389", "city": "Ban Houayh\u00f4ng", "lon": "104.311111"}, {"lat": "19.900556", "city": "Ban Houayhouan", "lon": "104.613333"}, {"lat": "20.225278", "city": "Ban Houayhou", "lon": "103.712222"}, {"lat": "20.416667", "city": "Ban Houay Huong", "lon": "103.883333"}, {"lat": "20.661389", "city": "Ban Houayka", "lon": "103.581944"}, {"lat": "20.333333", "city": "Ban Houay Kasao", "lon": "104.016667"}, {"lat": "19.793889", "city": "Ban Houayk\u00e8ng", "lon": "104.381389"}, {"lat": "20.05", "city": "Ban Houay K\u00e9ng", "lon": "103.883333"}, {"lat": "20.35", "city": "Ban Houay Kha", "lon": "103.866667"}, {"lat": "20.426667", "city": "Ban Houaykhai", "lon": "103.966667"}, {"lat": "19.983333", "city": "Ban Houaykham", "lon": "103.883333"}, {"lat": "20.016667", "city": "Ban Houay Khami", "lon": "103.85"}, {"lat": "20.421111", "city": "Ban Houaykh\u00f4", "lon": "104.150278"}, {"lat": "20.280556", "city": "Ban Houaykh\u00f4ng", "lon": "104.083056"}, {"lat": "20.694167", "city": "Ban Houaykhoun", "lon": "104.238333"}, {"lat": "19.961667", "city": "Ban Houaykik", "lon": "104.596389"}, {"lat": "19.764444", "city": "Ban Houaykok", "lon": "104.365"}, {"lat": "20.226667", "city": "Ban Houaykouan", "lon": "104.333889"}, {"lat": "20.890556", "city": "Ban Houaykou", "lon": "104.005556"}, {"lat": "19.966667", "city": "Ban Houaykout", "lon": "104.616667"}, {"lat": "20", "city": "Ban Houay Kut", "lon": "104.6"}, {"lat": "20.35", "city": "Ban Houay Lai", "lon": "104.4"}, {"lat": "20.533333", "city": "Ban Houay Lap", "lon": "103.933333"}, {"lat": "19.922778", "city": "Ban Houaylat", "lon": "104.577222"}, {"lat": "19.8", "city": "Ban Houayl\u00e8", "lon": "104.5"}, {"lat": "19.95", "city": "Ban Houaylin", "lon": "104.816667"}, {"lat": "20.333333", "city": "Ban Houay Linep", "lon": "103.966667"}, {"lat": "20.583333", "city": "Ban Houay Ling", "lon": "104.066667"}, {"lat": "19.833333", "city": "Ban Houay Loi", "lon": "104.4"}, {"lat": "20.133333", "city": "Ban Houay L\u00f4m", "lon": "103.816667"}, {"lat": "20.796944", "city": "Ban Houayl\u00f4m", "lon": "104.073333"}, {"lat": "20.783056", "city": "Ban Houaylong", "lon": "104.078611"}, {"lat": "20.883333", "city": "Ban Houay Long", "lon": "104.066667"}, {"lat": "19.7", "city": "Ban Houaylouang", "lon": "104.566667"}, {"lat": "19.7", "city": "Ban Houaylouany", "lon": "104.566667"}, {"lat": "20.4", "city": "Ban Houay Loun", "lon": "103.933333"}, {"lat": "20.635833", "city": "Ban Houaylouy", "lon": "103.603333"}, {"lat": "19.833333", "city": "Ban Houayloy", "lon": "104.4"}, {"lat": "19.886389", "city": "Ban Houayma", "lon": "104.443611"}, {"lat": "20.028056", "city": "Ban Houay-Mai", "lon": "103.803611"}, {"lat": "20.417778", "city": "Ban Houayma-Nua", "lon": "103.706667"}, {"lat": "20.001667", "city": "Ban Houaymay", "lon": "104.487778"}, {"lat": "20.383333", "city": "Ban Houaym\u00e8ngdan", "lon": "103.683333"}, {"lat": "20.7", "city": "Ban Houaymo", "lon": "103.753611"}, {"lat": "20.75", "city": "Ban Houaymong", "lon": "104.146667"}, {"lat": "19.888056", "city": "Ban Houaymouang", "lon": "104.449444"}, {"lat": "20.104167", "city": "Ban Houaymoun", "lon": "103.813611"}, {"lat": "20.545556", "city": "Ban Houaymuay", "lon": "103.416667"}, {"lat": "20.166667", "city": "Ban Houay Na", "lon": "103.833333"}, {"lat": "20.233333", "city": "Ban Houayna", "lon": "103.683333"}, {"lat": "20.310833", "city": "Ban Houaynan", "lon": "103.918611"}, {"lat": "20.741944", "city": "Ban Houayngeum", "lon": "104.418611"}, {"lat": "19.716667", "city": "Ban Houay Nghieu", "lon": "104.45"}, {"lat": "20.916667", "city": "Ban Houay Ngiou", "lon": "104.05"}, {"lat": "19.801944", "city": "Ban Houayngoua", "lon": "104.426111"}, {"lat": "20.483333", "city": "Ban Houay Ngoua", "lon": "103.883333"}, {"lat": "20.5", "city": "Ban Houay Ngou", "lon": "103.8"}, {"lat": "20.366667", "city": "Ban Houay Nha", "lon": "103.8"}, {"lat": "20.176111", "city": "Ban Houay-Nua", "lon": "103.692222"}, {"lat": "19.943333", "city": "Ban Houay O", "lon": "104.200556"}, {"lat": "20.466667", "city": "Ban Houay Ouang", "lon": "104.05"}, {"lat": "20.256944", "city": "Ban Houay-Oun", "lon": "104.147778"}, {"lat": "20.016667", "city": "Ban Houay Ouo", "lon": "103.983333"}, {"lat": "20.2", "city": "Ban Houay Ouok", "lon": "103.866667"}, {"lat": "20.699167", "city": "Ban Houaypachat", "lon": "103.47"}, {"lat": "20.631667", "city": "Ban Houaypad\u00e8-Nua", "lon": "103.602222"}, {"lat": "20.627778", "city": "Ban Houaypad\u00e8-Tai", "lon": "103.600556"}, {"lat": "20.8625", "city": "Ban Houaypai", "lon": "104.285556"}, {"lat": "20.533333", "city": "Ban Houay Patat", "lon": "103.8"}, {"lat": "20.360833", "city": "Ban Houayp\u00e8k", "lon": "103.980833"}, {"lat": "20.383333", "city": "Ban Houay Pha", "lon": "103.933333"}, {"lat": "19.74", "city": "Ban Houayphiang", "lon": "104.380833"}, {"lat": "20.621111", "city": "Ban Houayphok", "lon": "103.795556"}, {"lat": "20.267222", "city": "Ban Houayph\u00f4ng", "lon": "104.492222"}, {"lat": "20.016667", "city": "Ban Houayphouk", "lon": "103.716667"}, {"lat": "19.74", "city": "Ban Houay Pie", "lon": "104.380833"}, {"lat": "20.803611", "city": "Ban Houaypit", "lon": "104.218056"}, {"lat": "20.05", "city": "Ban Houay Pok", "lon": "103.816667"}, {"lat": "20.791667", "city": "Ban Houaypolam", "lon": "103.894444"}, {"lat": "19.764444", "city": "Ban Houaypoung", "lon": "104.438056"}, {"lat": "20.033333", "city": "Ban Houay Sada", "lon": "103.966667"}, {"lat": "20.061389", "city": "Ban Houaysadoung", "lon": "103.961389"}, {"lat": "20.805", "city": "Ban Houay Sai", "lon": "104.289722"}, {"lat": "20.065", "city": "Ban Houaysala", "lon": "104.373611"}, {"lat": "20.043889", "city": "Ban Houaysala-Kao", "lon": "104.375556"}, {"lat": "19.721389", "city": "Ban Houaysamat", "lon": "104.644167"}, {"lat": "20.1675", "city": "Ban Houay Sam", "lon": "104.306111"}, {"lat": "20.1675", "city": "Ban Houaysan", "lon": "104.306111"}, {"lat": "20.562222", "city": "Ban Houaysangon", "lon": "103.301111"}, {"lat": "20.4", "city": "Ban Houay Sanip", "lon": "104.016667"}, {"lat": "19.9", "city": "Ban Houaysap", "lon": "104.683333"}, {"lat": "20.219167", "city": "Ban Houaysat", "lon": "104.056667"}, {"lat": "20.178333", "city": "Ban Houaysayluang", "lon": "104.37"}, {"lat": "20.45", "city": "Ban Houay Sen", "lon": "103.983333"}, {"lat": "20.35", "city": "Ban Houay Sou", "lon": "103.833333"}, {"lat": "20.894167", "city": "Ban Houaysou", "lon": "103.993333"}, {"lat": "20.583333", "city": "Ban Houay Suang", "lon": "103.933333"}, {"lat": "20.05", "city": "Ban Houay Ta Ang", "lon": "103.983333"}, {"lat": "20.35", "city": "Ban Houay Ta Bong", "lon": "104.133333"}, {"lat": "19.933333", "city": "Ban Houaytamak", "lon": "104.216667"}, {"lat": "20.266667", "city": "Ban Houay Tat", "lon": "104.133333"}, {"lat": "20.3", "city": "Ban Houaytat Noy", "lon": "103.633333"}, {"lat": "19.65", "city": "Ban Houayt\u00e8n", "lon": "104.516667"}, {"lat": "19.790278", "city": "Ban Houaytha", "lon": "104.300278"}, {"lat": "20.5", "city": "Ban Houay Than", "lon": "103.966667"}, {"lat": "20.45", "city": "Ban Houay Thao", "lon": "104.083333"}, {"lat": "20.793333", "city": "Ban Houaythau", "lon": "103.943056"}, {"lat": "20.35", "city": "Ban Houay Thong", "lon": "103.983333"}, {"lat": "20.586667", "city": "Ban Houaythong", "lon": "103.297222"}, {"lat": "20.888056", "city": "Ban Houaytia", "lon": "104.059444"}, {"lat": "20.538333", "city": "Ban Houaytiang", "lon": "104.361111"}, {"lat": "20.053333", "city": "Ban Houay Tieng", "lon": "104.124722"}, {"lat": "20.621111", "city": "Ban Houayt\u00f4m\u00f4", "lon": "103.815556"}, {"lat": "20.536389", "city": "Ban Houaytong", "lon": "103.341111"}, {"lat": "20.090278", "city": "Ban Houaytongching", "lon": "104.308889"}, {"lat": "20.504444", "city": "Ban Houaytoung", "lon": "104.3525"}, {"lat": "20.538611", "city": "Ban Houayva", "lon": "104.2325"}, {"lat": "20.841944", "city": "Ban Houayvan", "lon": "104.146111"}, {"lat": "19.794167", "city": "Ban Houayveui", "lon": "104.458889"}, {"lat": "20.360556", "city": "Ban Houayxai", "lon": "104.408889"}, {"lat": "20.540278", "city": "Ban Houayxang", "lon": "104.412778"}, {"lat": "20.278889", "city": "Ban Houayxat", "lon": "104.044167"}, {"lat": "20.511389", "city": "Ban Houayxay", "lon": "104.139167"}, {"lat": "20.830556", "city": "Ban Houayx\u00e8", "lon": "103.933056"}, {"lat": "20.472222", "city": "Ban Houayxiang", "lon": "103.943889"}, {"lat": "19.9", "city": "Ban Houayxianggnot", "lon": "104.3"}, {"lat": "20.438611", "city": "Ban Houayxuang", "lon": "103.645278"}, {"lat": "20.3", "city": "Ban Houay Yat", "lon": "103.966667"}, {"lat": "20.79", "city": "Ban Houayyong", "lon": "104.0475"}, {"lat": "20.160556", "city": "Ban Houayyoun", "lon": "104.2075"}, {"lat": "20.033333", "city": "Ban Houay Youok", "lon": "103.816667"}, {"lat": "20.566667", "city": "Ban Houe Dat", "lon": "103.966667"}, {"lat": "20.304444", "city": "Ban Houe\u00ef At", "lon": "104.083611"}, {"lat": "20.316667", "city": "Ban Houei Bao", "lon": "104.566667"}, {"lat": "20.333333", "city": "Ban Houei Bouak", "lon": "103.716667"}, {"lat": "20.483333", "city": "Ban Houei Bouei", "lon": "103.983333"}, {"lat": "20.333333", "city": "Ban Houe\u00ef Cha", "lon": "104.15"}, {"lat": "19.956389", "city": "Ban Houei Choa Kit", "lon": "104.296389"}, {"lat": "20.533333", "city": "Ban Houei Cho", "lon": "104.266667"}, {"lat": "20.483333", "city": "Ban Houei Chone", "lon": "104.016667"}, {"lat": "20.447778", "city": "Ban Houe\u00ef Chouan", "lon": "104.115833"}, {"lat": "20.46", "city": "Ban Houei Coc", "lon": "104.081111"}, {"lat": "20.566667", "city": "Ban Houei Dat", "lon": "103.966667"}, {"lat": "20.033333", "city": "Ban Houe\u00ef Eng", "lon": "103.85"}, {"lat": "20.256111", "city": "Ban Houei Hac", "lon": "104.036667"}, {"lat": "19.997778", "city": "Ban Houe\u00ef Ha\u00ef", "lon": "103.925"}, {"lat": "20.256111", "city": "Ban Houei Hao", "lon": "104.036667"}, {"lat": "20.083333", "city": "Ban Houei Hap", "lon": "104.016667"}, {"lat": "20.133333", "city": "Ban Houei Hay", "lon": "104.1675"}, {"lat": "20.388056", "city": "Ban Houei Hin Dam", "lon": "104.004444"}, {"lat": "19.633333", "city": "Ban Houei Hok", "lon": "104.55"}, {"lat": "19.874167", "city": "Ban Houei Hom", "lon": "104.179722"}, {"lat": "20.583333", "city": "Ban Houei Hon", "lon": "103.566667"}, {"lat": "19.900556", "city": "Ban Houei Houan", "lon": "104.613333"}, {"lat": "20.416667", "city": "Ban Houei Huong", "lon": "103.883333"}, {"lat": "20.333333", "city": "Ban Houei Kasao", "lon": "104.016667"}, {"lat": "20.05", "city": "Ban Houe\u00ef Keng", "lon": "103.883333"}, {"lat": "20.35", "city": "Ban Houei Kha", "lon": "103.866667"}, {"lat": "20.426667", "city": "Ban Houei Khai", "lon": "103.966667"}, {"lat": "19.983333", "city": "Ban Houei Kham", "lon": "103.883333"}, {"lat": "20.016667", "city": "Ban Houe\u00ef Khami", "lon": "103.85"}, {"lat": "20.280556", "city": "Ban Houei Khong", "lon": "104.083056"}, {"lat": "20.016667", "city": "Ban Houei Knami", "lon": "103.85"}, {"lat": "19.764444", "city": "Ban Houei Kok", "lon": "104.365"}, {"lat": "20.333333", "city": "Ban Houei Koloc", "lon": "103.933333"}, {"lat": "19.966667", "city": "Ban Houei Kut", "lon": "104.616667"}, {"lat": "20.35", "city": "Ban Houei Lai", "lon": "104.4"}, {"lat": "20.533333", "city": "Ban Houei Lap", "lon": "103.933333"}, {"lat": "19.8", "city": "Ban Houei L\u00e9", "lon": "104.5"}, {"lat": "20.333333", "city": "Ban Houei Linep", "lon": "103.966667"}, {"lat": "20.583333", "city": "Ban Houe\u00ef Ling", "lon": "104.066667"}, {"lat": "19.95", "city": "Ban Houei Linh", "lon": "104.816667"}, {"lat": "19.833333", "city": "Ban Houei Loi", "lon": "104.4"}, {"lat": "20.133333", "city": "Ban Houe\u00ef Lom", "lon": "103.816667"}, {"lat": "19.7", "city": "Ban Houei Louang", "lon": "104.566667"}, {"lat": "20.4", "city": "Ban Houei Loun", "lon": "103.933333"}, {"lat": "20.416667", "city": "Ban Houei Men", "lon": "104.033333"}, {"lat": "20.383333", "city": "Ban Houei Meng Dane", "lon": "103.683333"}, {"lat": "20.166667", "city": "Ban Houe\u00ef Na", "lon": "103.833333"}, {"lat": "20.001667", "city": "Ban Houei Nau", "lon": "104.487778"}, {"lat": "19.716667", "city": "Ban Houei Nghieu", "lon": "104.45"}, {"lat": "20.483333", "city": "Ban Houei Ngoua", "lon": "103.883333"}, {"lat": "20.5", "city": "Ban Houei Ngou", "lon": "103.8"}, {"lat": "20.5", "city": "Ban Houei Ngoui", "lon": "103.8"}, {"lat": "20.366667", "city": "Ban Houei Nha", "lon": "103.8"}, {"lat": "20.35", "city": "Ban Houei Nhak", "lon": "104.033333"}, {"lat": "20.5", "city": "Ban Houei Nhang", "lon": "103.95"}, {"lat": "20.183333", "city": "Ban Houei Nhao", "lon": "104.216667"}, {"lat": "20.35", "city": "Ban Houei Nhok", "lon": "104.033333"}, {"lat": "20.466667", "city": "Ban Houei Ouang", "lon": "104.05"}, {"lat": "20.016667", "city": "Ban Houe\u00ef Oun", "lon": "103.983333"}, {"lat": "20.2", "city": "Ban Houei Ouok", "lon": "103.866667"}, {"lat": "20.366667", "city": "Ban Houe\u00ef Pahine", "lon": "104.133333"}, {"lat": "20.533333", "city": "Ban Houei Patat", "lon": "103.8"}, {"lat": "20.383333", "city": "Ban Houei Pha", "lon": "103.933333"}, {"lat": "20.016667", "city": "Ban Houe\u00ef Phouk", "lon": "103.716667"}, {"lat": "19.74", "city": "Ban Houei Pie", "lon": "104.380833"}, {"lat": "20.05", "city": "Ban Houe\u00ef Pok", "lon": "103.816667"}, {"lat": "19.960278", "city": "Ban Houei Poung", "lon": "104.290278"}, {"lat": "20.466667", "city": "Ban Houei Quang", "lon": "104.05"}, {"lat": "20.033333", "city": "Ban Houe\u00ef Sada", "lon": "103.966667"}, {"lat": "20.1675", "city": "Ban Houei Sam", "lon": "104.306111"}, {"lat": "20.4", "city": "Ban Houei Sanip", "lon": "104.016667"}, {"lat": "19.9", "city": "Ban Houei Sap", "lon": "104.683333"}, {"lat": "20.3", "city": "Ban Houei Saye", "lon": "103.866667"}, {"lat": "20.45", "city": "Ban Houei Sen", "lon": "103.983333"}, {"lat": "20.583333", "city": "Ban Houei Son", "lon": "103.566667"}, {"lat": "20.083333", "city": "Ban Houe\u00ef Soua\u00ef", "lon": "103.783333"}, {"lat": "20.35", "city": "Ban Houei Sou", "lon": "103.833333"}, {"lat": "20.583333", "city": "Ban Houei Suang", "lon": "103.933333"}, {"lat": "20.05", "city": "Ban Houe\u00ef Ta Ang", "lon": "103.983333"}, {"lat": "20.35", "city": "Ban Houei Ta Bong", "lon": "104.133333"}, {"lat": "19.933333", "city": "Ban Houei Tamak", "lon": "104.216667"}, {"lat": "20.266667", "city": "Ban Houei Tat", "lon": "104.133333"}, {"lat": "20.3", "city": "Ban Houei Ta Tnoi", "lon": "103.633333"}, {"lat": "19.65", "city": "Ban Houei Ten", "lon": "104.516667"}, {"lat": "20.5", "city": "Ban Houei Than", "lon": "103.966667"}, {"lat": "20.45", "city": "Ban Houei Thao", "lon": "104.083333"}, {"lat": "20.35", "city": "Ban Houei Thong", "lon": "103.983333"}, {"lat": "20.488889", "city": "Ban Houei Tiak", "lon": "103.430833"}, {"lat": "20.053333", "city": "Ban Houei Tieng", "lon": "104.124722"}, {"lat": "20.166667", "city": "Ban Houei V\u00eark", "lon": "103.9"}, {"lat": "20.3", "city": "Ban Houei Yat", "lon": "103.966667"}, {"lat": "20.3", "city": "Ban Houei Yen", "lon": "104.05"}, {"lat": "20.033333", "city": "Ban Houe\u00ef Youok", "lon": "103.816667"}, {"lat": "20.881111", "city": "Ban Huoi Bia", "lon": "103.984722"}, {"lat": "20.894167", "city": "Ban Huoi Cu", "lon": "103.993333"}, {"lat": "20.766667", "city": "Ban Hu\u00f4i Dic", "lon": "104.133333"}, {"lat": "20.816667", "city": "Ban Hu\u00f4i Hap", "lon": "104.133333"}, {"lat": "20.883333", "city": "Ban Hu\u00f4i Long", "lon": "104.066667"}, {"lat": "20.75", "city": "Ban Huoi Mon", "lon": "104.146667"}, {"lat": "20.916667", "city": "Ban Hu\u00f4i Ngiou", "lon": "104.05"}, {"lat": "20.8625", "city": "Ban Huoi Pai", "lon": "104.285556"}, {"lat": "20.776389", "city": "Ban Hu\u00f4i Poung", "lon": "104.198611"}, {"lat": "20.805", "city": "Ban Hu\u00f4i Sai", "lon": "104.289722"}, {"lat": "20.841944", "city": "Ban Hu\u00f4i Van", "lon": "104.146111"}, {"lat": "20.79", "city": "Ban Huoi Yong", "lon": "104.0475"}, {"lat": "19.803611", "city": "Ban In Kap", "lon": "104.657222"}, {"lat": "20.159722", "city": "Ban It", "lon": "104.326944"}, {"lat": "20.909167", "city": "Ban Kacha", "lon": "104.191667"}, {"lat": "20.223611", "city": "Ban Kad\u00e8ng", "lon": "103.743889"}, {"lat": "20.35", "city": "Ban Kad\u00f4t", "lon": "103.85"}, {"lat": "20.691944", "city": "Ban Kalang", "lon": "103.7775"}, {"lat": "20.633333", "city": "Ban Kam Su", "lon": "103.733333"}, {"lat": "19.727222", "city": "Ban Ka Na", "lon": "104.34"}, {"lat": "20.433056", "city": "Ban Kan", "lon": "103.999722"}, {"lat": "20.028333", "city": "Ban Kang", "lon": "104.219167"}, {"lat": "20.629722", "city": "Ban Kangkat", "lon": "104.400833"}, {"lat": "20.166667", "city": "Ban Kang Khao", "lon": "103.816667"}, {"lat": "20.3275", "city": "Ban Kangm\u00f4ng", "lon": "104.395278"}, {"lat": "20.331944", "city": "Ban Kangmuang", "lon": "104.383056"}, {"lat": "20.322778", "city": "Ban Kangpab\u00f4ng", "lon": "104.405"}, {"lat": "20.331667", "city": "Ban Kangthat", "lon": "104.379167"}, {"lat": "20.555556", "city": "Ban Katong", "lon": "104.484722"}, {"lat": "20.314722", "city": "Ban Kaxeung", "lon": "104.214444"}, {"lat": "20.55", "city": "Ban K\u00eang", "lon": "103.833333"}, {"lat": "20.136389", "city": "Ban K\u00e8ngkh\u00e8p", "lon": "104.083333"}, {"lat": "19.697222", "city": "Ban K\u00e8ngko", "lon": "104.292778"}, {"lat": "19.85", "city": "Ban K\u00e8ng-Lian", "lon": "104.666667"}, {"lat": "20.533333", "city": "Ban K\u00eang Long", "lon": "103.8"}, {"lat": "20.55", "city": "Ban Keng O", "lon": "103.833333"}, {"lat": "20.349722", "city": "Ban K\u00e8ngphoun", "lon": "104.466944"}, {"lat": "20.1", "city": "Ban Keng S'ai", "lon": "103.85"}, {"lat": "20.532778", "city": "Ban K\u00e8npha", "lon": "103.285"}, {"lat": "20.510833", "city": "Ban K\u00e8npha-Tai", "lon": "103.277222"}, {"lat": "20.116667", "city": "Ban K\u00e8o", "lon": "104.033333"}, {"lat": "20.383056", "city": "Ban K\u00e8ocha", "lon": "104.175833"}, {"lat": "20.9", "city": "Ban Keo Cu", "lon": "103.983333"}, {"lat": "20.041944", "city": "Ban K\u00e8oding", "lon": "104.138611"}, {"lat": "20.883333", "city": "Ban Keo Dit", "lon": "104.233056"}, {"lat": "20.066667", "city": "Ban K\u00e8o Gnoung", "lon": "103.85"}, {"lat": "20.6", "city": "Ban K\u00e8o Kia", "lon": "104.05"}, {"lat": "19.966667", "city": "Ban K\u00e8okoup", "lon": "104.016667"},