{"MK": {"24": [{"lat": "41.2505556", "city": "Barakovo", "lon": "21.2266667"}, {"lat": "41.2358333", "city": "Bardina", "lon": "21.2425"}, {"lat": "41.2452778", "city": "Belce", "lon": "21.1997222"}, {"lat": "41.1966667", "city": "Boista", "lon": "21.1013889"}, {"lat": "41.1966667", "city": "Boiste", "lon": "21.1013889"}, {"lat": "41.2163889", "city": "Cerovo", "lon": "21.0911111"}, {"lat": "41.1558333", "city": "Crnec", "lon": "21.2247222"}, {"lat": "41.1558333", "city": "Crneec", "lon": "21.2247222"}, {"lat": "41.1558333", "city": "Crnoec", "lon": "21.2247222"}, {"lat": "41.1558333", "city": "Crnovci", "lon": "21.2247222"}, {"lat": "41.1558333", "city": "Crnovec", "lon": "21.2247222"}, {"lat": "41.2216667", "city": "Demir Hisar", "lon": "21.2030556"}, {"lat": "41.2005556", "city": "Drevenik", "lon": "21.2975"}, {"lat": "41.2005556", "city": "Drvenik", "lon": "21.2975"}, {"lat": "41.2613889", "city": "Edinakovce", "lon": "21.2469444"}, {"lat": "41.2613889", "city": "Edinakovci", "lon": "21.2469444"}, {"lat": "41.2613889", "city": "Edinakovo", "lon": "21.2469444"}, {"lat": "41.2377778", "city": "Gradiste", "lon": "21.2205556"}, {"lat": "41.2377778", "city": "Graiste", "lon": "21.2205556"}, {"lat": "41.2088889", "city": "Kutretino", "lon": "21.2141667"}, {"lat": "41.2219444", "city": "Leskovo", "lon": "21.1205556"}, {"lat": "41.1594444", "city": "Lopatica", "lon": "21.2538889"}, {"lat": "41.1594444", "city": "Lopatnica", "lon": "21.2538889"}, {"lat": "41.2216667", "city": "Murgasevo", "lon": "21.2030556"}, {"lat": "41.1591667", "city": "Obednik", "lon": "21.1594444"}, {"lat": "41.2558333", "city": "Sladuevo", "lon": "21.2086111"}, {"lat": "41.2558333", "city": "Sladujevo", "lon": "21.2086111"}, {"lat": "41.2333333", "city": "Slepce", "lon": "21.175"}, {"lat": "41.1369444", "city": "Strezevo", "lon": "21.1877778"}, {"lat": "41.1997222", "city": "Strugovo", "lon": "21.1813889"}, {"lat": "41.2094444", "city": "Suvodol", "lon": "21.2233333"}, {"lat": "41.2666667", "city": "Sveta", "lon": "21.2727778"}, {"lat": "41.1388889", "city": "Sviniste", "lon": "21.1583333"}, {"lat": "41.1388889", "city": "Svinjista", "lon": "21.1583333"}, {"lat": "41.1388889", "city": "Svinjiste", "lon": "21.1583333"}, {"lat": "41.1825", "city": "Utovo", "lon": "21.1938889"}, {"lat": "41.2358333", "city": "Vardino", "lon": "21.2425"}, {"lat": "41.2327778", "city": "Virovo", "lon": "21.09"}, {"lat": "41.1880556", "city": "Zagorice", "lon": "21.1961111"}, {"lat": "41.2841667", "city": "Zurce", "lon": "21.2363889"}], "25": [{"lat": "41.405", "city": "Banja", "lon": "22.2488889"}, {"lat": "41.3438889", "city": "Barovo", "lon": "22.1405556"}, {"lat": "41.3847222", "city": "Besvica", "lon": "22.1827778"}, {"lat": "41.4469444", "city": "Bistrenci", "lon": "22.2005556"}, {"lat": "41.4469444", "city": "Bistrenica", "lon": "22.2005556"}, {"lat": "41.3869444", "city": "Budur", "lon": "22.2247222"}, {"lat": "41.3869444", "city": "Budur Ciflik", "lon": "22.2247222"}, {"lat": "41.4244444", "city": "Celevec", "lon": "22.2786111"}, {"lat": "41.3869444", "city": "Ciflik", "lon": "22.2247222"}, {"lat": "41.405", "city": "Demir Kapija", "lon": "22.2488889"}, {"lat": "41.4022222", "city": "Dolni Ciflik", "lon": "22.2413889"}, {"lat": "41.3497222", "city": "Dracevica", "lon": "22.1961111"}, {"lat": "41.3666667", "city": "Dren", "lon": "22.25"}, {"lat": "41.3497222", "city": "Gorna Dracevica", "lon": "22.1961111"}, {"lat": "41.3497222", "city": "Gornja Drcevica", "lon": "22.1961111"}, {"lat": "41.4480556", "city": "Iberli", "lon": "22.2886111"}, {"lat": "41.4480556", "city": "Iberlija", "lon": "22.2886111"}, {"lat": "41.3825", "city": "Klisura", "lon": "22.2875"}, {"lat": "41.3383333", "city": "Koprisnica", "lon": "22.2536111"}, {"lat": "41.4347222", "city": "Koresnica", "lon": "22.2372222"}, {"lat": "41.4336111", "city": "Kosarka", "lon": "22.3172222"}, {"lat": "41.4780556", "city": "(( Lipa ))", "lon": "22.2466667"}, {"lat": "41.42", "city": "Przdevo", "lon": "22.1661111"}, {"lat": "41.4136111", "city": "Stopanstvo", "lon": "22.2352778"}, {"lat": "41.3255556", "city": "Strmasevo", "lon": "22.17"}, {"lat": "41.3863889", "city": "Vesje", "lon": "22.1369444"}], "26": [{"lat": "41.2588889", "city": "Alince", "lon": "21.4811111"}, {"lat": "41.2588889", "city": "Alinci", "lon": "21.4811111"}, {"lat": "41.2588889", "city": "Aljince", "lon": "21.4811111"}, {"lat": "41.2975", "city": "Berovce", "lon": "21.4963889"}, {"lat": "41.2975", "city": "Berovci", "lon": "21.4963889"}, {"lat": "41.2280556", "city": "Bonce", "lon": "21.5969444"}, {"lat": "41.2894444", "city": "Borotino", "lon": "21.4011111"}, {"lat": "41.1686111", "city": "Dobrusevo", "lon": "21.4825"}, {"lat": "41.2127778", "city": "Erekovci", "lon": "21.4830556"}, {"lat": "41.305", "city": "Galicani", "lon": "21.4783333"}, {"lat": "41.3066667", "city": "Kadino Selo", "lon": "21.4597222"}, {"lat": "41.2102778", "city": "Kanatlarci", "lon": "21.5033333"}, {"lat": "41.2619444", "city": "Malo Ruvci", "lon": "21.5161111"}, {"lat": "41.2288889", "city": "Marul", "lon": "21.5480556"}, {"lat": "41.3188889", "city": "Mirce Acev", "lon": "21.4233333"}, {"lat": "41.1827778", "city": "Nospal", "lon": "21.4513889"}, {"lat": "41.2619444", "city": "Ruvci", "lon": "21.5161111"}, {"lat": "41.2405556", "city": "Seleverci", "lon": "21.4819444"}, {"lat": "41.2594444", "city": "Stavica", "lon": "21.5677778"}, {"lat": "41.2594444", "city": "Stavici", "lon": "21.5677778"}, {"lat": "41.2722222", "city": "Veselcane", "lon": "21.4416667"}, {"lat": "41.2722222", "city": "Veselcani", "lon": "21.4416667"}, {"lat": "41.2636111", "city": "Zagorane", "lon": "21.4344444"}, {"lat": "41.2636111", "city": "Zagorani", "lon": "21.4344444"}], "27": [{"lat": "41.7755556", "city": "Beloviste", "lon": "20.9355556"}, {"lat": "41.7861111", "city": "Dolna Banjica", "lon": "20.9061111"}, {"lat": "41.78", "city": "Gorna Banjica", "lon": "20.8925"}, {"lat": "41.7463889", "city": "Lakavica", "lon": "20.9236111"}, {"lat": "41.7755556", "city": "Velike-Turcane", "lon": "20.9355556"}], "20": [{"lat": "42.1080556", "city": "Banajni", "lon": "21.3880556"}, {"lat": "42.1080556", "city": "Banjane", "lon": "21.3880556"}, {"lat": "42.1408333", "city": "Bardovska Maala", "lon": "21.3072222"}, {"lat": "42.1408333", "city": "Bardovska Mala", "lon": "21.3072222"}, {"lat": "42.1522222", "city": "Blace", "lon": "21.3327778"}, {"lat": "42.1325", "city": "Bllac\u00eb e Posht\u00ebme", "lon": "21.3213889"}, {"lat": "42.1522222", "city": "Bllac\u00eb e Sip\u00ebrme", "lon": "21.3327778"}, {"lat": "42.0808333", "city": "Brazda", "lon": "21.3986111"}, {"lat": "42.1411111", "city": "Brodac", "lon": "21.4402778"}, {"lat": "42.1411111", "city": "Brodec", "lon": "21.4402778"}, {"lat": "42.0830556", "city": "Caska", "lon": "21.2775"}, {"lat": "42.1297222", "city": "Celanska Maala", "lon": "21.3225"}, {"lat": "42.1297222", "city": "Celanska Mala", "lon": "21.3225"}, {"lat": "42.1036111", "city": "Cucer", "lon": "21.3822222"}, {"lat": "42.1036111", "city": "Cucer-Sandevo", "lon": "21.3822222"}, {"lat": "42.1325", "city": "Donje Blace", "lon": "21.3213889"}, {"lat": "42.1472222", "city": "Fera Maala", "lon": "21.3394444"}, {"lat": "42.1472222", "city": "Fera Mala", "lon": "21.3394444"}, {"lat": "42.0861111", "city": "Gluvo", "lon": "21.3980556"}, {"lat": "42.1102778", "city": "Gorjani", "lon": "21.3794444"}, {"lat": "42.1102778", "city": "Gornjane", "lon": "21.3794444"}, {"lat": "42.1522222", "city": "Gornje Blace", "lon": "21.3327778"}, {"lat": "42.0883333", "city": "Gracane", "lon": "21.2930556"}, {"lat": "42.0883333", "city": "Gracani", "lon": "21.2930556"}, {"lat": "42.2338889", "city": "Hajdar", "lon": "21.4091667"}, {"lat": "42.2172222", "city": "Kljucka Maala", "lon": "21.3630556"}, {"lat": "42.1097222", "city": "Ku\u00e7evisht\u00eb", "lon": "21.4180556"}, {"lat": "42.1097222", "city": "Kucevista", "lon": "21.4180556"}, {"lat": "42.1097222", "city": "Kuceviste", "lon": "21.4180556"}, {"lat": "42.1086111", "city": "Ljubance", "lon": "21.4547222"}, {"lat": "42.1086111", "city": "Ljubanci", "lon": "21.4547222"}, {"lat": "42.0975", "city": "Ljuboten", "lon": "21.4716667"}, {"lat": "42.1305556", "city": "Ljucovska Maala", "lon": "21.3327778"}, {"lat": "42.1305556", "city": "Ljucovska Mala", "lon": "21.3327778"}, {"lat": "42.0975", "city": "Luboten", "lon": "21.4716667"}, {"lat": "42.1280556", "city": "Lusanjanska Mala", "lon": "21.3347222"}, {"lat": "42.2291667", "city": "Memisalar", "lon": "21.3869444"}, {"lat": "42.0944444", "city": "Mirkovce", "lon": "21.4063889"}, {"lat": "42.0944444", "city": "Mirkovci", "lon": "21.4063889"}, {"lat": "42.1252778", "city": "Mucovska Mala", "lon": "21.3297222"}, {"lat": "42.0672222", "city": "Nikistane", "lon": "21.335"}, {"lat": "42.2302778", "city": "Odalar", "lon": "21.3975"}, {"lat": "42.0669444", "city": "Orman", "lon": "21.3561111"}, {"lat": "42.1147222", "city": "Pobozje", "lon": "21.4266667"}, {"lat": "42.1147222", "city": "Pobuzje", "lon": "21.4266667"}, {"lat": "42.2222222", "city": "Stanisevce", "lon": "21.3797222"}, {"lat": "42.2222222", "city": "Tanufhevci", "lon": "21.3797222"}, {"lat": "42.2222222", "city": "Tanusevac", "lon": "21.3797222"}, {"lat": "42.2222222", "city": "Tanusevci", "lon": "21.3797222"}, {"lat": "42.1322222", "city": "Tocovska Maala", "lon": "21.3186111"}, {"lat": "42.1413889", "city": "Tuseva Maala", "lon": "21.3377778"}, {"lat": "42.1413889", "city": "Tuseva Mala", "lon": "21.3377778"}], "21": [{"lat": "41.5516667", "city": "Ame", "lon": "20.5266667"}, {"lat": "41.4813889", "city": "Bajramovci", "lon": "20.5711111"}, {"lat": "41.485", "city": "Balanci", "lon": "20.5502778"}, {"lat": "41.485", "city": "Balanci Palez", "lon": "20.5502778"}, {"lat": "41.5594444", "city": "Banista", "lon": "20.5294444"}, {"lat": "41.5594444", "city": "Baniste", "lon": "20.5294444"}, {"lat": "41.5594444", "city": "Banjiste", "lon": "20.5294444"}, {"lat": "41.505", "city": "Banova", "lon": "20.4802778"}, {"lat": "41.525", "city": "Bebar", "lon": "20.5275"}, {"lat": "41.505", "city": "Bomova", "lon": "20.4802778"}, {"lat": "41.505", "city": "Bomovo", "lon": "20.4802778"}, {"lat": "41.4919444", "city": "Brashtica", "lon": "20.5847222"}, {"lat": "41.4544444", "city": "Breshtani", "lon": "20.5861111"}, {"lat": "41.4544444", "city": "Brestani", "lon": "20.5861111"}, {"lat": "41.4919444", "city": "Brostica", "lon": "20.5847222"}, {"lat": "41.4844444", "city": "Crnoboci", "lon": "20.5675"}, {"lat": "41.525", "city": "Debar", "lon": "20.5275"}, {"lat": "41.525", "city": "Dibra", "lon": "20.5275"}, {"lat": "41.525", "city": "Dibre-i-Bala", "lon": "20.5275"}, {"lat": "41.5405556", "city": "Dolno Kosovrasti", "lon": "20.5852778"}, {"lat": "41.5158333", "city": "Dolno Melinicani", "lon": "20.5736111"}, {"lat": "41.5158333", "city": "Dolno Melnicani", "lon": "20.5736111"}, {"lat": "41.4427778", "city": "Dzepista", "lon": "20.5327778"}, {"lat": "41.4427778", "city": "Dzepiste", "lon": "20.5327778"}, {"lat": "41.5008333", "city": "Gaire", "lon": "20.6827778"}, {"lat": "41.5008333", "city": "Gare", "lon": "20.6827778"}, {"lat": "41.5008333", "city": "Gari", "lon": "20.6827778"}, {"lat": "41.4766667", "city": "Golem Papradink", "lon": "20.5444444"}, {"lat": "41.4766667", "city": "Golem Papradnik", "lon": "20.5444444"}, {"lat": "41.4766667", "city": "Golem Papranik", "lon": "20.5444444"}, {"lat": "41.5005556", "city": "Gorenci", "lon": "20.5575"}, {"lat": "41.5005556", "city": "Gorn\u00e7i", "lon": "20.5575"}, {"lat": "41.5480556", "city": "Gorno Kosovrasti", "lon": "20.5758333"}, {"lat": "41.5188889", "city": "Gorno Melnicane", "lon": "20.5880556"}, {"lat": "41.5188889", "city": "Gorno Melnicani", "lon": "20.5880556"}, {"lat": "41.5516667", "city": "Hame", "lon": "20.5266667"}, {"lat": "41.4813889", "city": "Jankovci", "lon": "20.5711111"}, {"lat": "41.5161111", "city": "Kestenjar", "lon": "20.4591667"}, {"lat": "41.5161111", "city": "Kesterjar", "lon": "20.4591667"}, {"lat": "41.5161111", "city": "Kjestenja", "lon": "20.4591667"}, {"lat": "41.4627778", "city": "Ko\u00e7ishta", "lon": "20.5913889"}, {"lat": "41.4627778", "city": "Kocista", "lon": "20.5913889"}, {"lat": "41.4452778", "city": "Kodzadzik", "lon": "20.6019444"}, {"lat": "41.4452778", "city": "Kodzaki", "lon": "20.6019444"}, {"lat": "41.5230556", "city": "Kojnara", "lon": "20.4811111"}, {"lat": "41.5230556", "city": "Kojnari", "lon": "20.4811111"}, {"lat": "41.5230556", "city": "Konjare", "lon": "20.4811111"}, {"lat": "41.5230556", "city": "Konjari", "lon": "20.4811111"}, {"lat": "41.5405556", "city": "Kosovrashti i Posht\u00ebm", "lon": "20.5852778"}, {"lat": "41.5480556", "city": "Kosovrashti i Sip\u00ebrme", "lon": "20.5758333"}, {"lat": "41.5438889", "city": "Krivci", "lon": "20.5247222"}, {"lat": "41.5361111", "city": "Lazaropole", "lon": "20.6938889"}, {"lat": "41.5361111", "city": "Lazaropolje", "lon": "20.6938889"}, {"lat": "41.4716667", "city": "Mali Papradnik", "lon": "20.5466667"}, {"lat": "41.4716667", "city": "Mali Papranik", "lon": "20.5466667"}, {"lat": "41.4708333", "city": "Mali-Preovci", "lon": "20.5711111"}, {"lat": "41.4716667", "city": "Mal Papradnik", "lon": "20.5466667"}, {"lat": "41.4766667", "city": "Mal-Papradnik", "lon": "20.5444444"}, {"lat": "41.5583333", "city": "Mitrovic", "lon": "20.4966667"}, {"lat": "41.5158333", "city": "Mjelnjicanje e Posht\u00ebme", "lon": "20.5736111"}, {"lat": "41.5188889", "city": "Mjelnjicanje e Sip\u00ebrme", "lon": "20.5880556"}, {"lat": "41.5305556", "city": "Mogorce", "lon": "20.6233333"}, {"lat": "41.4869444", "city": "Odzovci", "lon": "20.5627778"}, {"lat": "41.5294444", "city": "Osoj", "lon": "20.6444444"}, {"lat": "41.4555556", "city": "Osolnica", "lon": "20.5608333"}, {"lat": "41.4555556", "city": "Osolnice", "lon": "20.5608333"}, {"lat": "41.4555556", "city": "Osotmica", "lon": "20.5608333"}, {"lat": "41.4441667", "city": "Otisane", "lon": "20.5169444"}, {"lat": "41.4441667", "city": "Otisani", "lon": "20.5169444"}, {"lat": "41.4441667", "city": "Otishani", "lon": "20.5169444"}, {"lat": "41.4766667", "city": "Papranik", "lon": "20.5444444"}, {"lat": "41.4955556", "city": "Parazh", "lon": "20.5616667"}, {"lat": "41.4955556", "city": "Paresi", "lon": "20.5616667"}, {"lat": "41.485", "city": "Parez", "lon": "20.5502778"}, {"lat": "41.4577778", "city": "Pralenik", "lon": "20.5486111"}, {"lat": "41.4577778", "city": "Provalenik", "lon": "20.5486111"}, {"lat": "41.5141667", "city": "Radoviki", "lon": "20.5491667"}, {"lat": "41.5141667", "city": "Rajcica", "lon": "20.5491667"}, {"lat": "41.5158333", "city": "Rajicki", "lon": "20.5383333"}, {"lat": "41.5141667", "city": "Redovci", "lon": "20.5491667"}, {"lat": "41.5008333", "city": "Sajre", "lon": "20.6827778"}, {"lat": "41.5355556", "city": "Selokuce", "lon": "20.4872222"}, {"lat": "41.5355556", "city": "Selokuci", "lon": "20.4872222"}, {"lat": "41.5355556", "city": "Selokuki", "lon": "20.4872222"}, {"lat": "41.5388889", "city": "Soloki\u00e7i i Posht\u00ebm", "lon": "20.4788889"}, {"lat": "41.5425", "city": "Soloki\u00e7i i Sip\u00ebrm", "lon": "20.4883333"}, {"lat": "41.55", "city": "Spasi", "lon": "20.4819444"}, {"lat": "41.55", "city": "Spas", "lon": "20.4819444"}, {"lat": "41.5425", "city": "Sulan", "lon": "20.4883333"}, {"lat": "41.5147222", "city": "Sushica", "lon": "20.4908333"}, {"lat": "41.5147222", "city": "Susica", "lon": "20.4908333"}, {"lat": "41.5388889", "city": "Taranes", "lon": "20.4788889"}, {"lat": "41.5019444", "city": "Taranik", "lon": "20.4905556"}, {"lat": "41.5286111", "city": "Tatar Elevci", "lon": "20.5472222"}, {"lat": "41.5019444", "city": "T\u00ebrnanik", "lon": "20.4905556"}, {"lat": "41.5019444", "city": "Trnanic", "lon": "20.4905556"}, {"lat": "41.5019444", "city": "Trnanik", "lon": "20.4905556"}, {"lat": "41.4680556", "city": "Vapa", "lon": "20.5588889"}, {"lat": "41.4680556", "city": "Vapi", "lon": "20.5588889"}, {"lat": "41.4766667", "city": "Veliki-Papranik", "lon": "20.5444444"}, {"lat": "41.4716667", "city": "Vel Papradnik", "lon": "20.5466667"}, {"lat": "41.4769444", "city": "Vlasici", "lon": "20.525"}, {"lat": "41.4769444", "city": "Vlasiki", "lon": "20.525"}, {"lat": "41.4427778", "city": "Xhepishta", "lon": "20.5327778"}, {"lat": "41.4708333", "city": "Zhitinjani", "lon": "20.5711111"}, {"lat": "41.4708333", "city": "Zitinani", "lon": "20.5711111"}, {"lat": "41.4708333", "city": "Zitineni", "lon": "20.5711111"}, {"lat": "41.4708333", "city": "Zitinjani", "lon": "20.5711111"}], "22": [{"lat": "41.9608333", "city": "Bigla", "lon": "22.6775"}, {"lat": "41.9694444", "city": "Bojcoska Maala", "lon": "22.6711111"}, {"lat": "41.9333333", "city": "Caje", "lon": "22.85"}, {"lat": "41.9672222", "city": "Carevo Selo", "lon": "22.7694444"}, {"lat": "41.9444444", "city": "Ciflik", "lon": "22.78"}, {"lat": "41.9672222", "city": "Delcevo", "lon": "22.7694444"}, {"lat": "42.0097222", "city": "Dramca", "lon": "22.7166667"}, {"lat": "42.0097222", "city": "Dramce", "lon": "22.7166667"}, {"lat": "41.8616667", "city": "Dzadovci", "lon": "22.79"}, {"lat": "41.9666667", "city": "Dzvegor", "lon": "22.8083333"}, {"lat": "41.9888889", "city": "Gabrovo", "lon": "22.7980556"}, {"lat": "41.9333333", "city": "Grad", "lon": "22.85"}, {"lat": "41.8725", "city": "Istevnik", "lon": "22.8561111"}, {"lat": "42.0166667", "city": "Kiselica", "lon": "22.7666667"}, {"lat": "41.9977778", "city": "Mitrovska Mahala", "lon": "22.7269444"}, {"lat": "41.8447222", "city": "Razlovci", "lon": "22.7686111"}, {"lat": "42.05", "city": "Selnik", "lon": "22.7333333"}, {"lat": "41.95", "city": "Stamer", "lon": "22.8166667"}, {"lat": "41.8725", "city": "Star Istevnik", "lon": "22.8561111"}, {"lat": "41.9694444", "city": "Stefanska", "lon": "22.6711111"}, {"lat": "41.8875", "city": "Trabotiviste", "lon": "22.8166667"}, {"lat": "41.8875", "city": "Trabotoviste", "lon": "22.8166667"}, {"lat": "41.8875", "city": "Trebotiviste", "lon": "22.8166667"}, {"lat": "41.9413889", "city": "Valozanci", "lon": "22.7258333"}, {"lat": "42.0333333", "city": "Vetren", "lon": "22.7666667"}, {"lat": "41.9083333", "city": "Virce", "lon": "22.8497222"}, {"lat": "42.005", "city": "Vutren", "lon": "22.7525"}, {"lat": "41.9666667", "city": "Zvegor", "lon": "22.8083333"}], "23": [{"lat": "41.23", "city": "Bidzevo", "lon": "20.6983333"}, {"lat": "41.23", "city": "Bidzovo", "lon": "20.6983333"}, {"lat": "41.2977778", "city": "Brcevo", "lon": "20.6730556"}, {"lat": "41.2572222", "city": "Delagozde", "lon": "20.7236111"}, {"lat": "41.2572222", "city": "Delogozda", "lon": "20.7236111"}, {"lat": "41.2572222", "city": "Delogozdi", "lon": "20.7236111"}, {"lat": "41.2586111", "city": "Dolno Tatesi", "lon": "20.6891667"}, {"lat": "41.2477778", "city": "Dzebin", "lon": "20.7380556"}, {"lat": "41.2477778", "city": "Dzepin", "lon": "20.7380556"}, {"lat": "41.2602778", "city": "Gorno Tates", "lon": "20.6772222"}, {"lat": "41.2602778", "city": "Gorno Tatesi", "lon": "20.6772222"}, {"lat": "41.2316667", "city": "Livada", "lon": "20.7244444"}, {"lat": "41.3", "city": "Mislodezda", "lon": "20.6933333"}, {"lat": "41.3", "city": "Mislodezde", "lon": "20.6933333"}, {"lat": "41.2380556", "city": "Novo Selo", "lon": "20.6972222"}, {"lat": "41.2816667", "city": "Pohum", "lon": "20.7113889"}, {"lat": "41.2816667", "city": "Poum", "lon": "20.7113889"}, {"lat": "41.2780556", "city": "Toska", "lon": "20.6752778"}], "28": [{"lat": "41.4108333", "city": "Belo Pole", "lon": "21.3961111"}, {"lat": "41.4108333", "city": "Belo Polje", "lon": "21.3961111"}, {"lat": "41.4766667", "city": "Brailovo", "lon": "21.4613889"}, {"lat": "41.4766667", "city": "Brajilovo", "lon": "21.4613889"}, {"lat": "41.4627778", "city": "Desovo", "lon": "21.4911111"}, {"lat": "41.4713889", "city": "Dolna Maala", "lon": "21.4569444"}, {"lat": "41.4713889", "city": "Dolna Mala", "lon": "21.4569444"}, {"lat": "41.4252778", "city": "Dolneni", "lon": "21.4547222"}, {"lat": "41.4252778", "city": "Dolnjane", "lon": "21.4547222"}, {"lat": "41.4252778", "city": "Dolnjani", "lon": "21.4547222"}, {"lat": "41.4683333", "city": "Drenoec", "lon": "21.5447222"}, {"lat": "41.4683333", "city": "Drenovci", "lon": "21.5447222"}, {"lat": "41.4683333", "city": "Drenovec", "lon": "21.5447222"}, {"lat": "41.4408333", "city": "Dupjacani", "lon": "21.5219444"}, {"lat": "41.3430556", "city": "Golemo Kojnari", "lon": "21.4402778"}, {"lat": "41.3430556", "city": "Golemo Konjari", "lon": "21.4402778"}, {"lat": "41.4208333", "city": "Gorno Selo", "lon": "21.5338889"}, {"lat": "41.5016667", "city": "Kostinci", "lon": "21.4069444"}, {"lat": "41.4077778", "city": "Kutlesevo", "lon": "21.4138889"}, {"lat": "41.4138889", "city": "Malo Mramorani", "lon": "21.4875"}, {"lat": "41.385", "city": "Mazuciste", "lon": "21.4986111"}, {"lat": "41.385", "city": "Mazujciste", "lon": "21.4986111"}, {"lat": "41.4488889", "city": "Nebregovo", "lon": "21.5588889"}, {"lat": "41.4036111", "city": "Novoselani", "lon": "21.4333333"}, {"lat": "41.4036111", "city": "Novoselnani", "lon": "21.4333333"}, {"lat": "41.4036111", "city": "Novosljani", "lon": "21.4333333"}, {"lat": "41.4619444", "city": "Pestalevo", "lon": "21.3966667"}, {"lat": "41.4619444", "city": "Pestaljevo", "lon": "21.3966667"}, {"lat": "41.4358333", "city": "Sarandinovo", "lon": "21.4122222"}, {"lat": "41.4788889", "city": "Sekirci", "lon": "21.4125"}, {"lat": "41.4136111", "city": "Senokos", "lon": "21.4697222"}, {"lat": "41.5008333", "city": "Slepce", "lon": "21.4516667"}, {"lat": "41.4944444", "city": "Slivje", "lon": "21.3833333"}, {"lat": "41.4530556", "city": "Zabjani", "lon": "21.3808333"}, {"lat": "41.4291667", "city": "Zabrcani", "lon": "21.4980556"}, {"lat": "41.3794444", "city": "Zapolzani", "lon": "21.4122222"}], "59": [{"lat": "42.1861111", "city": "Alasevce", "lon": "21.5902778"}, {"lat": "42.1986111", "city": "Alimedska Maala", "lon": "21.5161111"}, {"lat": "42.1986111", "city": "Alimedska Mahala", "lon": "21.5161111"}, {"lat": "42.2022222", "city": "Azirlar", "lon": "21.4894444"}, {"lat": "42.2327778", "city": "Belanovce", "lon": "21.5627778"}, {"lat": "42.2327778", "city": "Bolonovcje", "lon": "21.5627778"}, {"lat": "42.2166667", "city": "Brest", "lon": "21.4777778"}, {"lat": "42.1125", "city": "Bukurica", "lon": "21.595"}, {"lat": "42.1872222", "city": "Busalar", "lon": "21.4663889"}, {"lat": "42.24", "city": "Drviska Maala", "lon": "21.5655556"}, {"lat": "42.24", "city": "Drviska Mahala", "lon": "21.5655556"}, {"lat": "42.2122222", "city": "Dumanovce", "lon": "21.5427778"}, {"lat": "42.2122222", "city": "Dumanovci", "lon": "21.5427778"}, {"lat": "42.2166667", "city": "Durska Maala", "lon": "21.5155556"}, {"lat": "42.2166667", "city": "Durska Mahala", "lon": "21.5155556"}, {"lat": "42.1838889", "city": "Glaznja", "lon": "21.5425"}, {"lat": "42.2261111", "city": "Gosince", "lon": "21.5058333"}, {"lat": "42.2038889", "city": "Izvor", "lon": "21.5783333"}, {"lat": "42.2283333", "city": "Jasarska Maala", "lon": "21.5675"}, {"lat": "42.2283333", "city": "Jasarska Mahala", "lon": "21.5675"}, {"lat": "42.1822222", "city": "Kaorivetm Maala", "lon": "21.5119444"}, {"lat": "42.1822222", "city": "Kaorivetm Mahala", "lon": "21.5119444"}, {"lat": "42.1563889", "city": "Lipkov\u00eb", "lon": "21.5852778"}, {"lat": "42.1563889", "city": "Lipkovo", "lon": "21.5852778"}, {"lat": "42.2333333", "city": "Llojan", "lon": "21.665"}, {"lat": "42.2333333", "city": "Lojane", "lon": "21.665"}, {"lat": "42.2325", "city": "Lukar Maalo", "lon": "21.5016667"}, {"lat": "42.2325", "city": "Lukar Mahala", "lon": "21.5016667"}, {"lat": "42.2216667", "city": "Malina Maala", "lon": "21.4744444"}, {"lat": "42.2216667", "city": "Malina Mala", "lon": "21.4744444"}, {"lat": "42.2216667", "city": "Malina", "lon": "21.4744444"}, {"lat": "42.2122222", "city": "Maljok Maalo", "lon": "21.5197222"}, {"lat": "42.2122222", "city": "Maljok Mahala", "lon": "21.5197222"}, {"lat": "42.1875", "city": "Maslan", "lon": "21.4875"}, {"lat": "42.1255556", "city": "Matejca", "lon": "21.5977778"}, {"lat": "42.1255556", "city": "Matejce", "lon": "21.5977778"}, {"lat": "42.1255556", "city": "Mete\u00e7j\u00eb", "lon": "21.5977778"}, {"lat": "42.2233333", "city": "Mulija", "lon": "21.4636111"}, {"lat": "42.2022222", "city": "Mulijska Maala", "lon": "21.5058333"}, {"lat": "42.2022222", "city": "Mulijska Mahala", "lon": "21.5058333"}, {"lat": "42.2216667", "city": "Muriz", "lon": "21.4797222"}, {"lat": "42.0958333", "city": "Novo Selo", "lon": "21.6330556"}, {"lat": "42.1438889", "city": "Od\u00eb", "lon": "21.5877778"}, {"lat": "42.1925", "city": "Odzalar", "lon": "21.4786111"}, {"lat": "42.1611111", "city": "Orizare", "lon": "21.6183333"}, {"lat": "42.1611111", "city": "Orizari", "lon": "21.6183333"}, {"lat": "42.1611111", "city": "Orizar", "lon": "21.6183333"}, {"lat": "42.1438889", "city": "Otlja", "lon": "21.5877778"}, {"lat": "42.2072222", "city": "Pilska Maala", "lon": "21.5997222"}, {"lat": "42.2072222", "city": "Pilska Mahala", "lon": "21.5997222"}, {"lat": "42.1838889", "city": "Presnica Mahala", "lon": "21.5425"}, {"lat": "42.1838889", "city": "Presnica", "lon": "21.5425"}, {"lat": "42.2336111", "city": "Rekanska Maala", "lon": "21.5144444"}, {"lat": "42.2336111", "city": "Rekanska Mahala", "lon": "21.5144444"}, {"lat": "42.1725", "city": "Rnkovce", "lon": "21.5472222"}, {"lat": "42.1097222", "city": "Ropalce", "lon": "21.62"}, {"lat": "42.1097222", "city": "Ropaljce", "lon": "21.62"}, {"lat": "42.1733333", "city": "Sllup\u00e7anje", "lon": "21.6277778"}, {"lat": "42.1733333", "city": "Slupcane", "lon": "21.6277778"}, {"lat": "42.2497222", "city": "Straza", "lon": "21.6047222"}, {"lat": "42.1563889", "city": "Strima", "lon": "21.5252778"}, {"lat": "42.1727778", "city": "Ten\u00c4\u0091are", "lon": "21.4855556"}, {"lat": "42.1727778", "city": "Tendzare", "lon": "21.4855556"}, {"lat": "42.1894444", "city": "Tendzer Maalo", "lon": "21.4975"}, {"lat": "42.1894444", "city": "Tendzer Mahala", "lon": "21.4975"}, {"lat": "42.0866667", "city": "Umin Dol", "lon": "21.6252778"}, {"lat": "42.0866667", "city": "Umin Do", "lon": "21.6252778"}, {"lat": "42.2061111", "city": "Vaksince", "lon": "21.6630556"}, {"lat": "42.2061111", "city": "Vaksinc", "lon": "21.6630556"}, {"lat": "42.0997222", "city": "Vistica", "lon": "21.5930556"}], "58": [{"lat": "41.2894444", "city": "Boroec", "lon": "20.5961111"}, {"lat": "41.2894444", "city": "Borovec", "lon": "20.5961111"}, {"lat": "41.2686111", "city": "Labunista", "lon": "20.5961111"}, {"lat": "41.2686111", "city": "Labuniste", "lon": "20.5961111"}, {"lat": "41.2591667", "city": "Podgorac", "lon": "20.5958333"}, {"lat": "41.2591667", "city": "Podgorci", "lon": "20.5958333"}], "55": [{"lat": "41.4052778", "city": "Kuklis", "lon": "22.6652778"}, {"lat": "41.3905556", "city": "Svidovica", "lon": "22.6980556"}], "54": [{"lat": "41.3963889", "city": "Arilevo", "lon": "21.1983333"}, {"lat": "41.3963889", "city": "Ariljevo", "lon": "21.1983333"}, {"lat": "41.3891667", "city": "Dolno Divjaci", "lon": "21.1847222"}, {"lat": "41.4155556", "city": "Gorno Divjaci", "lon": "21.1730556"}, {"lat": "41.3444444", "city": "Kocista", "lon": "21.1725"}, {"lat": "41.3444444", "city": "Kociste", "lon": "21.1725"}, {"lat": "41.3688889", "city": "Krusevo", "lon": "21.2488889"}, {"lat": "41.3688889", "city": "Krusovo", "lon": "21.2488889"}, {"lat": "41.4", "city": "Norovo", "lon": "21.275"}, {"lat": "41.3344444", "city": "Ostrilci", "lon": "21.2372222"}, {"lat": "41.3344444", "city": "Ostriljci", "lon": "21.2372222"}, {"lat": "41.3722222", "city": "Zasle", "lon": "21.1436111"}, {"lat": "41.3722222", "city": "Zaslje", "lon": "21.1436111"}], "57": [{"lat": "42.1416667", "city": "Bedinje", "lon": "21.6963889"}, {"lat": "42.1088889", "city": "Biljanovce", "lon": "21.7327778"}, {"lat": "42.0655556", "city": "Brzak", "lon": "21.6758333"}, {"lat": "42.1238889", "city": "Cerkesko Selo", "lon": "21.6830556"}, {"lat": "42.1238889", "city": "Cerkezi", "lon": "21.6830556"}, {"lat": "42.1238889", "city": "\u00c7erkresho-Sello", "lon": "21.6830556"}, {"lat": "42.1816667", "city": "Gorno Konjare", "lon": "21.7275"}, {"lat": "42.1322222", "city": "Kumanov\u00eb", "lon": "21.7144444"}, {"lat": "42.1322222", "city": "Kumanovo", "lon": "21.7144444"}, {"lat": "42.1180556", "city": "Ljubodrag", "lon": "21.6611111"}, {"lat": "42.1486111", "city": "Lopate", "lon": "21.6641667"}, {"lat": "42.1486111", "city": "Lopatje", "lon": "21.6641667"}, {"lat": "42.1180556", "city": "Lubodrag", "lon": "21.6611111"}, {"lat": "42.1597222", "city": "Opae", "lon": "21.6563889"}, {"lat": "42.1597222", "city": "Opaje", "lon": "21.6563889"}, {"lat": "42.1241667", "city": "Proevce", "lon": "21.7422222"}, {"lat": "42.1241667", "city": "Projevce", "lon": "21.7422222"}, {"lat": "42.0947222", "city": "Rahmanli", "lon": "21.6930556"}, {"lat": "42.0947222", "city": "Ramanovce", "lon": "21.6930556"}, {"lat": "42.1744444", "city": "Recica", "lon": "21.6947222"}, {"lat": "42.1577778", "city": "Rezanovce", "lon": "21.6752778"}, {"lat": "42.0947222", "city": "Romanovac", "lon": "21.6930556"}, {"lat": "42.0947222", "city": "Romanovce", "lon": "21.6930556"}, {"lat": "42.0947222", "city": "Romanovci", "lon": "21.6930556"}, {"lat": "42.0947222", "city": "Romanovc", "lon": "21.6930556"}, {"lat": "42.1341667", "city": "Trome\u00c4\u0091a", "lon": "21.765"}, {"lat": "42.1341667", "city": "Tromega", "lon": "21.765"}, {"lat": "42.1341667", "city": "Tromegja", "lon": "21.765"}, {"lat": "42.1341667", "city": "Tromezhj\u00eb", "lon": "21.765"}], "56": [{"lat": "41.1030556", "city": "Crni Vrv", "lon": "21.2447222"}, {"lat": "41.1241667", "city": "Crnobok", "lon": "21.3230556"}, {"lat": "41.1241667", "city": "Crnobuki", "lon": "21.3230556"}, {"lat": "41.1030556", "city": "Crn Vrv", "lon": "21.2447222"}, {"lat": "41.0972222", "city": "Dragarine", "lon": "21.3091667"}, {"lat": "41.0972222", "city": "Dragarino", "lon": "21.3091667"}, {"lat": "41.1108333", "city": "Dragozani", "lon": "21.2927778"}, {"lat": "41.1341667", "city": "Gabalavci", "lon": "21.2408333"}, {"lat": "41.1341667", "city": "Gabolavci", "lon": "21.2408333"}, {"lat": "41.0738889", "city": "Krklino", "lon": "21.3288889"}, {"lat": "41.0738889", "city": "Krklinovo", "lon": "21.3288889"}, {"lat": "41.0955556", "city": "Kukurecani", "lon": "21.3255556"}, {"lat": "41.1486111", "city": "Lisolaj", "lon": "21.3022222"}, {"lat": "41.1213889", "city": "Novo Zmirnevo", "lon": "21.3138889"}, {"lat": "41.1225", "city": "Sekirani", "lon": "21.2652778"}, {"lat": "41.1213889", "city": "Smirnovo", "lon": "21.3138889"}, {"lat": "41.0966667", "city": "Staro Zmirnevo", "lon": "21.2938889"}, {"lat": "41.0966667", "city": "Staro Zmirnovo", "lon": "21.2938889"}, {"lat": "41.1213889", "city": "Zmirnovo", "lon": "21.3138889"}, {"lat": "41.1425", "city": "Zulica", "lon": "21.2608333"}], "51": [{"lat": "42.0525", "city": "Blizanci", "lon": "22.2169444"}, {"lat": "42.0827778", "city": "Emirica", "lon": "22.3125"}, {"lat": "42.0602778", "city": "Filipovci", "lon": "22.0863889"}, {"lat": "42.0927778", "city": "Gornje Kratovo", "lon": "22.2080556"}, {"lat": "42.0927778", "city": "Gorno Kratovo", "lon": "22.2080556"}, {"lat": "42.0377778", "city": "Grizilevci", "lon": "22.1466667"}, {"lat": "42.0377778", "city": "Grizilovci", "lon": "22.1466667"}, {"lat": "42.0577778", "city": "Jamiste", "lon": "22.2866667"}, {"lat": "42.1172222", "city": "Kavrak", "lon": "22.2852778"}, {"lat": "42.0983333", "city": "Ketenovo", "lon": "22.0755556"}, {"lat": "42.0838889", "city": "Kojkovo", "lon": "22.2797222"}, {"lat": "42.0791667", "city": "Kratova", "lon": "22.1813889"}, {"lat": "42.0791667", "city": "Kratovo", "lon": "22.1813889"}, {"lat": "42.1172222", "city": "Krvacko", "lon": "22.2852778"}, {"lat": "42.0697222", "city": "Kunovo", "lon": "22.2488889"}, {"lat": "42.0477778", "city": "Lukovo", "lon": "22.2444444"}, {"lat": "42.0947222", "city": "Muskovo", "lon": "22.25"}, {"lat": "42.115", "city": "Nezilovo", "lon": "22.2333333"}, {"lat": "42.0602778", "city": "Prikovci", "lon": "22.1469444"}, {"lat": "42.0452778", "city": "Sakulica", "lon": "22.0497222"}, {"lat": "42.0452778", "city": "Sakuljika", "lon": "22.0497222"}, {"lat": "42.0452778", "city": "Sekulice", "lon": "22.0497222"}, {"lat": "42.0663889", "city": "Slegovo", "lon": "22.1616667"}, {"lat": "42.0663889", "city": "Slegovs", "lon": "22.1616667"}, {"lat": "42.0963889", "city": "Staro Muskovo", "lon": "22.2705556"}, {"lat": "42.1055556", "city": "Talasmance", "lon": "22.1241667"}, {"lat": "42.1055556", "city": "Talasmanci", "lon": "22.1241667"}, {"lat": "42.0858333", "city": "Topolovic", "lon": "22.0811111"}, {"lat": "42.0858333", "city": "Topolovik", "lon": "22.0811111"}, {"lat": "42.0822222", "city": "Turalevo", "lon": "22.1269444"}, {"lat": "42.0822222", "city": "Turaljevo", "lon": "22.1269444"}, {"lat": "42.0633333", "city": "Vakaf", "lon": "22.0438889"}, {"lat": "42.0633333", "city": "Vakav", "lon": "22.0438889"}, {"lat": "42.0119444", "city": "Vaklinci", "lon": "22.025"}, {"lat": "42.0633333", "city": "Vakuf", "lon": "22.0438889"}, {"lat": "42.0875", "city": "ValanovecMaala", "lon": "22.2316667"}, {"lat": "42.0875", "city": "Valanovec", "lon": "22.2316667"}, {"lat": "42.0838889", "city": "Zeleznica", "lon": "22.1511111"}, {"lat": "42.0911111", "city": "Zivalevo", "lon": "22.1172222"}, {"lat": "42.0911111", "city": "Zivaljevo", "lon": "22.1172222"}], "50": [{"lat": "41.1588889", "city": "Dolno Lakocerej", "lon": "20.7955556"}, {"lat": "41.1588889", "city": "Dolno Lakoceri", "lon": "20.7955556"}, {"lat": "41.1588889", "city": "Dolno Lakoceroj", "lon": "20.7955556"}, {"lat": "41.1686111", "city": "Gorno Lakocerej", "lon": "20.805"}, {"lat": "41.1686111", "city": "Gorno-Lakoceri", "lon": "20.805"}, {"lat": "41.1686111", "city": "Gorno Lakocerje", "lon": "20.805"}, {"lat": "41.1744444", "city": "Koselj", "lon": "20.8355556"}, {"lat": "41.1744444", "city": "Kosel", "lon": "20.8355556"}, {"lat": "41.1502778", "city": "Leskoec", "lon": "20.8280556"}, {"lat": "41.2016667", "city": "Lioista", "lon": "20.8130556"}, {"lat": "41.2016667", "city": "Livoista", "lon": "20.8130556"}, {"lat": "41.2016667", "city": "Livoiste", "lon": "20.8130556"}, {"lat": "41.1825", "city": "Opanci", "lon": "20.8691667"}, {"lat": "41.1825", "city": "Opeinca", "lon": "20.8691667"}, {"lat": "41.1825", "city": "Opejca", "lon": "20.8691667"}, {"lat": "41.1825", "city": "Opejica", "lon": "20.8691667"}, {"lat": "41.1825", "city": "Opejnca", "lon": "20.8691667"}, {"lat": "41.1825", "city": "Opejnica", "lon": "20.8691667"}, {"lat": "41.1825", "city": "Openica", "lon": "20.8691667"}, {"lat": "41.1825", "city": "Openjca", "lon": "20.8691667"}, {"lat": "41.2044444", "city": "Rasino", "lon": "20.8588889"}, {"lat": "41.2136111", "city": "Recica", "lon": "20.9413889"}, {"lat": "41.1527778", "city": "Skrebatino", "lon": "20.8913889"}, {"lat": "41.1527778", "city": "Skrebatno", "lon": "20.8913889"}, {"lat": "41.2030556", "city": "Svinista", "lon": "20.9427778"}, {"lat": "41.2030556", "city": "Sviniste", "lon": "20.9427778"}, {"lat": "41.2030556", "city": "Svinjiste", "lon": "20.9427778"}, {"lat": "41.1927778", "city": "Vapila", "lon": "20.8311111"}, {"lat": "41.1911111", "city": "Zavoj", "lon": "20.9080556"}], "53": [{"lat": "41.3380556", "city": "Aleksandrovo", "lon": "21.4066667"}, {"lat": "41.2808333", "city": "Bela Crkva", "lon": "21.3452778"}, {"lat": "41.3119444", "city": "Birino", "lon": "21.2697222"}, {"lat": "41.2747222", "city": "Bucin", "lon": "21.3166667"}, {"lat": "41.3561111", "city": "Korenica", "lon": "21.3252778"}, {"lat": "41.3361111", "city": "Krivogastane", "lon": "21.3330556"}, {"lat": "41.3361111", "city": "Krivogastani", "lon": "21.3330556"}, {"lat": "41.3116667", "city": "Kruseani", "lon": "21.3497222"}, {"lat": "41.3116667", "city": "Krusevljane", "lon": "21.3497222"}, {"lat": "41.3088889", "city": "Milesevo", "lon": "21.3127778"}, {"lat": "41.3088889", "city": "Milosevo", "lon": "21.3127778"}, {"lat": "41.2822222", "city": "Obrsani", "lon": "21.3627778"}, {"lat": "41.2958333", "city": "Presil", "lon": "21.3136111"}, {"lat": "41.3380556", "city": "Slavej", "lon": "21.4066667"}, {"lat": "41.3213889", "city": "Sveto Mitrani", "lon": "21.305"}, {"lat": "41.2836111", "city": "Vo\u00c4\u0091ani", "lon": "21.3394444"}, {"lat": "41.2836111", "city": "Vogjani", "lon": "21.3394444"}, {"lat": "41.3316667", "city": "Vrbjane", "lon": "21.3891667"}, {"lat": "41.3316667", "city": "Vrbjani", "lon": "21.3891667"}, {"lat": "41.3333333", "city": "Vrboec", "lon": "21.3166667"}, {"lat": "41.3333333", "city": "Vrbovac", "lon": "21.3166667"}], "52": [{"lat": "42.2813889", "city": "Alisavci", "lon": "22.2694444"}, {"lat": "42.2655556", "city": "Bajcovci", "lon": "22.2719444"}, {"lat": "42.2736111", "city": "Baratlici", "lon": "22.2888889"}, {"lat": "42.2877778", "city": "Baratlija Mahala", "lon": "22.3177778"}, {"lat": "42.2877778", "city": "Baratliska Maala", "lon": "22.3177778"}, {"lat": "42.2780556", "city": "Barska Maala", "lon": "22.2338889"}, {"lat": "42.1875", "city": "Bas", "lon": "22.3869444"}, {"lat": "42.2269444", "city": "Bastevo", "lon": "22.2416667"}, {"lat": "42.3011111", "city": "Belavinci", "lon": "22.3533333"}, {"lat": "42.2733333", "city": "Beljakovci", "lon": "22.3125"}, {"lat": "42.2733333", "city": "Beljakovci Mahala", "lon": "22.3125"}, {"lat": "42.26", "city": "Bogacinovci", "lon": "22.3238889"}, {"lat": "42.3430556", "city": "Boskovci", "lon": "22.2869444"}, {"lat": "42.2091667", "city": "Brdaci", "lon": "22.2302778"}, {"lat": "42.1769444", "city": "Cankina Maala", "lon": "22.2436111"}, {"lat": "42.1769444", "city": "Cankinci", "lon": "22.2436111"}, {"lat": "42.2658333", "city": "Cengici", "lon": "22.2866667"}, {"lat": "42.2366667", "city": "Cibaci", "lon": "22.385"}, {"lat": "42.2933333", "city": "Ciflik", "lon": "22.3363889"}, {"lat": "42.2788889", "city": "Cukarci", "lon": "22.3138889"}, {"lat": "42.2347222", "city": "Cvetanovska Maala", "lon": "22.3427778"}, {"lat": "42.1986111", "city": "Dlabocica", "lon": "22.2413889"}, {"lat": "42.2772222", "city": "Dobrovnica", "lon": "22.3238889"}, {"lat": "42.2913889", "city": "Dojcinovci", "lon": "22.3144444"}, {"lat": "42.2913889", "city": "Dojcinovci Mahala", "lon": "22.3144444"}, {"lat": "42.1986111", "city": "Dolbocica", "lon": "22.2413889"}, {"lat": "42.3213889", "city": "Dolinarci", "lon": "22.2638889"}, {"lat": "42.285", "city": "Dolna Maala", "lon": "22.3597222"}, {"lat": "42.1325", "city": "Drenak", "lon": "22.3525"}, {"lat": "42.2294444", "city": "Drenje", "lon": "22.3488889"}, {"lat": "42.1830556", "city": "Drvendziska Maala", "lon": "22.2405556"}, {"lat": "42.1986111", "city": "Dubocica", "lon": "22.2413889"}, {"lat": "42.2772222", "city": "Dubrovnica", "lon": "22.3238889"}, {"lat": "42.1838889", "city": "Duracka Reka", "lon": "22.36"}, {"lat": "42.2591667", "city": "Durcica Maala", "lon": "22.3752778"}, {"lat": "42.2688889", "city": "Dzadurci", "lon": "22.2858333"}, {"lat": "42.2538889", "city": "Gabar", "lon": "22.2625"}, {"lat": "42.2883333", "city": "Garvanica", "lon": "22.2872222"}, {"lat": "42.2516667", "city": "Glavinci Maala", "lon": "22.4072222"}, {"lat": "42.2672222", "city": "Glincarci", "lon": "22.3016667"}, {"lat": "42.3111111", "city": "Golema Crcorija", "lon": "22.3305556"}, {"lat": "42.3480556", "city": "Golemi Gar", "lon": "22.2719444"}, {"lat": "42.2661111", "city": "Golemi Vrv", "lon": "22.3541667"}, {"lat": "42.3116667", "city": "Golujska Maala", "lon": "22.3316667"}, {"lat": "42.3330556", "city": "Gove\u00c4\u0091ak", "lon": "22.2372222"}, {"lat": "42.3330556", "city": "Gove\u00c4\u0091a Maala", "lon": "22.2372222"}, {"lat": "42.3330556", "city": "Govedja Mahala", "lon": "22.2372222"}, {"lat": "42.3330556", "city": "Govegjak", "lon": "22.2372222"}, {"lat": "42.2083333", "city": "Gradac", "lon": "22.2916667"}, {"lat": "42.2083333", "city": "Gradec", "lon": "22.2916667"}, {"lat": "42.2172222", "city": "Gruinska Maala", "lon": "22.2786111"}, {"lat": "42.2133333", "city": "Jancevci", "lon": "22.4386111"}, {"lat": "42.3316667", "city": "Jankovci", "lon": "22.2705556"}, {"lat": "42.12", "city": "Kajganci", "lon": "22.33"}, {"lat": "42.12", "city": "Kajganci Maala", "lon": "22.33"}, {"lat": "42.2594444", "city": "Kaleinci", "lon": "22.2658333"}, {"lat": "42.2594444", "city": "Kalejnica Mahala", "lon": "22.2658333"}, {"lat": "42.2594444", "city": "Kalinci", "lon": "22.2658333"}, {"lat": "42.3155556", "city": "Karamancani", "lon": "22.28"}, {"lat": "42.2611111", "city": "Kiselica", "lon": "22.35"}, {"lat": "42.1166667", "city": "Knezevo", "lon": "22.3"}, {"lat": "42.3308333", "city": "Kolipska Maala", "lon": "22.2936111"}, {"lat": "42.1775", "city": "Konopnica", "lon": "22.2891667"}, {"lat": "42.2002778", "city": "Kosare", "lon": "22.3525"}, {"lat": "42.2002778", "city": "Kosari", "lon": "22.3525"}, {"lat": "42.2047222", "city": "Kostur", "lon": "22.4352778"}, {"lat": "42.2019444", "city": "Kriva Palanka", "lon": "22.3319444"}, {"lat": "42.2138889", "city": "Krklja", "lon": "22.3941667"}, {"lat": "42.3033333", "city": "Krstov Do", "lon": "22.2997222"}, {"lat": "42.3033333", "city": "Krstov Dol", "lon": "22.2997222"}, {"lat": "42.2255556", "city": "Krstovska Maala", "lon": "22.2708333"}, {"lat": "42.2436111", "city": "Kularska Maala", "lon": "22.3861111"}, {"lat": "42.2933333", "city": "Lingorovci", "lon": "22.3772222"}, {"lat": "42.2691667", "city": "Lisicka Maala", "lon": "22.3088889"}, {"lat": "42.3236111", "city": "Luke", "lon": "22.2833333"}, {"lat": "42.3236111", "city": "Luki", "lon": "22.2833333"}, {"lat": "42.1516667", "city": "Maaka Kosarica", "lon": "22.2758333"}, {"lat": "42.1630556", "city": "Maala Grazdanci", "lon": "22.2755556"}, {"lat": "42.2913889", "city": "Mala Crcorija", "lon": "22.3511111"}, {"lat": "42.2513889", "city": "Malcovska Maala", "lon": "22.2594444"}, {"lat": "42.2841667", "city": "Malecka Maala", "lon": "22.3455556"}, {"lat": "42.2713889", "city": "Maleckanci", "lon": "22.3569444"}, {"lat": "42.2436111", "city": "Malovolci", "lon": "22.2711111"}, {"lat": "42.3430556", "city": "Marinkovci", "lon": "22.2755556"}, {"lat": "42.1894444", "city": "Martinica", "lon": "22.3255556"}, {"lat": "42.3255556", "city": "Maslarci", "lon": "22.3013889"}, {"lat": "42.2013889", "city": "Maznicka Maala", "lon": "22.2844444"}, {"lat": "42.1855556", "city": "Meckovska Maala", "lon": "22.3011111"}, {"lat": "42.2816667", "city": "Metezevo", "lon": "22.2277778"}, {"lat": "42.1761111", "city": "Metovska Maala", "lon": "22.3605556"}, {"lat": "42.2313889", "city": "Milevci", "lon": "22.3016667"}, {"lat": "42.2513889", "city": "Miljkovci Mahala", "lon": "22.2594444"}, {"lat": "42.3163889", "city": "Misinci", "lon": "22.2566667"}, {"lat": "42.2313889", "city": "Mitkovska Maala", "lon": "22.26"}, {"lat": "42.2597222", "city": "Mladenovska Maala", "lon": "22.3022222"}, {"lat": "42.1577778", "city": "Mozdivjak", "lon": "22.2538889"}, {"lat": "42.1577778", "city": "Mozdivnjak", "lon": "22.2538889"}, {"lat": "42.2941667", "city": "Nikolenci", "lon": "22.225"}, {"lat": "42.25", "city": "Osice", "lon": "22.3080556"}, {"lat": "42.3052778", "city": "Padinje", "lon": "22.3205556"}, {"lat": "42.2019444", "city": "Palangha", "lon": "22.3319444"}, {"lat": "42.2544444", "city": "Paricanska Maala", "lon": "22.3458333"}, {"lat": "42.2272222", "city": "Pasinci", "lon": "22.3822222"}, {"lat": "42.3122222", "city": "Pavlovci Mahala", "lon": "22.2266667"}, {"lat": "42.3122222", "city": "Pavlovci", "lon": "22.2266667"}, {"lat": "42.2822222", "city": "Pesovska Maala", "lon": "22.3852778"}, {"lat": "42.2386111", "city": "Petkovska Maala", "lon": "22.29"}, {"lat": "42.1769444", "city": "Pijanicka Maala", "lon": "22.3225"}, {"lat": "42.2975", "city": "Pikljanci", "lon": "22.3563889"}, {"lat": "42.3072222", "city": "Podrzi Konj", "lon": "22.2633333"}, {"lat": "42.3072222", "city": "Podrzi Kon", "lon": "22.2633333"}, {"lat": "42.3169444", "city": "Popadeska Maala", "lon": "22.2838889"}, {"lat": "42.26", "city": "Porecanska Maala", "lon": "22.3347222"}, {"lat": "42.1980556", "city": "Prisojarci", "lon": "22.2969444"}, {"lat": "42.2202778", "city": "Puskarska Maala", "lon": "22.3019444"}, {"lat": "42.1691667", "city": "Raciska Maala", "lon": "22.3552778"}, {"lat": "42.2677778", "city": "Radulinci Maala", "lon": "22.3975"}, {"lat": "42.2647222", "city": "Raski Rid", "lon": "22.3216667"}, {"lat": "42.3655556", "city": "Ratkovica", "lon": "22.2636111"}, {"lat": "42.2933333", "city": "Recanje", "lon": "22.3002778"}, {"lat": "42.2858333", "city": "Recka Maala", "lon": "22.3113889"}, {"lat": "42.2497222", "city": "Ridarci", "lon": "22.3844444"}, {"lat": "42.2705556", "city": "Rulevci Maala", "lon": "22.3813889"}, {"lat": "42.2988889", "city": "Rupje", "lon": "22.3302778"}, {"lat": "42.2941667", "city": "Sindarci", "lon": "22.2655556"}, {"lat": "42.2205556", "city": "Sirinci", "lon": "22.3775"}, {"lat": "42.3169444", "city": "Slatina", "lon": "22.3161111"}, {"lat": "42.3205556", "city": "Slatinje", "lon": "22.3116667"}, {"lat": "42.3258333", "city": "Spasinci", "lon": "22.2322222"}, {"lat": "42.2733333", "city": "Srbinovska Maala", "lon": "22.3313889"}, {"lat": "42.3041667", "city": "Sredna Maala", "lon": "22.2752778"}, {"lat": "42.1883333", "city": "Stambolica", "lon": "22.2847222"}, {"lat": "42.1772222", "city": "Stanci", "lon": "22.3663889"}, {"lat": "42.2886111", "city": "Stevanovci", "lon": "22.2630556"}, {"lat": "42.2083333", "city": "Straovica", "lon": "22.4197222"}, {"lat": "42.1838889", "city": "Tlminci", "lon": "22.2641667"}, {"lat": "42.1680556", "city": "Toranica", "lon": "22.4830556"}, {"lat": "42.2552778", "city": "Tosinska Maala", "lon": "22.3313889"}, {"lat": "42.2638889", "city": "Trnovo", "lon": "22.3833333"}, {"lat": "42.2225", "city": "Uzem", "lon": "22.4263889"}, {"lat": "42.2022222", "city": "Varoska Maala", "lon": "22.4480556"}, {"lat": "42.2088889", "city": "Varoviste", "lon": "22.3625"}, {"lat": "42.3111111", "city": "Velika Crcorija", "lon": "22.3305556"}, {"lat": "42.3077778", "city": "Vrginska Maala", "lon": "22.2972222"}, {"lat": "42.2680556", "city": "Vuckovci", "lon": "22.2491667"}, {"lat": "42.225", "city": "Zedilovo", "lon": "22.3958333"}, {"lat": "42.3094444", "city": "(( Zeravina ))", "lon": "22.3455556"}, {"lat": "42.3094444", "city": "Zeravine", "lon": "22.3455556"}, {"lat": "42.3094444", "city": "Zeravino", "lon": "22.3455556"}, {"lat": "42.2430556", "city": "Zezovska Maala", "lon": "22.4047222"}, {"lat": "42.225", "city": "Zidilovo", "lon": "22.3958333"}, {"lat": "42.2763889", "city": "Zirnicka Maala", "lon": "22.3802778"}], "B4": [{"lat": "41.4855556", "city": "Bigor Dolenci", "lon": "21.0"}, {"lat": "41.5013889", "city": "Dolna Maala", "lon": "21.0377778"}, {"lat": "41.5275", "city": "(( Dolno Sveto Race ))", "lon": "21.0702778"}, {"lat": "41.5416667", "city": "Dupjani", "lon": "21.0725"}, {"lat": "41.5416667", "city": "Dupljani", "lon": "21.0725"}, {"lat": "41.5372222", "city": "Emrulovci", "lon": "21.0019444"}, {"lat": "41.5375", "city": "Garani", "lon": "21.0208333"}, {"lat": "41.5030556", "city": "(( Golemi Bigor Dolenci ))", "lon": "21.0075"}, {"lat": "41.5375", "city": "Gorani", "lon": "21.0208333"}, {"lat": "41.5316667", "city": "Gorna Maala", "lon": "21.0941667"}, {"lat": "41.5322222", "city": "(( Gorno Sveto Race ))", "lon": "21.075"}, {"lat": "41.5408333", "city": "Imerovci", "lon": "21.0033333"}, {"lat": "41.5330556", "city": "Kalendziovci", "lon": "21.0147222"}, {"lat": "41.5327778", "city": "Kozicino", "lon": "21.0897222"}, {"lat": "41.5244444", "city": "Krusica", "lon": "21.0516667"}, {"lat": "41.5347222", "city": "Lazarovci", "lon": "20.9955556"}, {"lat": "41.5313889", "city": "Mamudovci", "lon": "20.9855556"}, {"lat": "41.5036111", "city": "Orlanci", "lon": "21.0394444"}, {"lat": "41.5038889", "city": "Predni Maala", "lon": "21.045"}, {"lat": "41.5519444", "city": "Premka", "lon": "21.0347222"}, {"lat": "41.5441667", "city": "Rabetino", "lon": "21.0663889"}, {"lat": "41.5075", "city": "Recani-Celopecko", "lon": "21.0688889"}, {"lat": "41.5075", "city": "Recani", "lon": "21.0688889"}, {"lat": "41.5319444", "city": "Sredna Maala", "lon": "21.0894444"}, {"lat": "41.5372222", "city": "Strelci", "lon": "21.0036111"}, {"lat": "41.5472222", "city": "Sutevo", "lon": "21.0222222"}, {"lat": "41.5472222", "city": "Sutovo", "lon": "21.0222222"}, {"lat": "41.5275", "city": "Svetorace", "lon": "21.07"}, {"lat": "41.5275", "city": "Svetovraci", "lon": "21.07"}, {"lat": "41.5452778", "city": "Veliovci", "lon": "21.0052778"}, {"lat": "41.5286111", "city": "Venica", "lon": "21.0138889"}, {"lat": "41.5286111", "city": "Vinica", "lon": "21.0138889"}], "B5": [{"lat": "41.155", "city": "Alsar", "lon": "21.9433333"}, {"lat": "41.1913889", "city": "Arnicko", "lon": "21.915"}, {"lat": "41.2358333", "city": "Beluce", "lon": "21.7355556"}, {"lat": "41.1397222", "city": "Besiste", "lon": "21.7822222"}, {"lat": "41.1616667", "city": "Culovci", "lon": "21.9516667"}, {"lat": "41.1747222", "city": "Dupkarevi Kolibi", "lon": "21.9194444"}, {"lat": "41.2836111", "city": "Gu\u00c4\u0091akovo", "lon": "21.7977778"}, {"lat": "41.2836111", "city": "Gudjakovo", "lon": "21.7977778"}, {"lat": "41.2836111", "city": "Gugjakovo", "lon": "21.7977778"}, {"lat": "41.2375", "city": "Klin", "lon": "21.9486111"}, {"lat": "41.2375", "city": "Klinovo", "lon": "21.9486111"}, {"lat": "41.1813889", "city": "Kojcevi Kolibi", "lon": "21.9297222"}, {"lat": "41.155", "city": "Majdan", "lon": "21.9433333"}, {"lat": "41.155", "city": "Majden", "lon": "21.9433333"}, {"lat": "41.1680556", "city": "Manastir", "lon": "21.7283333"}, {"lat": "41.1486111", "city": "Polciste", "lon": "21.8227778"}, {"lat": "41.1669444", "city": "Privos", "lon": "21.9588889"}, {"lat": "41.1869444", "city": "Rozden", "lon": "21.9586111"}, {"lat": "41.1766667", "city": "Rzanovo", "lon": "21.9819444"}, {"lat": "41.2288889", "city": "(( R'zanovo ))", "lon": "21.9522222"}, {"lat": "41.27", "city": "Veprcani", "lon": "21.7505556"}, {"lat": "41.1808333", "city": "Vitaliste", "lon": "21.8266667"}, {"lat": "41.1808333", "city": "Vitoliste", "lon": "21.8266667"}, {"lat": "41.2394444", "city": "Vrisko", "lon": "21.8133333"}, {"lat": "41.2394444", "city": "Vrpsko", "lon": "21.8133333"}, {"lat": "41.2077778", "city": "Zivovo", "lon": "21.8163889"}], "B6": [{"lat": "41.4533333", "city": "Atista", "lon": "21.0391667"}, {"lat": "41.4533333", "city": "Atiste", "lon": "21.0391667"}, {"lat": "41.4030556", "city": "Belica", "lon": "20.9491667"}, {"lat": "41.4725", "city": "Celopeci", "lon": "21.0286111"}, {"lat": "41.4166667", "city": "Cer", "lon": "21.075"}, {"lat": "41.3994444", "city": "Golemo Crsko", "lon": "20.9944444"}, {"lat": "41.3166667", "city": "Golemo Ilino", "lon": "21.0083333"}, {"lat": "41.4644444", "city": "Karbunica", "lon": "20.9780556"}, {"lat": "41.4030556", "city": "Kicevo Belica", "lon": "20.9491667"}, {"lat": "41.4405556", "city": "Kladnik", "lon": "20.9722222"}, {"lat": "41.4197222", "city": "Kozica", "lon": "20.9333333"}, {"lat": "41.4613889", "city": "Lisicani", "lon": "21.0544444"}, {"lat": "41.4027778", "city": "Malo Crsko", "lon": "21.0016667"}, {"lat": "41.4836111", "city": "Miokazi", "lon": "21.0522222"}, {"lat": "41.3563889", "city": "Prostranje", "lon": "20.9927778"}, {"lat": "41.4616667", "city": "Staroec", "lon": "21.0055556"}, {"lat": "41.3166667", "city": "Velike Ilino", "lon": "21.0083333"}, {"lat": "41.3994444", "city": "Veliko Crsko", "lon": "20.9944444"}, {"lat": "41.3461111", "city": "Velmenci", "lon": "21.0097222"}, {"lat": "41.3461111", "city": "Velmevci", "lon": "21.0097222"}, {"lat": "41.4452778", "city": "Vranesnica", "lon": "21.0266667"}, {"lat": "41.4452778", "city": "Vranestica", "lon": "21.0266667"}, {"lat": "41.4616667", "city": "Zndes", "lon": "21.0055556"}], "B7": [{"lat": "41.8175", "city": "Debrese", "lon": "20.8805556"}, {"lat": "41.8502778", "city": "Dolni Prosovec", "lon": "20.8386111"}, {"lat": "41.8408333", "city": "Galata", "lon": "20.8783333"}, {"lat": "41.8408333", "city": "Galate", "lon": "20.8783333"}, {"lat": "41.8347222", "city": "Novo Selo", "lon": "20.8672222"}, {"lat": "41.8533333", "city": "Pozarane", "lon": "20.8658333"}, {"lat": "41.8272222", "city": "Vranjovce", "lon": "20.8663889"}, {"lat": "41.8272222", "city": "Vranovce", "lon": "20.8663889"}, {"lat": "41.8272222", "city": "Vranovci", "lon": "20.8663889"}, {"lat": "41.8338889", "city": "Vrap\u00e7icsht\u00eb", "lon": "20.8852778"}, {"lat": "41.8338889", "city": "Vrapcista", "lon": "20.8852778"}, {"lat": "41.8338889", "city": "Vrapciste", "lon": "20.8852778"}, {"lat": "41.8294444", "city": "Zubovce", "lon": "20.8777778"}], "B1": [{"lat": "41.6808333", "city": "Babuna", "lon": "21.8027778"}, {"lat": "41.7483333", "city": "Basino Selo", "lon": "21.76"}, {"lat": "41.7633333", "city": "Belestevica", "lon": "21.6983333"}, {"lat": "41.7397222", "city": "Buzalakovo", "lon": "21.6722222"}, {"lat": "41.7397222", "city": "Buzalkovo", "lon": "21.6722222"}, {"lat": "41.7547222", "city": "Calosevo", "lon": "21.7961111"}, {"lat": "41.7547222", "city": "Colosevo", "lon": "21.7961111"}, {"lat": "41.6572222", "city": "Crkvina", "lon": "21.7952778"}, {"lat": "41.6572222", "city": "Crkvino", "lon": "21.7952778"}, {"lat": "41.6983333", "city": "\u00d0inot", "lon": "21.7547222"}, {"lat": "41.6886111", "city": "Dolno Karaslari", "lon": "21.8375"}, {"lat": "41.6741667", "city": "Dolno Orizari", "lon": "21.7488889"}, {"lat": "41.6741667", "city": "Donji Orizari", "lon": "21.7488889"}, {"lat": "41.6858333", "city": "Gornji-Celtiki", "lon": "21.7336111"}, {"lat": "41.6858333", "city": "Gornji Orizari", "lon": "21.7336111"}, {"lat": "41.6961111", "city": "Gorno Karaslari", "lon": "21.8363889"}, {"lat": "41.6858333", "city": "Gorno Orizari", "lon": "21.7336111"}, {"lat": "41.6236111", "city": "Grnciste", "lon": "21.8211111"}, {"lat": "41.7", "city": "Klukovec", "lon": "21.6908333"}, {"lat": "41.665", "city": "Kocilare", "lon": "21.8625"}, {"lat": "41.665", "city": "Kocilari", "lon": "21.8625"}, {"lat": "41.665", "city": "Kocilar", "lon": "21.8625"}, {"lat": "41.7155556", "city": "K\u00f6pr\u00fcl\u00fc", "lon": "21.7755556"}, {"lat": "41.665", "city": "Kucilari", "lon": "21.8625"}, {"lat": "41.7772222", "city": "Kumarino", "lon": "21.8180556"}, {"lat": "41.6866667", "city": "Kuridere", "lon": "21.8797222"}, {"lat": "41.6866667", "city": "Kuru Dere", "lon": "21.8797222"}, {"lat": "41.7666667", "city": "Novacani", "lon": "21.7458333"}, {"lat": "41.7666667", "city": "Novicane", "lon": "21.7458333"}, {"lat": "41.7336111", "city": "Novo Selo", "lon": "21.8491667"}, {"lat": "41.6352778", "city": "Orahovac", "lon": "21.7594444"}, {"lat": "41.6352778", "city": "Oraovec", "lon": "21.7594444"}, {"lat": "41.6741667", "city": "Orizare", "lon": "21.7488889"}, {"lat": "41.7733333", "city": "Otavica", "lon": "21.7777778"}, {"lat": "41.7733333", "city": "Otovica", "lon": "21.7777778"}, {"lat": "41.6983333", "city": "Prevalec", "lon": "21.7547222"}, {"lat": "41.7241667", "city": "Rastane", "lon": "21.7127778"}, {"lat": "41.7241667", "city": "Rastani", "lon": "21.7127778"}, {"lat": "41.735", "city": "Rlevci", "lon": "21.6411111"}, {"lat": "41.8430556", "city": "Rudnik", "lon": "21.7569444"}, {"lat": "41.6", "city": "Skacinci", "lon": "21.8080556"}, {"lat": "41.7183333", "city": "Slivnik", "lon": "21.67"}, {"lat": "41.7183333", "city": "Slivnjak", "lon": "21.67"}, {"lat": "41.7805556", "city": "S'lp", "lon": "21.6847222"}, {"lat": "41.7944444", "city": "Sojaklari", "lon": "21.8002778"}, {"lat": "41.7844444", "city": "Sopot", "lon": "21.7183333"}, {"lat": "41.6866667", "city": "Suva Reka", "lon": "21.8797222"}, {"lat": "41.7155556", "city": "Titov Veles", "lon": "21.7755556"}, {"lat": "41.7155556", "city": "Velessa", "lon": "21.7755556"}, {"lat": "41.7155556", "city": "Veles", "lon": "21.7755556"}, {"lat": "41.6741667", "city": "Veliki Celtiki", "lon": "21.7488889"}, {"lat": "41.8227778", "city": "Vetersko", "lon": "21.705"}, {"lat": "41.6561111", "city": "Zgopolci", "lon": "21.8744444"}, {"lat": "41.6561111", "city": "Zgropolci", "lon": "21.8744444"}, {"lat": "41.6561111", "city": "Zgropoljci", "lon": "21.8744444"}], "B2": [{"lat": "41.2133333", "city": "Dolna Belica", "lon": "20.635"}, {"lat": "41.2272222", "city": "Lazani", "lon": "20.6758333"}, {"lat": "41.2272222", "city": "Lozani", "lon": "20.6758333"}, {"lat": "41.2716667", "city": "Tasmarunista", "lon": "20.6394444"}, {"lat": "41.2716667", "city": "Tasmaruniste", "lon": "20.6394444"}, {"lat": "41.2716667", "city": "Tasmorunista", "lon": "20.6394444"}, {"lat": "41.2716667", "city": "Tasmoruniste", "lon": "20.6394444"}, {"lat": "41.2716667", "city": "Tosmoruniste", "lon": "20.6394444"}, {"lat": "41.2408333", "city": "Velesta", "lon": "20.6438889"}, {"lat": "41.2408333", "city": "Veleste", "lon": "20.6438889"}, {"lat": "41.2119444", "city": "Vranista", "lon": "20.6644444"}, {"lat": "41.2119444", "city": "Vraniste", "lon": "20.6644444"}], "B3": [{"lat": "41.2238889", "city": "Gorna Belica", "lon": "20.5544444"}, {"lat": "41.2325", "city": "Oktisi", "lon": "20.6072222"}, {"lat": "41.2405556", "city": "Vehcane", "lon": "20.5933333"}, {"lat": "41.2405556", "city": "Vehcani", "lon": "20.5933333"}, {"lat": "41.2405556", "city": "Vevcane", "lon": "20.5933333"}, {"lat": "41.2405556", "city": "Vevcani", "lon": "20.5933333"}, {"lat": "41.1933333", "city": "Visni", "lon": "20.5988889"}, {"lat": "41.1933333", "city": "Visnje", "lon": "20.5988889"}], "B8": [{"lat": "42.1366667", "city": "Beloviste", "lon": "21.1041667"}, {"lat": "42.1644444", "city": "Jazince", "lon": "21.1761111"}, {"lat": "42.1644444", "city": "Jaznica", "lon": "21.1761111"}, {"lat": "42.1644444", "city": "Jaznice", "lon": "21.1761111"}, {"lat": "42.1066667", "city": "Nerashte", "lon": "21.1088889"}, {"lat": "42.1066667", "city": "Neraste", "lon": "21.1088889"}, {"lat": "42.1252778", "city": "Odri", "lon": "21.0886111"}, {"lat": "42.13", "city": "Orasje", "lon": "21.1369444"}, {"lat": "42.13", "city": "Oraste", "lon": "21.1369444"}, {"lat": "42.1275", "city": "Prvce", "lon": "21.075"}, {"lat": "42.1563889", "city": "Rogacevo", "lon": "21.1569444"}, {"lat": "42.1530556", "city": "Staro Selo", "lon": "21.1344444"}, {"lat": "42.1433333", "city": "Vratnica", "lon": "21.1169444"}, {"lat": "42.1433333", "city": "Vratnic\u00eb", "lon": "21.1169444"}], "B9": [{"lat": "41.7552778", "city": "Brezovec", "lon": "20.7838889"}, {"lat": "41.7225", "city": "Cerovo", "lon": "20.8458333"}, {"lat": "41.8027778", "city": "Dolno Jelovce", "lon": "20.8355556"}, {"lat": "41.7533333", "city": "Duf", "lon": "20.7852778"}, {"lat": "41.8072222", "city": "Gorno Jelovce", "lon": "20.7897222"}, {"lat": "41.8072222", "city": "Gorno Jelovci", "lon": "20.7897222"}, {"lat": "41.7986111", "city": "Lesnica", "lon": "20.8591667"}, {"lat": "41.7788889", "city": "Mirdita", "lon": "20.8619444"}, {"lat": "41.7372222", "city": "Mitroj Krsti", "lon": "20.8936111"}, {"lat": "41.7372222", "city": "Mitrovi Krsti", "lon": "20.8936111"}, {"lat": "41.7333333", "city": "Novo Selo", "lon": "20.83"}, {"lat": "41.7433333", "city": "Orcusa", "lon": "20.8019444"}, {"lat": "41.7433333", "city": "Orcuse", "lon": "20.8019444"}, {"lat": "41.7813889", "city": "Peckovo", "lon": "20.8316667"}, {"lat": "41.7825", "city": "Raven", "lon": "20.8569444"}, {"lat": "41.7530556", "city": "Recane", "lon": "20.8269444"}, {"lat": "41.72", "city": "Simnica", "lon": "20.8813889"}, {"lat": "41.7591667", "city": "Susica", "lon": "20.8763889"}, {"lat": "41.76", "city": "Toljane", "lon": "20.8013889"}, {"lat": "41.7591667", "city": "Vitomiriva", "lon": "20.8763889"}, {"lat": "41.7686111", "city": "Vrutog", "lon": "20.8391667"}, {"lat": "41.7686111", "city": "Vrutok", "lon": "20.8391667"}], "88": [{"lat": "41.5888889", "city": "Adzievci", "lon": "20.6130556"}, {"lat": "41.5888889", "city": "Adzijevci", "lon": "20.6130556"}, {"lat": "41.5888889", "city": "Axhiefci", "lon": "20.6130556"}, {"lat": "41.6166667", "city": "Bitus", "lon": "20.5883333"}, {"lat": "41.6166667", "city": "Bituse", "lon": "20.5883333"}, {"lat": "41.6591667", "city": "Bitushe", "lon": "20.5911111"}, {"lat": "41.6575", "city": "Boletin", "lon": "20.6016667"}, {"lat": "41.6575", "city": "Boljetin", "lon": "20.6016667"}, {"lat": "41.5941667", "city": "Galicnik", "lon": "20.6533333"}, {"lat": "41.5869444", "city": "Jance", "lon": "20.6283333"}, {"lat": "41.5813889", "city": "Prisojnica", "lon": "20.6102778"}, {"lat": "41.5666667", "city": "Rosoki", "lon": "20.6941667"}, {"lat": "41.61", "city": "Rostusa", "lon": "20.6"}, {"lat": "41.5733333", "city": "Selce", "lon": "20.7127778"}, {"lat": "41.5655556", "city": "Skidrinja", "lon": "20.6094444"}, {"lat": "41.5655556", "city": "Skuadrinje", "lon": "20.6094444"}, {"lat": "41.5655556", "city": "Skudrine", "lon": "20.6094444"}, {"lat": "41.5655556", "city": "Skudrinje", "lon": "20.6094444"}, {"lat": "41.5655556", "city": "Skudruye", "lon": "20.6094444"}, {"lat": "41.6283333", "city": "Trebishte", "lon": "20.5891667"}, {"lat": "41.6283333", "city": "Trebiste", "lon": "20.5891667"}, {"lat": "41.6175", "city": "Velebrdo", "lon": "20.5980556"}, {"lat": "41.6591667", "city": "Vidusa", "lon": "20.5911111"}, {"lat": "41.6591667", "city": "Viduse", "lon": "20.5911111"}, {"lat": "41.6744444", "city": "Zhirovnica", "lon": "20.5858333"}, {"lat": "41.6744444", "city": "Zirovnica", "lon": "20.5858333"}], "89": [{"lat": "41.6761111", "city": "Belica", "lon": "21.3044444"}, {"lat": "41.6922222", "city": "Bence", "lon": "21.0983333"}, {"lat": "41.7458333", "city": "Bitovo", "lon": "21.0808333"}, {"lat": "41.7588889", "city": "Blizansko", "lon": "21.1627778"}, {"lat": "41.7366667", "city": "Borovska Breznica", "lon": "21.2263889"}, {"lat": "41.7161111", "city": "(( Botuse ))", "lon": "21.0866667"}, {"lat": "41.7366667", "city": "Bresnica", "lon": "21.2263889"}, {"lat": "41.725", "city": "Brest", "lon": "21.1569444"}, {"lat": "41.7366667", "city": "Brezica", "lon": "21.2263889"}, {"lat": "41.7366667", "city": "Breznica", "lon": "21.2263889"}, {"lat": "41.6452778", "city": "Cresnevo", "lon": "21.2841667"}, {"lat": "41.6452778", "city": "Cresnjevo", "lon": "21.2841667"}, {"lat": "41.6816667", "city": "Dolna Belica", "lon": "21.2786111"}, {"lat": "41.6269444", "city": "Dolni Manastirec", "lon": "21.2105556"}, {"lat": "41.7244444", "city": "Dolno Botuse", "lon": "21.0972222"}, {"lat": "41.7244444", "city": "Dolno Botusje", "lon": "21.0972222"}, {"lat": "41.6769444", "city": "Dolno Lupste", "lon": "21.155"}, {"lat": "41.7180556", "city": "(( Dolno Maalo Tazevo ))", "lon": "21.2497222"}, {"lat": "41.7180556", "city": "Dolno Malo Tazevo", "lon": "21.2497222"}, {"lat": "41.6677778", "city": "Dolno Zrkle", "lon": "21.1616667"}, {"lat": "41.6761111", "city": "Gorna Belica", "lon": "21.3044444"}, {"lat": "41.7583333", "city": "Gorna Reka", "lon": "21.1038889"}, {"lat": "41.6222222", "city": "Gorni Manastirec", "lon": "21.1888889"}, {"lat": "41.6761111", "city": "Gornja Belica", "lon": "21.3044444"}, {"lat": "41.7122222", "city": "Gorno Botuse", "lon": "21.0733333"}, {"lat": "41.7122222", "city": "Gorno Botusje", "lon": "21.0733333"}, {"lat": "41.6586111", "city": "Gorno Lupste", "lon": "21.1308333"}, {"lat": "41.725", "city": "(( Gorno Maalo Tazevo ))", "lon": "21.2513889"}, {"lat": "41.725", "city": "Gorno Malo Tazevo", "lon": "21.2513889"}, {"lat": "41.6222222", "city": "Gorno Manastirec", "lon": "21.1888889"}, {"lat": "41.6416667", "city": "Ince", "lon": "21.1847222"}, {"lat": "41.6608333", "city": "Kalu\u00c4\u0091erec", "lon": "21.2411111"}, {"lat": "41.6608333", "city": "Kalugerec", "lon": "21.2411111"}, {"lat": "41.8166667", "city": "Kapina", "lon": "21.2177778"}, {"lat": "41.7286111", "city": "Kosovo", "lon": "21.1338889"}, {"lat": "41.6791667", "city": "Kovac", "lon": "21.1322222"}, {"lat": "41.6625", "city": "Kovce", "lon": "21.1730556"}, {"lat": "41.6333333", "city": "Lag", "lon": "21.2322222"}, {"lat": "41.6586111", "city": "Lupiste", "lon": "21.1308333"}, {"lat": "41.6586111", "city": "Lupste", "lon": "21.1308333"}, {"lat": "41.6247222", "city": "Maalo", "lon": "21.1886111"}, {"lat": "41.6247222", "city": "Malo", "lon": "21.1886111"}, {"lat": "41.6252778", "city": "(( Manastirec ))", "lon": "21.2016667"}, {"lat": "41.64", "city": "Modriste", "lon": "21.2436111"}, {"lat": "41.6508333", "city": "Mogilec", "lon": "21.2236111"}, {"lat": "41.6152778", "city": "Novo Selo", "lon": "21.2127778"}, {"lat": "41.8", "city": "Patishka Rek\u00eb", "lon": "21.3169444"}, {"lat": "41.8", "city": "Patiska", "lon": "21.3169444"}, {"lat": "41.8", "city": "Patiska Reka", "lon": "21.3169444"}, {"lat": "41.6797222", "city": "Ramne", "lon": "21.1744444"}, {"lat": "41.6797222", "city": "Ramnje", "lon": "21.1744444"}, {"lat": "41.7466667", "city": "Rastes", "lon": "21.1036111"}, {"lat": "41.6836111", "city": "Samakov", "lon": "21.1441667"}, {"lat": "41.6836111", "city": "Samokov", "lon": "21.1441667"}, {"lat": "41.7522222", "city": "Sapatoec", "lon": "21.1811111"}, {"lat": "41.7561111", "city": "Seliste", "lon": "21.2625"}, {"lat": "41.6338889", "city": "Staro Selo", "lon": "21.2069444"}, {"lat": "41.6413889", "city": "Susica", "lon": "21.14"}, {"lat": "41.7216667", "city": "Tazevo", "lon": "21.2494444"}, {"lat": "41.63", "city": "Tomino Selo", "lon": "21.1508333"}, {"lat": "41.63", "city": "Tomno Selo", "lon": "21.1508333"}, {"lat": "41.6152778", "city": "Topolnica", "lon": "21.1666667"}, {"lat": "41.7586111", "city": "Trebovje", "lon": "21.1316667"}, {"lat": "41.7586111", "city": "Trebovle", "lon": "21.1316667"}, {"lat": "41.7586111", "city": "Trebovlje", "lon": "21.1316667"}, {"lat": "41.6213889", "city": "Vasilkovci", "lon": "21.1805556"}, {"lat": "41.7627778", "city": "Vlce", "lon": "21.0716667"}, {"lat": "41.7627778", "city": "Volce", "lon": "21.0716667"}, {"lat": "41.7544444", "city": "Zagrad", "lon": "21.0944444"}, {"lat": "41.8097222", "city": "Zdunje", "lon": "21.1608333"}, {"lat": "41.6586111", "city": "Zrkle", "lon": "21.1508333"}, {"lat": "41.7011111", "city": "Zvecan", "lon": "21.1233333"}], "82": [{"lat": "41.3366667", "city": "Bela Vodica", "lon": "21.7036111"}, {"lat": "41.3366667", "city": "Belovodica", "lon": "21.7036111"}, {"lat": "41.3563889", "city": "Carevic", "lon": "21.7719444"}, {"lat": "41.3563889", "city": "Carevik", "lon": "21.7719444"}, {"lat": "41.2822222", "city": "Cmovo", "lon": "21.5694444"}, {"lat": "41.2822222", "city": "Cumovo", "lon": "21.5694444"}, {"lat": "41.3980556", "city": "Dabnica", "lon": "21.5658333"}, {"lat": "41.3297222", "city": "Dren", "lon": "21.7788889"}, {"lat": "41.2575", "city": "Dulje", "lon": "21.6922222"}, {"lat": "41.2575", "city": "Dunje", "lon": "21.6922222"}, {"lat": "41.2566667", "city": "Kalen", "lon": "21.6452778"}, {"lat": "41.2913889", "city": "Kokre", "lon": "21.6302778"}, {"lat": "41.4044444", "city": "Krstec", "lon": "21.6711111"}, {"lat": "41.3602778", "city": "Lenista", "lon": "21.6230556"}, {"lat": "41.3602778", "city": "Leniste", "lon": "21.6230556"}, {"lat": "41.3366667", "city": "Malo Kojnari", "lon": "21.4636111"}, {"lat": "41.3366667", "city": "Malo Konjare", "lon": "21.4636111"}, {"lat": "41.3366667", "city": "Malo Konjari", "lon": "21.4636111"}, {"lat": "41.3572222", "city": "Markov Grad", "lon": "21.5325"}, {"lat": "41.4161111", "city": "Novi Prisad", "lon": "21.605"}, {"lat": "41.3111111", "city": "Novo Lagovo", "lon": "21.5161111"}, {"lat": "41.3880556", "city": "Orahovec", "lon": "21.635"}, {"lat": "41.3880556", "city": "Oreovec", "lon": "21.635"}, {"lat": "41.3880556", "city": "Orevoec", "lon": "21.635"}, {"lat": "41.3463889", "city": "Perlep\u00e9", "lon": "21.5544444"}, {"lat": "41.3463889", "city": "Perlepes", "lon": "21.5544444"}, {"lat": "41.28", "city": "Pestani", "lon": "21.6716667"}, {"lat": "41.3691667", "city": "Pletvar", "lon": "21.6519444"}, {"lat": "41.2955556", "city": "Prilepac", "lon": "21.5855556"}, {"lat": "41.2955556", "city": "Prilepec", "lon": "21.5855556"}, {"lat": "41.3463889", "city": "Prilep", "lon": "21.5544444"}, {"lat": "41.2955556", "city": "Prilipec", "lon": "21.5855556"}, {"lat": "41.4161111", "city": "Prisad", "lon": "21.605"}, {"lat": "41.4352778", "city": "Prisad Stari", "lon": "21.5986111"}, {"lat": "41.4352778", "city": "Prisat", "lon": "21.5986111"}, {"lat": "41.4219444", "city": "Rakle", "lon": "21.7497222"}, {"lat": "41.4219444", "city": "Raklje", "lon": "21.7497222"}, {"lat": "41.3255556", "city": "Selce", "lon": "21.5730556"}, {"lat": "41.3344444", "city": "Smolane", "lon": "21.7738889"}, {"lat": "41.3344444", "city": "Smolani", "lon": "21.7738889"}, {"lat": "41.3344444", "city": "Smoljani", "lon": "21.7738889"}, {"lat": "41.4352778", "city": "Stari Prisad", "lon": "21.5986111"}, {"lat": "41.2947222", "city": "Staro Lagovo", "lon": "21.5355556"}, {"lat": "41.4005556", "city": "Toplica", "lon": "21.7419444"}, {"lat": "41.3716667", "city": "Trojaci", "lon": "21.7391667"}, {"lat": "41.3572222", "city": "Varos", "lon": "21.5325"}, {"lat": "41.3016667", "city": "Volkovo", "lon": "21.5680556"}, {"lat": "41.3016667", "city": "Vukovo", "lon": "21.5680556"}], "83": [{"lat": "41.9813889", "city": "Barbarevo", "lon": "22.0627778"}, {"lat": "41.9986111", "city": "Calniste", "lon": "22.1902778"}, {"lat": "41.9402778", "city": "Casa", "lon": "22.1788889"}, {"lat": "41.9402778", "city": "Casica", "lon": "22.1788889"}, {"lat": "42.0238889", "city": "Dobreovo", "lon": "22.1958333"}, {"lat": "42.0238889", "city": "Dobrevo", "lon": "22.1958333"}, {"lat": "41.9991667", "city": "Dolni Stubol", "lon": "22.1205556"}, {"lat": "41.9813889", "city": "Dolno Barbarevo", "lon": "22.0627778"}, {"lat": "41.9991667", "city": "Donji Stubol", "lon": "22.1205556"}, {"lat": "41.9675", "city": "Drenak", "lon": "22.1508333"}, {"lat": "41.9675", "city": "Drenok", "lon": "22.1508333"}, {"lat": "42.0075", "city": "Dreveno", "lon": "22.2116667"}, {"lat": "42.0113889", "city": "Gorni Stubol", "lon": "22.0997222"}, {"lat": "42.0113889", "city": "Gornji Stubol", "lon": "22.0997222"}, {"lat": "41.9936111", "city": "Gorno Barbarevo", "lon": "22.0702778"}, {"lat": "41.9986111", "city": "Kalniste", "lon": "22.1902778"}, {"lat": "42.0233333", "city": "Kudino", "lon": "22.1461111"}, {"lat": "41.9313889", "city": "Kukovo", "lon": "22.1066667"}, {"lat": "42.0233333", "city": "Kundino", "lon": "22.1461111"}, {"lat": "42.025", "city": "Marcino", "lon": "22.1761111"}, {"lat": "42.025", "city": "Maricino", "lon": "22.1761111"}, {"lat": "41.9613889", "city": "Neokazi", "lon": "22.1916667"}, {"lat": "41.9577778", "city": "Petrasino", "lon": "22.1638889"}, {"lat": "41.9577778", "city": "Petrisino", "lon": "22.1638889"}, {"lat": "41.9577778", "city": "Petrsino", "lon": "22.1638889"}, {"lat": "41.9986111", "city": "Plesanci", "lon": "22.1338889"}, {"lat": "41.9986111", "city": "Plesinci", "lon": "22.1338889"}, {"lat": "42.0030556", "city": "Probistip", "lon": "22.1786111"}, {"lat": "41.9438889", "city": "Puzderci", "lon": "22.1330556"}, {"lat": "41.9661111", "city": "Strisovce", "lon": "22.0975"}, {"lat": "41.9661111", "city": "Strisovci", "lon": "22.0975"}, {"lat": "41.9816667", "city": "Strmos", "lon": "22.1625"}, {"lat": "41.9661111", "city": "Strojisavci", "lon": "22.0975"}, {"lat": "41.9427778", "city": "Zarapinci", "lon": "22.1477778"}, {"lat": "41.9427778", "city": "Zarbinci", "lon": "22.1477778"}, {"lat": "41.9427778", "city": "Zarepinci", "lon": "22.1477778"}], "80": [{"lat": "41.4916667", "city": "Dolno Oreovec", "lon": "21.1325"}, {"lat": "41.4647222", "city": "Dvorci", "lon": "21.0927778"}, {"lat": "41.4980556", "city": "Gorno Oreovec", "lon": "21.1294444"}, {"lat": "41.4883333", "city": "Iziste", "lon": "21.0858333"}, {"lat": "41.4955556", "city": "Oreovec", "lon": "21.1302778"}, {"lat": "41.4672222", "city": "Plasnica", "lon": "21.1230556"}, {"lat": "41.4636111", "city": "Preglevo", "lon": "21.1208333"}, {"lat": "41.4636111", "city": "Preglovo", "lon": "21.1208333"}, {"lat": "41.4127778", "city": "Pusta Reka", "lon": "21.1555556"}], "81": [{"lat": "41.5436111", "city": "Dukatino", "lon": "22.5444444"}, {"lat": "41.6666667", "city": "Durutli", "lon": "22.5666667"}, {"lat": "41.6666667", "city": "Durutlija", "lon": "22.5666667"}, {"lat": "41.6563889", "city": "(( Hudaverli ))", "lon": "22.5575"}, {"lat": "41.6563889", "city": "Hudaverlija", "lon": "22.5575"}, {"lat": "41.5877778", "city": "Jargulica", "lon": "22.5619444"}, {"lat": "41.5722222", "city": "Kalu\u00c4\u0091erica", "lon": "22.5155556"}, {"lat": "41.5722222", "city": "Kalugerica", "lon": "22.5155556"}, {"lat": "41.6166667", "city": "Kuskulija", "lon": "22.6333333"}, {"lat": "41.6166667", "city": "Kuskuli", "lon": "22.6333333"}, {"lat": "41.6258333", "city": "Orahovica", "lon": "22.5133333"}, {"lat": "41.6258333", "city": "Oraovica", "lon": "22.5133333"}, {"lat": "41.6138889", "city": "Podares", "lon": "22.5422222"}, {"lat": "41.5727778", "city": "Pokrajcevo", "lon": "22.5716667"}, {"lat": "41.65", "city": "Sari\u00c4\u0091ol", "lon": "22.5666667"}, {"lat": "41.65", "city": "Saridjol", "lon": "22.5666667"}, {"lat": "41.65", "city": "Sarigjol", "lon": "22.5666667"}, {"lat": "41.65", "city": "Sarigol", "lon": "22.5666667"}], "86": [{"lat": "40.9436111", "city": "Arvati", "lon": "21.1130556"}, {"lat": "40.9863889", "city": "Asamagi", "lon": "21.0511111"}, {"lat": "40.9863889", "city": "Asamati", "lon": "21.0511111"}, {"lat": "41.1094444", "city": "Bolno", "lon": "20.9722222"}, {"lat": "40.9063889", "city": "Brajcino", "lon": "21.1591667"}, {"lat": "41.0430556", "city": "Carev Dvor", "lon": "21.0072222"}, {"lat": "41.0375", "city": "Dolna Bela Crkva", "lon": "21.0308333"}, {"lat": "40.8755556", "city": "Dolno Dupeni", "lon": "21.1197222"}, {"lat": "41.1580556", "city": "Dolno Krusje", "lon": "20.9822222"}, {"lat": "41.0141667", "city": "Dolno Perovo", "lon": "20.9894444"}, {"lat": "40.9261111", "city": "Dolno Strbovo", "lon": "21.1025"}, {"lat": "41.0330556", "city": "Drmeni", "lon": "21.0"}, {"lat": "40.8755556", "city": "Dupeni", "lon": "21.1197222"}, {"lat": "41.075", "city": "Evla", "lon": "20.9561111"}, {"lat": "41.0280556", "city": "Ezerani", "lon": "21.0222222"}, {"lat": "41.0280556", "city": "Ezereni", "lon": "21.0222222"}, {"lat": "41.12", "city": "Gopes", "lon": "21.1219444"}, {"lat": "41.0502778", "city": "Gorna Bela Crkva", "lon": "21.0280556"}, {"lat": "41.0622222", "city": "Gorno Dupeni", "lon": "20.9752778"}, {"lat": "40.9327778", "city": "Gorno Strbovo", "lon": "21.1116667"}, {"lat": "41.0172222", "city": "Grncare", "lon": "21.0533333"}, {"lat": "41.0172222", "city": "Grncari", "lon": "21.0533333"}, {"lat": "40.9394444", "city": "Hrani", "lon": "21.1086111"}, {"lat": "41.15", "city": "Ilino", "lon": "20.9588889"}, {"lat": "41.1316667", "city": "Izbista", "lon": "21.0047222"}, {"lat": "41.1316667", "city": "Izbiste", "lon": "21.0047222"}, {"lat": "41.1102778", "city": "Jankoec", "lon": "21.0113889"}, {"lat": "41.1102778", "city": "Jankovac", "lon": "21.0113889"}, {"lat": "41.1102778", "city": "Jankovec", "lon": "21.0113889"}, {"lat": "41.0280556", "city": "Jezerane", "lon": "21.0222222"}, {"lat": "40.9394444", "city": "Karahan", "lon": "21.1086111"}, {"lat": "40.8833333", "city": "Kisava", "lon": "21.3166667"}, {"lat": "40.9", "city": "Konjsko", "lon": "20.9833333"}, {"lat": "40.9", "city": "Konsko", "lon": "20.9833333"}, {"lat": "41.0586111", "city": "Kozjak", "lon": "21.0430556"}, {"lat": "40.9394444", "city": "Krani", "lon": "21.1086111"}, {"lat": "41.1402778", "city": "Kriveni", "lon": "21.0238889"}, {"lat": "40.9852778", "city": "Kurbinovo", "lon": "21.0686111"}, {"lat": "41.0452778", "city": "Lavci", "lon": "20.9544444"}, {"lat": "40.95", "city": "Leskoec", "lon": "20.8833333"}, {"lat": "40.95", "city": "Leskovec", "lon": "20.8833333"}, {"lat": "41.1586111", "city": "Leva Reka", "lon": "21.0061111"}, {"lat": "40.9166667", "city": "Ljubanista", "lon": "20.7833333"}, {"lat": "40.9166667", "city": "Ljubaniste", "lon": "20.7833333"}, {"lat": "40.8941667", "city": "Ljubojna", "lon": "21.1408333"}, {"lat": "40.8941667", "city": "Ljubojno", "lon": "21.1408333"}, {"lat": "40.9166667", "city": "Lubaniste", "lon": "20.7833333"}, {"lat": "41.0330556", "city": "Malovista", "lon": "21.1305556"}, {"lat": "41.0330556", "city": "Maloviste", "lon": "21.1305556"}, {"lat": "41.1386111", "city": "Metimer", "lon": "21.145"}, {"lat": "41.1386111", "city": "Metimir", "lon": "21.145"}, {"lat": "40.8933333", "city": "Nakolec", "lon": "21.1072222"}, {"lat": "40.9833333", "city": "Otesevo", "lon": "20.9166667"}, {"lat": "41.1036111", "city": "Pesrino", "lon": "20.9461111"}, {"lat": "41.1036111", "city": "Petrino", "lon": "20.9461111"}, {"lat": "41.2186111", "city": "Place", "lon": "20.9733333"}, {"lat": "41.2186111", "city": "Plake", "lon": "20.9733333"}, {"lat": "41.2186111", "city": "Plakje", "lon": "20.9733333"}, {"lat": "41.0236111", "city": "Podmocane", "lon": "21.0508333"}, {"lat": "41.0236111", "city": "Podmocani", "lon": "21.0508333"}, {"lat": "41.0294444", "city": "Pokrvenik", "lon": "20.9486111"}, {"lat": "40.9797222", "city": "Pretar", "lon": "21.0616667"}, {"lat": "40.9797222", "city": "Pretor", "lon": "21.0616667"}, {"lat": "41.0022222", "city": "Rajca", "lon": "21.0619444"}, {"lat": "41.0022222", "city": "Rajci", "lon": "21.0619444"}, {"lat": "41.0888889", "city": "Resan", "lon": "21.0122222"}, {"lat": "41.0888889", "city": "Resen", "lon": "21.0122222"}, {"lat": "41.0888889", "city": "Resna", "lon": "21.0122222"}, {"lat": "40.9588889", "city": "Slivnica", "lon": "21.0813889"}, {"lat": "41.155", "city": "Smilevo", "lon": "21.1111111"}, {"lat": "41.155", "city": "Smiljevo", "lon": "21.1111111"}, {"lat": "41.085", "city": "Sopotsko", "lon": "21.0638889"}, {"lat": "41.085", "city": "Spotsko", "lon": "21.0638889"}, {"lat": "40.9333333", "city": "Stenje", "lon": "20.9166667"}, {"lat": "40.9261111", "city": "Strbovo", "lon": "21.1025"}, {"lat": "40.9261111", "city": "Strhovo", "lon": "21.1025"}, {"lat": "41.0113889", "city": "Surlenci", "lon": "20.9352778"}, {"lat": "40.95", "city": "Trpejca", "lon": "20.7833333"}, {"lat": "41.0205556", "city": "Volkoderi", "lon": "20.9441667"}, {"lat": "41.0205556", "city": "Vukoderi", "lon": "20.9441667"}, {"lat": "41.1175", "city": "Zlatari", "lon": "21.0627778"}], "87": [{"lat": "41.4597222", "city": "Debriste", "lon": "21.8819444"}, {"lat": "41.5488889", "city": "Dolno Cicevo", "lon": "21.8761111"}, {"lat": "41.5488889", "city": "Donje Cicevo", "lon": "21.8761111"}, {"lat": "41.4530556", "city": "Faris", "lon": "21.8011111"}, {"lat": "41.5533333", "city": "Gornje Cicevo", "lon": "21.8616667"}, {"lat": "41.5533333", "city": "Gorno Cicevo", "lon": "21.8616667"}, {"lat": "41.4791667", "city": "Kamen Do", "lon": "21.8930556"}, {"lat": "41.4791667", "city": "Kamen Dol", "lon": "21.8930556"}, {"lat": "41.5330556", "city": "Krusevica", "lon": "21.8827778"}, {"lat": "41.5263889", "city": "Kurija", "lon": "22.0169444"}, {"lat": "41.4880556", "city": "Manastirci", "lon": "21.9447222"}, {"lat": "41.4880556", "city": "Manastirec", "lon": "21.9447222"}, {"lat": "41.4833333", "city": "Mrzen", "lon": "21.8533333"}, {"lat": "41.4833333", "city": "Mrzen Oraovec", "lon": "21.8533333"}, {"lat": "41.5369444", "city": "Palikura", "lon": "21.9755556"}, {"lat": "41.5283333", "city": "Podlec", "lon": "21.8177778"}, {"lat": "41.5283333", "city": "Podles", "lon": "21.8177778"}, {"lat": "41.5161111", "city": "Rasoman", "lon": "21.9497222"}, {"lat": "41.5094444", "city": "Ribarci", "lon": "21.9622222"}, {"lat": "41.5161111", "city": "Rosoman", "lon": "21.9497222"}, {"lat": "41.5063889", "city": "Sirkovo", "lon": "21.8886111"}, {"lat": "41.475", "city": "Trstenik", "lon": "21.9191667"}, {"lat": "41.4530556", "city": "Varit", "lon": "21.8011111"}], "84": [{"lat": "41.6966667", "city": "Alilabasi", "lon": "22.4797222"}, {"lat": "41.6966667", "city": "Aliloba", "lon": "22.4797222"}, {"lat": "41.6966667", "city": "Ali Lobasi", "lon": "22.4797222"}, {"lat": "41.6063889", "city": "Brest", "lon": "22.3227778"}, {"lat": "41.6705556", "city": "Bucim", "lon": "22.3397222"}, {"lat": "41.6130556", "city": "Damjan", "lon": "22.3611111"}, {"lat": "41.57", "city": "Dedino", "lon": "22.4247222"}, {"lat": "41.5880556", "city": "Dolna Vrasnica", "lon": "22.3402778"}, {"lat": "41.5880556", "city": "Dolna Vrastica", "lon": "22.3402778"}, {"lat": "41.6747222", "city": "Drzanci", "lon": "22.5133333"}, {"lat": "41.5977778", "city": "Gorna Vrasnica", "lon": "22.3544444"}, {"lat": "41.5977778", "city": "Gorna Vrastica", "lon": "22.3544444"}, {"lat": "41.6102778", "city": "Inevo", "lon": "22.4241667"}, {"lat": "41.6102778", "city": "Injevo", "lon": "22.4241667"}, {"lat": "41.6102778", "city": "Inovo", "lon": "22.4241667"}, {"lat": "41.67", "city": "Kalauzlija", "lon": "22.4936111"}, {"lat": "41.67", "city": "Kalauzli", "lon": "22.4936111"}, {"lat": "41.6894444", "city": "Kodzalija", "lon": "22.4202778"}, {"lat": "41.6894444", "city": "Kodzali", "lon": "22.4202778"}, {"lat": "41.7033333", "city": "Kosevo", "lon": "22.3475"}, {"lat": "41.7266667", "city": "Kozbunar", "lon": "22.4722222"}, {"lat": "41.7422222", "city": "Kucica", "lon": "22.3816667"}, {"lat": "41.75", "city": "Micac", "lon": "22.4333333"}, {"lat": "41.75", "city": "Micak", "lon": "22.4333333"}, {"lat": "41.61", "city": "Novo Selo", "lon": "22.3041667"}, {"lat": "41.6061111", "city": "Pagulevo", "lon": "22.3758333"}, {"lat": "41.705", "city": "Pocivalo", "lon": "22.3836111"}, {"lat": "41.6061111", "city": "Pogulevo", "lon": "22.3758333"}, {"lat": "41.6061111", "city": "Pogulova", "lon": "22.3758333"}, {"lat": "41.6611111", "city": "Prnalija", "lon": "22.4125"}, {"lat": "41.6611111", "city": "Prnarli", "lon": "22.4125"}, {"lat": "41.6383333", "city": "Radovis", "lon": "22.4647222"}, {"lat": "41.6383333", "city": "Radoviste", "lon": "22.4647222"}, {"lat": "41.6302778", "city": "Raklis", "lon": "22.4827778"}, {"lat": "41.6383333", "city": "Rodovis", "lon": "22.4647222"}, {"lat": "41.7075", "city": "Sahintas", "lon": "22.5525"}, {"lat": "41.7075", "city": "Saintas", "lon": "22.5525"}, {"lat": "41.7480556", "city": "Sipkovica", "lon": "22.4630556"}, {"lat": "41.6966667", "city": "Smilanci", "lon": "22.6052778"}, {"lat": "41.6966667", "city": "Smiljanci", "lon": "22.6052778"}, {"lat": "41.6355556", "city": "Sopur", "lon": "22.2994444"}, {"lat": "41.6802778", "city": "Sturovo", "lon": "22.4769444"}, {"lat": "41.5825", "city": "Suldurci", "lon": "22.4858333"}, {"lat": "41.68", "city": "Supurge", "lon": "22.4025"}, {"lat": "41.5825", "city": "Surdulci", "lon": "22.4858333"}, {"lat": "41.5825", "city": "Surdulica", "lon": "22.4858333"}, {"lat": "41.6572222", "city": "Topolnica", "lon": "22.3783333"}, {"lat": "41.5872222", "city": "Voislavci", "lon": "22.4711111"}, {"lat": "41.5872222", "city": "Vojslavci", "lon": "22.4711111"}], "85": [{"lat": "42.2094444", "city": "Alince", "lon": "21.9994444"}, {"lat": "42.2094444", "city": "Aljince", "lon": "21.9994444"}, {"lat": "42.3361111", "city": "Andrejinci", "lon": "22.2016667"}, {"lat": "42.265", "city": "Arbanasko", "lon": "22.0"}, {"lat": "42.3361111", "city": "Atdrejinci", "lon": "22.2016667"}, {"lat": "42.315", "city": "Balabanska Maala", "lon": "22.1511111"}, {"lat": "42.2325", "city": "Baraklija", "lon": "22.1958333"}, {"lat": "42.2325", "city": "Baratlija", "lon": "22.1958333"}, {"lat": "42.2966667", "city": "Buzolak", "lon": "22.0422222"}, {"lat": "42.2866667", "city": "Crkvinska Maala", "lon": "22.1555556"}, {"lat": "42.2966667", "city": "Cvetisnica", "lon": "22.0086111"}, {"lat": "42.25", "city": "Dejlovce", "lon": "22.0"}, {"lat": "42.25", "city": "Dejlovci", "lon": "22.0"}, {"lat": "42.3208333", "city": "Delska Maala", "lon": "22.1961111"}, {"lat": "42.2780556", "city": "\u00d0erman", "lon": "22.1033333"}, {"lat": "42.2902778", "city": "Dlabocia", "lon": "22.0425"}, {"lat": "42.2902778", "city": "Dlabocica", "lon": "22.0425"}, {"lat": "42.2902778", "city": "Dlbocica", "lon": "22.0425"}, {"lat": "42.2363889", "city": "Dojakova Maala", "lon": "22.2061111"}, {"lat": "42.2902778", "city": "Dolbocica", "lon": "22.0425"}, {"lat": "42.1086111", "city": "Dolna Kuklica", "lon": "22.0380556"}, {"lat": "42.2011111", "city": "Drenak", "lon": "22.0308333"}, {"lat": "42.2011111", "city": "Drenok", "lon": "22.0308333"}, {"lat": "42.2902778", "city": "Dubocica", "lon": "22.0425"}, {"lat": "42.2780556", "city": "German", "lon": "22.1033333"}, {"lat": "42.1880556", "city": "Ginovce", "lon": "22.1566667"}, {"lat": "42.1880556", "city": "Ginovci", "lon": "22.1566667"}, {"lat": "42.2888889", "city": "Gornja Maala", "lon": "22.1838889"}, {"lat": "42.2241667", "city": "Gulince", "lon": "22.0613889"}, {"lat": "42.2241667", "city": "Gulinci", "lon": "22.0613889"}, {"lat": "42.1819444", "city": "Hrankovce", "lon": "22.1227778"}, {"lat": "42.2938889", "city": "Ivackovica", "lon": "22.0508333"}, {"lat": "42.2830556", "city": "Jovanovska Maala", "lon": "22.2186111"}, {"lat": "42.3266667", "city": "Kacarci", "lon": "22.2144444"}, {"lat": "42.2825", "city": "Klisura", "lon": "22.1186111"}, {"lat": "42.215", "city": "Klisurska Maala", "lon": "22.2147222"}, {"lat": "42.2241667", "city": "Kosarci", "lon": "22.2066667"}, {"lat": "42.1211111", "city": "Krilatica", "lon": "22.1058333"}, {"lat": "42.2375", "city": "Krivi Kamen", "lon": "22.1391667"}, {"lat": "42.2936111", "city": "Krivi Vrt", "lon": "22.1272222"}, {"lat": "42.2969444", "city": "Krsje", "lon": "22.0994444"}, {"lat": "42.2788889", "city": "Krstinci", "lon": "22.0327778"}, {"lat": "42.1086111", "city": "Kuklica", "lon": "22.0380556"}, {"lat": "42.1958333", "city": "Majmarkova Maala", "lon": "22.2069444"}, {"lat": "42.1958333", "city": "Majmarkovci", "lon": "22.2069444"}, {"lat": "42.2302778", "city": "Milocovci", "lon": "22.1877778"}, {"lat": "42.1972222", "city": "Milutince", "lon": "22.1522222"}, {"lat": "42.1972222", "city": "Milutinci", "lon": "22.1522222"}, {"lat": "42.2894444", "city": "Nerav", "lon": "22.1672222"}, {"lat": "42.15", "city": "Odrene", "lon": "22.1833333"}, {"lat": "42.15", "city": "Odren", "lon": "22.1833333"}, {"lat": "42.15", "city": "Odreno", "lon": "22.1833333"}, {"lat": "42.3083333", "city": "Ogut", "lon": "22.2083333"}, {"lat": "42.1427778", "city": "Opila", "lon": "22.1441667"}, {"lat": "42.1427778", "city": "Opile", "lon": "22.1441667"}, {"lat": "42.1427778", "city": "Opilo", "lon": "22.1441667"}, {"lat": "42.2594444", "city": "Orasec", "lon": "22.0830556"}, {"lat": "42.2911111", "city": "Osanci", "lon": "22.1666667"}, {"lat": "42.2277778", "city": "Osice", "lon": "22.0291667"}, {"lat": "42.1958333", "city": "Otosnica", "lon": "22.0802778"}, {"lat": "42.2561111", "city": "Pakliste", "lon": "22.0483333"}, {"lat": "42.3013889", "city": "Parapuci", "lon": "22.1633333"}, {"lat": "42.1255556", "city": "Pendak", "lon": "22.0155556"}, {"lat": "42.3166667", "city": "Petakovci Mahala", "lon": "22.2116667"}, {"lat": "42.3166667", "city": "Petakovci", "lon": "22.2116667"}, {"lat": "42.2083333", "city": "Petralica", "lon": "22.1872222"}, {"lat": "42.2083333", "city": "Petraljica", "lon": "22.1872222"}, {"lat": "42.3041667", "city": "Pizinska Maala", "lon": "22.1927778"}, {"lat": "42.2561111", "city": "P'kliste", "lon": "22.0483333"}, {"lat": "42.3108333", "city": "Poljanska Maala", "lon": "22.2113889"}, {"lat": "42.2791667", "city": "Prisojarci", "lon": "22.1894444"}, {"lat": "42.1663889", "city": "Psaca", "lon": "22.2033333"}, {"lat": "42.2", "city": "Radibus", "lon": "22.11"}, {"lat": "42.1941667", "city": "Radueva Maala", "lon": "22.2161111"}, {"lat": "42.1819444", "city": "Rankovce", "lon": "22.1227778"}, {"lat": "42.1819444", "city": "Rankovci", "lon": "22.1227778"}, {"lat": "42.3130556", "city": "Ristakovci", "lon": "22.1752778"}, {"lat": "42.2769444", "city": "Sipak Maala", "lon": "22.1419444"}, {"lat": "42.2630556", "city": "Skender", "lon": "21.9916667"}, {"lat": "42.25", "city": "Sredna Maala", "lon": "22.0975"}, {"lat": "42.2405556", "city": "Stanca", "lon": "22.0741667"}, {"lat": "42.2405556", "city": "Stance", "lon": "22.0741667"}, {"lat": "42.3025", "city": "Stojkovci", "lon": "22.2172222"}, {"lat": "42.1505556", "city": "Stracin", "lon": "22.0322222"}, {"lat": "42.1322222", "city": "Trnovac", "lon": "22.0777778"}, {"lat": "42.1533333", "city": "Vetunica", "lon": "22.0841667"}, {"lat": "42.2797222", "city": "Vucavice", "lon": "22.1722222"}, {"lat": "42.2277778", "city": "Zeljuvino", "lon": "22.0011111"}, {"lat": "42.2277778", "city": "Zeluvine", "lon": "22.0011111"}], "02": [{"lat": "40.9333333", "city": "Bac", "lon": "21.5666667"}, {"lat": "40.95", "city": "Brod", "lon": "21.5666667"}, {"lat": "40.95", "city": "Dobroven", "lon": "21.6166667"}, {"lat": "40.95", "city": "Dobroveni", "lon": "21.6166667"}, {"lat": "40.9666667", "city": "Dolno Egri", "lon": "21.5"}, {"lat": "40.9166667", "city": "Germijan", "lon": "21.5333333"}, {"lat": "41.0127778", "city": "Gniles", "lon": "21.5858333"}, {"lat": "41.0127778", "city": "Gnilez", "lon": "21.5858333"}, {"lat": "41.0127778", "city": "Gnjiles", "lon": "21.5858333"}, {"lat": "40.9166667", "city": "Kremenica", "lon": "21.4666667"}, {"lat": "41.0080556", "city": "Polog", "lon": "21.6158333"}, {"lat": "40.9666667", "city": "Skocivir", "lon": "21.65"}, {"lat": "40.9666667", "city": "Slivica", "lon": "21.6"}, {"lat": "40.9", "city": "Sovic", "lon": "21.65"}, {"lat": "40.9", "city": "Sovik", "lon": "21.65"}, {"lat": "40.9666667", "city": "Sredno Egri", "lon": "21.4833333"}, {"lat": "41.0", "city": "Tepavci", "lon": "21.5666667"}, {"lat": "40.9666667", "city": "Veleselo", "lon": "21.5666667"}, {"lat": "40.9", "city": "Zivojna", "lon": "21.6"}, {"lat": "40.9", "city": "Zivojno", "lon": "21.6"}], "03": [{"lat": "41.3705556", "city": "Arbinovo", "lon": "20.8288889"}, {"lat": "41.3027778", "city": "Belcista", "lon": "20.8302778"}, {"lat": "41.3027778", "city": "Belciste", "lon": "20.8302778"}, {"lat": "41.2852778", "city": "Botum", "lon": "20.7913889"}, {"lat": "41.2852778", "city": "Botun", "lon": "20.7913889"}, {"lat": "41.2852778", "city": "Botur", "lon": "20.7913889"}, {"lat": "41.2716667", "city": "Bresani", "lon": "20.9616667"}, {"lat": "41.2716667", "city": "Brezani", "lon": "20.9616667"}, {"lat": "41.3205556", "city": "Crvena Voda", "lon": "20.7675"}, {"lat": "41.295", "city": "Dolne Sredorece", "lon": "20.845"}, {"lat": "41.295", "city": "Dolno Sredorece", "lon": "20.845"}, {"lat": "41.4016667", "city": "Godivije", "lon": "20.7905556"}, {"lat": "41.4016667", "city": "Godivje", "lon": "20.7905556"}, {"lat": "41.3005556", "city": "Gorne Sredorece", "lon": "20.8525"}, {"lat": "41.3005556", "city": "Gorno Sredorece", "lon": "20.8525"}, {"lat": "41.3005556", "city": "Gorno Sredorecje", "lon": "20.8525"}, {"lat": "41.2902778", "city": "Grko Pole", "lon": "20.865"}, {"lat": "41.3363889", "city": "Izdeglavje", "lon": "20.8266667"}, {"lat": "41.3363889", "city": "Izdeglavlje", "lon": "20.8266667"}, {"lat": "41.3875", "city": "Laktinje", "lon": "20.7963889"}, {"lat": "41.2777778", "city": "Lesane", "lon": "20.8605556"}, {"lat": "41.2777778", "city": "Lesani", "lon": "20.8605556"}, {"lat": "41.3811111", "city": "Mramopec", "lon": "20.8752778"}, {"lat": "41.3811111", "city": "Mramorec", "lon": "20.8752778"}, {"lat": "41.3097222", "city": "Novo Selo", "lon": "20.8058333"}, {"lat": "41.3319444", "city": "Ozdoleni", "lon": "20.855"}, {"lat": "41.3263889", "city": "Pesocani", "lon": "20.7919444"}, {"lat": "41.3538889", "city": "Radomirovo", "lon": "20.7372222"}, {"lat": "41.3483333", "city": "Slatino", "lon": "20.8663889"}, {"lat": "41.4055556", "city": "Slivovo", "lon": "20.845"}, {"lat": "41.3205556", "city": "Sosani", "lon": "20.8716667"}, {"lat": "41.2980556", "city": "Velmej", "lon": "20.9013889"}, {"lat": "41.4175", "city": "Vrbjani", "lon": "20.7941667"}, {"lat": "41.2825", "city": "Zlesti", "lon": "20.8302778"}], "01": [{"lat": "42.0263889", "city": "Ara\u00e7in\u00eb", "lon": "21.5619444"}, {"lat": "42.0263889", "city": "Aracinovo", "lon": "21.5619444"}, {"lat": "42.0166667", "city": "Asan-Begovo", "lon": "21.5166667"}, {"lat": "42.0341667", "city": "Brnjarce", "lon": "21.5466667"}, {"lat": "42.0341667", "city": "Brnjarci", "lon": "21.5466667"}, {"lat": "42.0705556", "city": "Bulacane", "lon": "21.5027778"}, {"lat": "42.0705556", "city": "Bulacani", "lon": "21.5027778"}, {"lat": "42.0508333", "city": "Cresevo", "lon": "21.5097222"}, {"lat": "41.9991667", "city": "Dusanovac", "lon": "21.495"}, {"lat": "42.0608333", "city": "Grusince", "lon": "21.6205556"}, {"lat": "42.0608333", "city": "Grusino", "lon": "21.6205556"}, {"lat": "42.0041667", "city": "Indzikovo", "lon": "21.5172222"}, {"lat": "41.9991667", "city": "Ma\u00c4\u0091ari", "lon": "21.495"}, {"lat": "41.9991667", "city": "Madjari", "lon": "21.495"}, {"lat": "41.9991667", "city": "Madzari", "lon": "21.495"}, {"lat": "41.9991667", "city": "Madzarlik", "lon": "21.495"}, {"lat": "41.9991667", "city": "Maxhar\u00eb", "lon": "21.495"}, {"lat": "42.0475", "city": "Mojance", "lon": "21.5713889"}, {"lat": "42.0475", "city": "Mojanci", "lon": "21.5713889"}, {"lat": "42.0805556", "city": "Nikostik", "lon": "21.5797222"}, {"lat": "42.0805556", "city": "Nikushan", "lon": "21.5797222"}, {"lat": "42.0805556", "city": "Nikustak", "lon": "21.5797222"}, {"lat": "42.0480556", "city": "Orlance", "lon": "21.5933333"}, {"lat": "42.0480556", "city": "Orlanci", "lon": "21.5933333"}, {"lat": "42.0166667", "city": "Sin\u00c4\u0091elicevo", "lon": "21.5166667"}, {"lat": "42.0166667", "city": "Sin\u00c4\u0091elic", "lon": "21.5166667"}, {"lat": "42.0166667", "city": "Singelic", "lon": "21.5166667"}, {"lat": "42.0166667", "city": "Singelik", "lon": "21.5166667"}, {"lat": "42.0375", "city": "Smiljkovci", "lon": "21.4944444"}, {"lat": "42.0375", "city": "Smilkovci", "lon": "21.4944444"}, {"lat": "42.0275", "city": "Stajkovce", "lon": "21.5130556"}, {"lat": "42.0275", "city": "Stajkovci", "lon": "21.5130556"}, {"lat": "42.0275", "city": "Stojkovci", "lon": "21.5130556"}, {"lat": "42.0461111", "city": "Stracince", "lon": "21.5322222"}, {"lat": "42.0461111", "city": "Stracinci", "lon": "21.5322222"}, {"lat": "42.0558333", "city": "Vinice", "lon": "21.5225"}], "06": [{"lat": "41.0311111", "city": "Bitola", "lon": "21.3402778"}, {"lat": "41.0311111", "city": "Bitol", "lon": "21.3402778"}, {"lat": "41.0311111", "city": "Bitolj", "lon": "21.3402778"}, {"lat": "41.0311111", "city": "Bitolya", "lon": "21.3402778"}, {"lat": "41.055", "city": "Bratin Dol", "lon": "21.2613889"}, {"lat": "41.0230556", "city": "Brusnik", "lon": "21.2852778"}, {"lat": "41.0297222", "city": "Cekrkci", "lon": "21.4113889"}, {"lat": "41.0302778", "city": "Dihovo", "lon": "21.2638889"}, {"lat": "41.0502778", "city": "Dolno Orizari", "lon": "21.3794444"}, {"lat": "41.0511111", "city": "Gorno Orizari", "lon": "21.3469444"}, {"lat": "41.0647222", "city": "Karamani", "lon": "21.3938889"}, {"lat": "41.0147222", "city": "Lahci", "lon": "21.3025"}, {"lat": "41.0147222", "city": "Lavci", "lon": "21.3025"}, {"lat": "41.0297222", "city": "Logovardi", "lon": "21.4113889"}, {"lat": "41.0311111", "city": "Manastir", "lon": "21.3402778"}, {"lat": "41.0311111", "city": "Monasteron", "lon": "21.3402778"}, {"lat": "41.0311111", "city": "Monastir", "lon": "21.3402778"}, {"lat": "41.0111111", "city": "Nizepole", "lon": "21.2458333"}, {"lat": "41.0111111", "city": "Nizepolje", "lon": "21.2458333"}, {"lat": "41.0111111", "city": "Nizopole", "lon": "21.2458333"}, {"lat": "41.0111111", "city": "Nizo Polje", "lon": "21.2458333"}, {"lat": "40.9833333", "city": "Orehovo", "lon": "21.3166667"}, {"lat": "40.9833333", "city": "Oreovo", "lon": "21.3166667"}, {"lat": "41.0161111", "city": "Poesevo", "lon": "21.3916667"}, {"lat": "41.0161111", "city": "Pojesevo", "lon": "21.3916667"}, {"lat": "41.0530556", "city": "Rastani", "lon": "21.3241667"}, {"lat": "41.0672222", "city": "Snegovo", "lon": "21.2941667"}, {"lat": "41.0438889", "city": "Trnovo", "lon": "21.25"}, {"lat": "41.0730556", "city": "Trn", "lon": "21.4122222"}], "07": [{"lat": "41.8377778", "city": "Blaca", "lon": "22.5780556"}, {"lat": "41.8377778", "city": "Blatac", "lon": "22.5780556"}, {"lat": "41.8377778", "city": "Blatec", "lon": "22.5780556"}, {"lat": "41.8972222", "city": "Dragobrasta", "lon": "22.5994444"}, {"lat": "41.8972222", "city": "Dragobraste", "lon": "22.5994444"}, {"lat": "41.8972222", "city": "Dragobrasti", "lon": "22.5994444"}, {"lat": "41.8480556", "city": "Gradec", "lon": "22.5094444"}, {"lat": "41.9169444", "city": "Kapetanska Maala", "lon": "22.5908333"}, {"lat": "41.9169444", "city": "Kapetanska Mahala", "lon": "22.5908333"}, {"lat": "41.9155556", "city": "Krsla", "lon": "22.5636111"}, {"lat": "41.895", "city": "Krusevo", "lon": "22.6222222"}, {"lat": "41.7969444", "city": "Laki", "lon": "22.6694444"}, {"lat": "41.8416667", "city": "Lipac", "lon": "22.5527778"}, {"lat": "41.8416667", "city": "Lipec", "lon": "22.5527778"}, {"lat": "41.7855556", "city": "(( Lisac ))", "lon": "22.5119444"}, {"lat": "41.8980556", "city": "Maksimci", "lon": "22.6544444"}, {"lat": "41.7755556", "city": "Mitrasinci", "lon": "22.7394444"}, {"lat": "41.7755556", "city": "Mitrosinci", "lon": "22.7394444"}, {"lat": "41.7247222", "city": "Novo Selo", "lon": "22.5758333"}, {"lat": "41.8755556", "city": "Peklani", "lon": "22.6291667"}, {"lat": "41.8755556", "city": "Pekljane", "lon": "22.6291667"}, {"lat": "41.8755556", "city": "Pekljani", "lon": "22.6291667"}, {"lat": "41.91", "city": "Trsina", "lon": "22.6497222"}, {"lat": "41.91", "city": "Trsino", "lon": "22.6497222"}, {"lat": "41.9155556", "city": "Vinicka Krska", "lon": "22.5636111"}, {"lat": "41.9155556", "city": "Vinicka Krsla", "lon": "22.5636111"}, {"lat": "41.9155556", "city": "Vinicko Gumno", "lon": "22.5636111"}], "04": [{"lat": "41.7030556", "city": "Berovo", "lon": "22.8577778"}, {"lat": "41.7486111", "city": "Donje Macevo", "lon": "22.7947222"}, {"lat": "41.5861111", "city": "Dvoriste", "lon": "22.9194444"}, {"lat": "41.7486111", "city": "Macevo", "lon": "22.7947222"}, {"lat": "41.7486111", "city": "Macovo", "lon": "22.7947222"}, {"lat": "41.6833333", "city": "Ratevo", "lon": "22.85"}, {"lat": "41.6833333", "city": "Rusinovo", "lon": "22.8083333"}, {"lat": "41.7333333", "city": "Smojmirovo", "lon": "22.85"}, {"lat": "41.5861111", "city": "Trencino Koibe", "lon": "22.9194444"}, {"lat": "41.71", "city": "Vladimirovo", "lon": "22.7927778"}], "05": [{"lat": "40.95", "city": "Baresane", "lon": "21.35"}, {"lat": "40.95", "city": "Baresani", "lon": "21.35"}, {"lat": "40.9833333", "city": "Bistrica", "lon": "21.3666667"}, {"lat": "40.9833333", "city": "Bukovo", "lon": "21.3333333"}, {"lat": "40.8833333", "city": "Dragos", "lon": "21.35"}, {"lat": "40.9833333", "city": "Feistritz", "lon": "21.3666667"}, {"lat": "40.95", "city": "Gorno Egri", "lon": "21.4666667"}, {"lat": "40.9", "city": "Graesnica", "lon": "21.35"}, {"lat": "40.9", "city": "Grajesnica", "lon": "21.35"}, {"lat": "40.9833333", "city": "Hristifor", "lon": "21.35"}, {"lat": "40.95", "city": "Kanina", "lon": "21.35"}, {"lat": "40.95", "city": "Kanino", "lon": "21.35"}, {"lat": "40.9833333", "city": "Kravari", "lon": "21.3666667"}, {"lat": "40.9833333", "city": "Krstaor", "lon": "21.35"}, {"lat": "40.9833333", "city": "Krstioar", "lon": "21.35"}, {"lat": "40.9166667", "city": "Lazac", "lon": "21.3833333"}, {"lat": "40.9166667", "city": "Lazec", "lon": "21.3833333"}, {"lat": "40.9333333", "city": "Medzedli", "lon": "21.4333333"}, {"lat": "40.9333333", "city": "Medzitlija", "lon": "21.4333333"}, {"lat": "40.9333333", "city": "Mezditlija", "lon": "21.4333333"}, {"lat": "40.9666667", "city": "Oleveni", "lon": "21.3666667"}, {"lat": "40.9833333", "city": "Opticare", "lon": "21.4166667"}, {"lat": "40.9833333", "city": "Opticari", "lon": "21.4166667"}, {"lat": "40.9333333", "city": "Ostrec", "lon": "21.3"}, {"lat": "40.9333333", "city": "Porodin", "lon": "21.3666667"}, {"lat": "40.9166667", "city": "Veljusino", "lon": "21.35"}, {"lat": "40.9166667", "city": "Velusina", "lon": "21.35"}, {"lat": "40.9166667", "city": "Velusino", "lon": "21.35"},