{"MM": {"02": [{"lat": "21.9", "city": "Ahru", "lon": "93.1666667"}, {"lat": "21.3833333", "city": "Ahshan", "lon": "92.8666667"}, {"lat": "21.4333333", "city": "Ah Teing", "lon": "93.1833333"}, {"lat": "22.3666667", "city": "Aibur", "lon": "93.4333333"}, {"lat": "22.1833333", "city": "Aika", "lon": "93.6166667"}, {"lat": "23.4666667", "city": "Aipha", "lon": "93.7666667"}, {"lat": "23.9666667", "city": "Aisih", "lon": "93.6166667"}, {"lat": "21.1", "city": "Aitsa", "lon": "93.4833333"}, {"lat": "22.65", "city": "Aive", "lon": "93.7333333"}, {"lat": "20.8166667", "city": "Ale Tinkang", "lon": "93.4333333"}, {"lat": "20.7", "city": "Ameikywa", "lon": "94.0666667"}, {"lat": "21.35", "city": "Amlaung", "lon": "93.9"}, {"lat": "21.3166667", "city": "Angim-loisah", "lon": "93.55"}, {"lat": "21.5833333", "city": "Angtung", "lon": "92.7833333"}, {"lat": "20.7", "city": "Angyi", "lon": "94.15"}, {"lat": "21.4166667", "city": "An Htang", "lon": "93.2166667"}, {"lat": "21.6333333", "city": "Anhtwei", "lon": "93.2166667"}, {"lat": "23.5166667", "city": "Aniang", "lon": "93.6333333"}, {"lat": "21.25", "city": "An Kang", "lon": "93.0333333"}, {"lat": "23.7333333", "city": "Anlung", "lon": "93.7666667"}, {"lat": "21.3666667", "city": "Antare", "lon": "93.1166667"}, {"lat": "21.15", "city": "An Teing", "lon": "93.2"}, {"lat": "20.7", "city": "Apadawywa", "lon": "94.0166667"}, {"lat": "20.8166667", "city": "Atet Than Htaung", "lon": "93.3"}, {"lat": "23.1", "city": "Auhmun", "lon": "93.5166667"}, {"lat": "20.85", "city": "Auk Than Htaung", "lon": "93.25"}, {"lat": "20.9833333", "city": "Auk Yin", "lon": "93.75"}, {"lat": "21.3666667", "city": "Aung Bwei", "lon": "93.0666667"}, {"lat": "21.1833333", "city": "Aung Kaung", "lon": "93.0833333"}, {"lat": "20.8833333", "city": "Aunglauk", "lon": "93.2"}, {"lat": "21.1666667", "city": "Aung Tang", "lon": "93.0333333"}, {"lat": "21.6833333", "city": "Awlawngpang", "lon": "93.8666667"}, {"lat": "20.6833333", "city": "Ayaw", "lon": "94.1166667"}, {"lat": "20.9", "city": "Ayegyaungzok", "lon": "93.85"}, {"lat": "21.6", "city": "Badupi", "lon": "93.45"}, {"lat": "21.2166667", "city": "Baila", "lon": "93.2"}, {"lat": "21.7333333", "city": "Balaing", "lon": "92.85"}, {"lat": "23.7833333", "city": "Balbil", "lon": "94.05"}, {"lat": "21.9666667", "city": "Balei", "lon": "93.55"}, {"lat": "20.7333333", "city": "Bamadauks\u00f4k", "lon": "94.1333333"}, {"lat": "22.6166667", "city": "Banawhklang", "lon": "93.15"}, {"lat": "21.6833333", "city": "Baneng", "lon": "93.4666667"}, {"lat": "23.7333333", "city": "Bapi", "lon": "93.4333333"}, {"lat": "21.25", "city": "Batwe", "lon": "93.6166667"}, {"lat": "21.25", "city": "Baunggyaung", "lon": "92.9833333"}, {"lat": "20.9666667", "city": "Baw", "lon": "93.6166667"}, {"lat": "21.7666667", "city": "Bawiling", "lon": "93.3833333"}, {"lat": "21.7833333", "city": "Bawli", "lon": "92.7333333"}, {"lat": "21.2333333", "city": "Bawng-im", "lon": "93.6666667"}, {"lat": "21.1666667", "city": "Bedaung", "lon": "92.8166667"}, {"lat": "23.1166667", "city": "Belawl", "lon": "93.6666667"}, {"lat": "22.55", "city": "Belhar", "lon": "93.1833333"}, {"lat": "21.1", "city": "Bidonegyaungwa", "lon": "92.9"}, {"lat": "23.8333333", "city": "Bizang", "lon": "93.6833333"}, {"lat": "20.8", "city": "Boathe", "lon": "93.3333333"}, {"lat": "21.2166667", "city": "Bobeik", "lon": "93.25"}, {"lat": "21.6333333", "city": "Bo", "lon": "93.9"}, {"lat": "21.35", "city": "Bok Lang", "lon": "93.1"}, {"lat": "21.4333333", "city": "Bong", "lon": "93.75"}, {"lat": "21.4", "city": "Bongyo", "lon": "92.6833333"}, {"lat": "23.15", "city": "Botsung", "lon": "93.55"}, {"lat": "23.1", "city": "Bualhrei", "lon": "93.45"}, {"lat": "23.0833333", "city": "Bualkhua", "lon": "93.6833333"}, {"lat": "23.8333333", "city": "Bualkuang", "lon": "93.9166667"}, {"lat": "23.1", "city": "Bualmin", "lon": "93.6333333"}, {"lat": "22.5833333", "city": "Bualtak", "lon": "93.6666667"}, {"lat": "23.2", "city": "Buan", "lon": "93.6833333"}, {"lat": "23.7166667", "city": "Buangmual", "lon": "93.7"}, {"lat": "23.55", "city": "Buangzawli", "lon": "93.85"}, {"lat": "23.5333333", "city": "Buanli", "lon": "93.5166667"}, {"lat": "22.5", "city": "Buanlung", "lon": "93.55"}, {"lat": "23.5", "city": "Bukphir", "lon": "93.45"}, {"lat": "21.4333333", "city": "Bum-im", "lon": "93.8666667"}, {"lat": "23.4666667", "city": "Bumzang", "lon": "93.7166667"}, {"lat": "21.6166667", "city": "Bunghung", "lon": "93.3"}, {"lat": "22.8833333", "city": "Bungkhua", "lon": "93.2"}, {"lat": "22.7833333", "city": "Bungklang", "lon": "93.1333333"}, {"lat": "22.4", "city": "Bungtuah", "lon": "93.7666667"}, {"lat": "21.7833333", "city": "Bweson", "lon": "93.3333333"}, {"lat": "21.6333333", "city": "Bwetsi", "lon": "93.55"}, {"lat": "23.1833333", "city": "Cawnghawih", "lon": "93.4666667"}, {"lat": "21.2166667", "city": "Charadaung", "lon": "92.95"}, {"lat": "21.55", "city": "Chat", "lon": "93.85"}, {"lat": "21.0333333", "city": "Chaungmuhtsa", "lon": "93.6333333"}, {"lat": "21.1833333", "city": "Chaung-yung", "lon": "93.75"}, {"lat": "21.1", "city": "Cheingsa", "lon": "93.4"}, {"lat": "21.0666667", "city": "Cheingsanu", "lon": "93.4833333"}, {"lat": "21.5166667", "city": "Chem", "lon": "92.8166667"}, {"lat": "21.4333333", "city": "Cheoleo", "lon": "92.6666667"}, {"lat": "21.4166667", "city": "Chidup", "lon": "93.9333333"}, {"lat": "23.9333333", "city": "Chikha", "lon": "93.5833333"}, {"lat": "20.75", "city": "Chindauks\u00f4k", "lon": "94.1333333"}, {"lat": "21.3166667", "city": "Chuni", "lon": "93.1666667"}, {"lat": "22.7666667", "city": "Chunsung", "lon": "93.5666667"}, {"lat": "21.7666667", "city": "Daiden", "lon": "93.8666667"}, {"lat": "21.7666667", "city": "Daidin", "lon": "93.8666667"}, {"lat": "21.6", "city": "Daletme", "lon": "92.7666667"}, {"lat": "21.5666667", "city": "Dandi", "lon": "94.1"}, {"lat": "22.85", "city": "Darbo", "lon": "93.9333333"}, {"lat": "23.6333333", "city": "Darkhai", "lon": "93.4666667"}, {"lat": "23.7", "city": "Darkhai Khawthar", "lon": "93.4833333"}, {"lat": "22.1166667", "city": "Darling", "lon": "93.2"}, {"lat": "23.0166667", "city": "Darteti", "lon": "93.4666667"}, {"lat": "21.1833333", "city": "Daswe", "lon": "93.0166667"}, {"lat": "22.6833333", "city": "Dauchim", "lon": "93.75"}, {"lat": "23.0", "city": "Dawn", "lon": "93.1833333"}, {"lat": "22.4166667", "city": "Dawngva", "lon": "93.5166667"}, {"lat": "21.4833333", "city": "Deing", "lon": "92.8333333"}, {"lat": "21.3166667", "city": "Deing Kang", "lon": "93.2"}, {"lat": "21.3333333", "city": "Di", "lon": "93.9666667"}, {"lat": "22.9833333", "city": "Dihai", "lon": "93.4666667"}, {"lat": "23.3333333", "city": "Dimlo", "lon": "93.7166667"}, {"lat": "22.4", "city": "Dinlaupa", "lon": "93.6"}, {"lat": "21.3166667", "city": "Do-im", "lon": "93.8833333"}, {"lat": "21.3166667", "city": "Dok", "lon": "93.65"}, {"lat": "23.3333333", "city": "Dolluang", "lon": "93.9"}, {"lat": "23.1", "city": "Duhmang", "lon": "93.8"}, {"lat": "22.15", "city": "Dumva", "lon": "93.7666667"}, {"lat": "20.6833333", "city": "Dweg\u00f4n", "lon": "94.15"}, {"lat": "20.6833333", "city": "Dweywa", "lon": "94.15"}, {"lat": "21.4333333", "city": "Ei Saung", "lon": "93.1166667"}, {"lat": "21.7833333", "city": "Elyo", "lon": "92.8"}, {"lat": "22.9166667", "city": "Falam", "lon": "93.6833333"}, {"lat": "23.2333333", "city": "Fort White", "lon": "93.7833333"}, {"lat": "23.55", "city": "Gamlai", "lon": "93.6333333"}, {"lat": "23.75", "city": "Gampum", "lon": "93.65"}, {"lat": "23.6666667", "city": "Gelmual", "lon": "93.7666667"}, {"lat": "21.8833333", "city": "Granza", "lon": "92.85"}, {"lat": "20.9666667", "city": "Gweship", "lon": "93.7166667"}, {"lat": "23.9666667", "city": "Haicin", "lon": "93.4333333"}, {"lat": "22.85", "city": "Haimual", "lon": "93.7666667"}, {"lat": "23.9666667", "city": "Hainggyin", "lon": "93.4333333"}, {"lat": "22.7333333", "city": "Haiphai", "lon": "93.8166667"}, {"lat": "23.7833333", "city": "Haipi", "lon": "93.6833333"}, {"lat": "22.8666667", "city": "Hairawn", "lon": "93.9166667"}, {"lat": "22.8333333", "city": "Haitar", "lon": "93.9166667"}, {"lat": "21.5333333", "city": "Haitu", "lon": "93.5333333"}, {"lat": "22.65", "city": "Haka", "lon": "93.6166667"}, {"lat": "22.6166667", "city": "Haka Sawbuk", "lon": "93.6"}, {"lat": "21.4166667", "city": "Hambong", "lon": "93.9666667"}, {"lat": "23.7", "city": "Hangken", "lon": "93.9333333"}, {"lat": "22.75", "city": "Hanta", "lon": "93.8666667"}, {"lat": "22.75", "city": "Hata", "lon": "93.8666667"}, {"lat": "23.4", "city": "Haupi", "lon": "93.7166667"}, {"lat": "22.3166667", "city": "Hausen", "lon": "93.65"}, {"lat": "22.0166667", "city": "Heintang", "lon": "93.45"}, {"lat": "21.0", "city": "He-oh", "lon": "93.6666667"}, {"lat": "23.3166667", "city": "Hiangawn", "lon": "93.55"}, {"lat": "23.8666667", "city": "Hiangzang", "lon": "93.9833333"}, {"lat": "23.8666667", "city": "Hianzan", "lon": "93.9833333"}, {"lat": "21.3833333", "city": "Hilawng", "lon": "93.8"}, {"lat": "21.3833333", "city": "Hilong", "lon": "93.8"}, {"lat": "23.8666667", "city": "Hiyanzan", "lon": "93.9833333"}, {"lat": "21.0833333", "city": "Hkalwehkaw", "lon": "93.1833333"}, {"lat": "21.0666667", "city": "Hkangnam", "lon": "93.9833333"}, {"lat": "20.8666667", "city": "Hkaukpongyin", "lon": "93.8833333"}, {"lat": "21.5166667", "city": "Hkettaung", "lon": "93.8833333"}, {"lat": "21.1", "city": "Hkit", "lon": "93.9"}, {"lat": "21.0166667", "city": "Hkok", "lon": "93.9666667"}, {"lat": "21.35", "city": "Hkong-im", "lon": "93.8333333"}, {"lat": "21.0833333", "city": "Hkwetha", "lon": "93.8333333"}, {"lat": "21.1333333", "city": "Hlakchawk", "lon": "93.8333333"}, {"lat": "22.4166667", "city": "Hlamphei", "lon": "93.35"}, {"lat": "21.4666667", "city": "Hlatwi", "lon": "93.6166667"}, {"lat": "21.4", "city": "Hlegaung", "lon": "93.9333333"}, {"lat": "21.1666667", "city": "Hlimsang", "lon": "93.6833333"}, {"lat": "21.5166667", "city": "Hliraw", "lon": "93.9833333"}, {"lat": "21.2833333", "city": "Hliring", "lon": "93.65"}, {"lat": "21.6333333", "city": "Hlukdaung", "lon": "93.2666667"}, {"lat": "22.1833333", "city": "Hlungmang", "lon": "93.0833333"}, {"lat": "21.0166667", "city": "Hlup", "lon": "93.45"}, {"lat": "22.6166667", "city": "Hmaihkah", "lon": "93.7833333"}, {"lat": "21.1", "city": "Hmawlaunglung", "lon": "93.7833333"}, {"lat": "20.8166667", "city": "Hmindingyin", "lon": "94.0666667"}, {"lat": "22.8333333", "city": "Hmungsom", "lon": "93.8833333"}, {"lat": "22.6833333", "city": "Hmunhalh", "lon": "93.15"}, {"lat": "22.9666667", "city": "Hmunli", "lon": "93.7666667"}, {"lat": "22.75", "city": "Hmunlipi", "lon": "93.3"}, {"lat": "23.2833333", "city": "Hmunluan", "lon": "93.4666667"}, {"lat": "22.8666667", "city": "Hmunpi", "lon": "93.65"}, {"lat": "21.6", "city": "Hmweletwa", "lon": "92.9666667"}, {"lat": "23.0166667", "city": "Hnahthial", "lon": "93.4"}, {"lat": "21.6", "city": "Hnawte", "lon": "93.3833333"}, {"lat": "22.7", "city": "Hniarlawn", "lon": "93.6166667"}, {"lat": "21.2666667", "city": "Hnum", "lon": "93.8"}, {"lat": "20.9833333", "city": "Hokpongyin", "lon": "93.8333333"}, {"lat": "23.8666667", "city": "Holkhom", "lon": "94.0833333"}, {"lat": "21.0166667", "city": "Hpaihpuk", "lon": "93.85"}, {"lat": "22.2666667", "city": "Hpantnen", "lon": "93.4333333"}, {"lat": "21.3666667", "city": "Hpwi", "lon": "93.35"}, {"lat": "22.7333333", "city": "Hranhring", "lon": "93.6666667"}, {"lat": "22.5333333", "city": "Hrawngvun", "lon": "93.7833333"}, {"lat": "22.7166667", "city": "Hriang Hkan", "lon": "93.2833333"}, {"lat": "22.8333333", "city": "Hrianghnang", "lon": "93.4833333"}, {"lat": "22.7166667", "city": "Hriangkhan", "lon": "93.2833333"}, {"lat": "22.1666667", "city": "Hriangpi", "lon": "93.3666667"}, {"lat": "22.55", "city": "Hriphi", "lon": "93.3666667"}, {"lat": "22.55", "city": "Hripi", "lon": "93.3666667"}, {"lat": "21.5833333", "city": "Htaiwa", "lon": "93.9"}, {"lat": "21.15", "city": "Htangshan", "lon": "92.85"}, {"lat": "21.6666667", "city": "Htangtum", "lon": "93.2166667"}, {"lat": "20.95", "city": "Htanowe", "lon": "93.4"}, {"lat": "21.9", "city": "Htaulang", "lon": "93.45"}, {"lat": "22.75", "city": "Htaw", "lon": "93.2"}, {"lat": "21.0", "city": "Htinlang", "lon": "93.6"}, {"lat": "21.5333333", "city": "Htok-kei", "lon": "93.2333333"}, {"lat": "21.0666667", "city": "Htong Bu", "lon": "93.3833333"}, {"lat": "21.0", "city": "Hungdu", "lon": "93.5666667"}, {"lat": "21.1333333", "city": "Hung", "lon": "93.4"}, {"lat": "21.85", "city": "Hungle", "lon": "93.4166667"}, {"lat": "20.7", "city": "Indwe", "lon": "94.0833333"}, {"lat": "21.5", "city": "In Htang", "lon": "93.25"}, {"lat": "21.45", "city": "Kabaung", "lon": "93.0166667"}, {"lat": "21.1166667", "city": "Kadigyaung", "lon": "92.8333333"}, {"lat": "23.4333333", "city": "Kahgeh", "lon": "93.7666667"}, {"lat": "21.1166667", "city": "Kahla", "lon": "93.0666667"}, {"lat": "21.1666667", "city": "Kaibwi-imnu", "lon": "93.6"}, {"lat": "21.4833333", "city": "Ka-im", "lon": "93.5"}, {"lat": "21.0833333", "city": "Kaingdaung", "lon": "93.0166667"}, {"lat": "21.5833333", "city": "Kala", "lon": "93.3333333"}, {"lat": "21.7166667", "city": "Kaletwa", "lon": "92.8"}, {"lat": "20.8833333", "city": "Kamlo", "lon": "93.5333333"}, {"lat": "21.4", "city": "Kamlwei", "lon": "93.0166667"}, {"lat": "21.4666667", "city": "Kanang", "lon": "93.0666667"}, {"lat": "21.5166667", "city": "Ka Naung", "lon": "93.2333333"}, {"lat": "21.2", "city": "Kanbetlet", "lon": "94.0333333"}, {"lat": "21.7833333", "city": "Kangnaung", "lon": "92.8833333"}, {"lat": "21.2", "city": "Kangu", "lon": "94.0833333"}, {"lat": "20.8833333", "city": "Kan", "lon": "93.8166667"}, {"lat": "21.2", "city": "Kanpetlet", "lon": "94.0333333"}, {"lat": "23.8333333", "city": "Kansau", "lon": "93.5833333"}, {"lat": "22.25", "city": "Kanva", "lon": "93.8166667"}, {"lat": "21.8666667", "city": "Kanwa", "lon": "92.95"}, {"lat": "22.3833333", "city": "Kapi", "lon": "93.65"}, {"lat": "23.3", "city": "Kaptel", "lon": "93.55"}, {"lat": "22.85", "city": "Kapyingyauk", "lon": "93.9666667"}, {"lat": "20.8833333", "city": "Kauk Saing", "lon": "93.5833333"}, {"lat": "21.3166667", "city": "Kaung", "lon": "93.1166667"}, {"lat": "22.8833333", "city": "Kaurang", "lon": "93.8"}, {"lat": "21.5166667", "city": "Kawang", "lon": "92.8"}, {"lat": "21.2333333", "city": "Kawngnoi", "lon": "93.7333333"}, {"lat": "21.3833333", "city": "Kayak", "lon": "93.1666667"}, {"lat": "21.1333333", "city": "Kayimnu", "lon": "93.5833333"}, {"lat": "22.7833333", "city": "Keipaw", "lon": "93.8666667"}, {"lat": "21.65", "city": "Keiyowa", "lon": "92.6833333"}, {"lat": "21.65", "city": "Keiyowo", "lon": "92.6833333"}, {"lat": "23.6333333", "city": "Keltal", "lon": "93.5666667"}, {"lat": "21.65", "city": "Keyowa", "lon": "92.6833333"}, {"lat": "21.6333333", "city": "Khabal", "lon": "93.3"}, {"lat": "20.8833333", "city": "Kha-in", "lon": "93.2166667"}, {"lat": "21.4166667", "city": "Kha", "lon": "93.0666667"}, {"lat": "21.1", "city": "Khakhwei", "lon": "93.0666667"}, {"lat": "21.0833333", "city": "Khamnam", "lon": "93.7"}, {"lat": "21.0166667", "city": "Khamyangtsa", "lon": "93.6666667"}, {"lat": "23.6", "city": "Khamzang", "lon": "93.7666667"}, {"lat": "21.2666667", "city": "Khapan", "lon": "94.0333333"}, {"lat": "20.8166667", "city": "Khauk", "lon": "93.5"}, {"lat": "23.9", "city": "Khaukue", "lon": "93.95"}, {"lat": "21.85", "city": "Khaungtang", "lon": "92.8666667"}, {"lat": "22.9833333", "city": "Khaute", "lon": "93.55"}, {"lat": "21.25", "city": "Khawei", "lon": "92.8"}, {"lat": "23.2833333", "city": "Khawkhlir", "lon": "93.3833333"}, {"lat": "23.2833333", "city": "Khawlhlir", "lon": "93.3833333"}, {"lat": "23.1833333", "city": "Khawpisip", "lon": "93.4333333"}, {"lat": "23.4166667", "city": "Khawzimpi", "lon": "93.4333333"}, {"lat": "23.4333333", "city": "Khawzimte", "lon": "93.4"}, {"lat": "21.3666667", "city": "Kheng", "lon": "93.55"}, {"lat": "22.0166667", "city": "Khenkhar", "lon": "92.8833333"}, {"lat": "23.8166667", "city": "Khiangkan", "lon": "93.95"}, {"lat": "23.05", "city": "Khiangrawn", "lon": "93.5166667"}, {"lat": "23.4833333", "city": "Khiangzang", "lon": "93.9166667"}, {"lat": "22.9833333", "city": "Khitam", "lon": "93.8666667"}, {"lat": "23.0666667", "city": "Khlantsing", "lon": "93.5833333"}, {"lat": "22.3833333", "city": "Khnapi", "lon": "93.65"}, {"lat": "21.55", "city": "Kh\u00f4kchaung", "lon": "94.1"}, {"lat": "21.2833333", "city": "Khonwei", "lon": "92.9"}, {"lat": "21.4666667", "city": "Khreum", "lon": "93.7"}, {"lat": "21.4666667", "city": "Khrevm", "lon": "93.7"}, {"lat": "21.9333333", "city": "Khuabawi", "lon": "93.8"}, {"lat": "23.7", "city": "Khuabem", "lon": "93.5666667"}, {"lat": "22.3833333", "city": "Khuabung", "lon": "93.3166667"}, {"lat": "23.45", "city": "Khuadai", "lon": "93.7"}, {"lat": "23.85", "city": "Khuadam", "lon": "93.5833333"}, {"lat": "23.1833333", "city": "Khuadar", "lon": "93.6"}, {"lat": "22.85", "city": "Khuahlon", "lon": "93.8"}, {"lat": "22.1833333", "city": "Khuahrang", "lon": "93.4833333"}, {"lat": "23.9166667", "city": "Khuaivum", "lon": "93.5166667"}, {"lat": "22.95", "city": "Khualung", "lon": "93.4666667"}, {"lat": "23.65", "city": "Khuamun", "lon": "93.7833333"}, {"lat": "23.8333333", "city": "Khuangkhan", "lon": "93.7833333"}, {"lat": "23.0833333", "city": "Khuang", "lon": "93.7333333"}, {"lat": "22.9833333", "city": "Khuangli", "lon": "93.6333333"}, {"lat": "22.75", "city": "Khuapho", "lon": "93.45"}, {"lat": "22.3833333", "city": "Khuapi", "lon": "93.65"}, {"lat": "23.15", "city": "Khuapual", "lon": "93.6"}, {"lat": "23.2333333", "city": "Khuasak", "lon": "93.75"}, {"lat": "23.0166667", "city": "Khuasum", "lon": "93.5666667"}, {"lat": "22.1333333", "city": "Khuatua", "lon": "93.5333333"}, {"lat": "21.45", "city": "Khuisah", "lon": "93.4666667"}, {"lat": "23.0666667", "city": "Khumhmun", "lon": "93.6333333"}, {"lat": "21.4166667", "city": "Khumpawng", "lon": "93.55"}, {"lat": "23.0166667", "city": "Khumzing", "lon": "93.7833333"}, {"lat": "22.9", "city": "Khupleng", "lon": "93.9166667"}, {"lat": "20.8333333", "city": "Khupyeshe", "lon": "93.35"}, {"lat": "23.6833333", "city": "Kianglam", "lon": "93.7333333"}, {"lat": "21.45", "city": "Kilan", "lon": "92.8166667"}, {"lat": "23.05", "city": "Kimniang", "lon": "93.9"}, {"lat": "21.2166667", "city": "King Htai", "lon": "93.0666667"}, {"lat": "22.8833333", "city": "Klangkhan", "lon": "93.6"}, {"lat": "22.9333333", "city": "Klangkhua", "lon": "93.4333333"}, {"lat": "22.6833333", "city": "Klangklang", "lon": "93.4333333"}, {"lat": "21.55", "city": "Klangpang", "lon": "93.5166667"}, {"lat": "22.9833333", "city": "Klangpi", "lon": "93.3333333"}, {"lat": "22.6166667", "city": "Klangrua", "lon": "93.4166667"}, {"lat": "22.8333333", "city": "Klangte", "lon": "93.45"}, {"lat": "22.95", "city": "Klau", "lon": "93.5833333"}, {"lat": "22.9166667", "city": "Klortang", "lon": "93.8166667"}, {"lat": "22.9166667", "city": "Klorzan", "lon": "93.8833333"}, {"lat": "21.05", "city": "Koiyeng", "lon": "93.9"}, {"lat": "24.05", "city": "Kolnoi", "lon": "93.3833333"}, {"lat": "20.9166667", "city": "Konbwegyi", "lon": "93.4166667"}, {"lat": "23.95", "city": "Kongtal", "lon": "93.8"}, {"lat": "21.3166667", "city": "Kon Lang", "lon": "93.2666667"}, {"lat": "20.8333333", "city": "Kopegyi", "lon": "93.3666667"}, {"lat": "21.2833333", "city": "Kothar", "lon": "93.7"}, {"lat": "21.95", "city": "Kotlang", "lon": "92.9666667"}, {"lat": "21.55", "city": "Krat", "lon": "93.85"}, {"lat": "21.5166667", "city": "Kreup", "lon": "93.6166667"}, {"lat": "21.3166667", "city": "Kru", "lon": "92.7333333"}, {"lat": "21.6833333", "city": "Kuachhi", "lon": "92.7166667"}, {"lat": "22.8666667", "city": "Kuangdawn", "lon": "93.8833333"}, {"lat": "22.6", "city": "Kuhchah", "lon": "93.45"}, {"lat": "21.2", "city": "Kukhkyan", "lon": "93.9833333"}, {"lat": "23.0166667", "city": "Kulzam", "lon": "93.6833333"}, {"lat": "23.7", "city": "Kumngwei", "lon": "94.0666667"}, {"lat": "21.2", "city": "Kumtsawngtsa", "lon": "93.55"}, {"lat": "21.2333333", "city": "Kunlaung", "lon": "93.5666667"}, {"lat": "21.1333333", "city": "Kuwa", "lon": "93.0666667"}, {"lat": "21.7333333", "city": "Kwenam", "lon": "93.6333333"}, {"lat": "21.3333333", "city": "Kwenbo", "lon": "92.8333333"}, {"lat": "21.45", "city": "Kwitha", "lon": "93.8833333"}, {"lat": "21.55", "city": "Kyandauk", "lon": "92.7333333"}, {"lat": "21.5333333", "city": "Kyichaung", "lon": "94.05"}, {"lat": "20.9833333", "city": "Kyidoe", "lon": "93.4"}, {"lat": "21.4333333", "city": "Kyile", "lon": "92.7833333"}, {"lat": "20.95", "city": "Kyindwe", "lon": "93.85"}, {"lat": "21.45", "city": "Kywechaung Yaph\u00e8", "lon": "94.0666667"}, {"lat": "21.6", "city": "Labawa", "lon": "92.6333333"}, {"lat": "21.3333333", "city": "Lahaw", "lon": "92.9166667"}, {"lat": "21.35", "city": "La Haw", "lon": "93.1666667"}, {"lat": "23.3", "city": "Laibung", "lon": "93.8"}, {"lat": "21.35", "city": "Laik Do", "lon": "93.0833333"}, {"lat": "21.3166667", "city": "Laile", "lon": "92.9833333"}, {"lat": "21.95", "city": "Lailenpi", "lon": "93.1166667"}, {"lat": "21.8333333", "city": "Lailente", "lon": "93.1333333"}, {"lat": "23.4", "city": "Lailo", "lon": "93.6333333"}, {"lat": "20.8666667", "city": "Laingbaung", "lon": "93.5"}, {"lat": "21.3", "city": "Laing Lon", "lon": "93.0166667"}, {"lat": "22.4166667", "city": "Laitak", "lon": "93.4333333"}, {"lat": "22.4166667", "city": "Laitet", "lon": "93.4333333"}, {"lat": "23.35", "city": "Laitui", "lon": "93.55"}, {"lat": "21.95", "city": "Laiyo", "lon": "92.7"}, {"lat": "23.1166667", "city": "Laizawl", "lon": "93.5"}, {"lat": "21.4333333", "city": "Lakhine", "lon": "92.95"}, {"lat": "23.6", "city": "Laltar", "lon": "93.5333333"}, {"lat": "23.5333333", "city": "Lamtong", "lon": "93.85"}, {"lat": "22.4833333", "city": "Lamtuk", "lon": "93.8"}, {"lat": "23.35", "city": "Lamzang", "lon": "93.6333333"}, {"lat": "21.2666667", "city": "Langado", "lon": "92.8666667"}, {"lat": "21.7333333", "city": "Langle", "lon": "93.3833333"}, {"lat": "22.4166667", "city": "Langpho", "lon": "93.7166667"}, {"lat": "23.8", "city": "Langphun", "lon": "93.7666667"}, {"lat": "23.2166667", "city": "Langzang", "lon": "93.55"}, {"lat": "21.2", "city": "La Paung", "lon": "93.1166667"}, {"lat": "20.9166667", "city": "Lathton", "lon": "93.2"}, {"lat": "21.45", "city": "Lat Swi", "lon": "93.0666667"}, {"lat": "21.55", "city": "Latyung", "lon": "92.6833333"}, {"lat": "21.3", "city": "Laukkawn", "lon": "93.9166667"}, {"lat": "20.9", "city": "Lauknaw", "lon": "93.8"}, {"lat": "21.2833333", "city": "Laungdan", "lon": "93.35"}, {"lat": "21.2666667", "city": "Laungkadu", "lon": "92.8666667"}, {"lat": "21.2666667", "city": "Laungkahdu", "lon": "92.8666667"}, {"lat": "21.8333333", "city": "Laungkhi", "lon": "92.7833333"}, {"lat": "21.2666667", "city": "Laungkodo", "lon": "92.8666667"}, {"lat": "22.1", "city": "Laungva", "lon": "93.7166667"}, {"lat": "22.55", "city": "Lawklung", "lon": "93.6"}, {"lat": "22.0333333", "city": "Lawngdu", "lon": "92.7"}, {"lat": "22.0833333", "city": "Lawngthongklang", "lon": "93.3666667"}, {"lat": "20.9", "city": "Laywa", "lon": "93.7833333"}, {"lat": "20.8333333", "city": "Lebon", "lon": "93.9333333"}, {"lat": "22.1333333", "city": "Leikang", "lon": "93.4"}, {"lat": "23.6666667", "city": "Leikan", "lon": "94.1"}, {"lat": "21.1", "city": "Leiksa", "lon": "93.45"}, {"lat": "21.4166667", "city": "Leikswe", "lon": "93.5166667"}, {"lat": "22.7166667", "city": "Leilaw", "lon": "93.7333333"}, {"lat": "23.1", "city": "Leilet", "lon": "93.3833333"}, {"lat": "23.35", "city": "Leilom", "lon": "93.6666667"}, {"lat": "21.6333333", "city": "Leingbon", "lon": "92.7"}, {"lat": "21.2833333", "city": "Leingdaung", "lon": "92.8333333"}, {"lat": "21.4333333", "city": "Leingkhine", "lon": "92.85"}, {"lat": "21.9666667", "city": "Leingnang", "lon": "92.7666667"}, {"lat": "21.2333333", "city": "Leing Pung", "lon": "93.1333333"}, {"lat": "21.5166667", "city": "Leingyun", "lon": "92.8666667"}, {"lat": "22.15", "city": "Leipi", "lon": "93.5166667"}, {"lat": "21.6", "city": "Leising", "lon": "93.2833333"}, {"lat": "23.4833333", "city": "Leizang", "lon": "93.65"}, {"lat": "21.6166667", "city": "Lenang", "lon": "93.25"}, {"lat": "22.8166667", "city": "Lenhai", "lon": "93.7166667"}, {"lat": "23.9", "city": "Lenikot", "lon": "93.8"}, {"lat": "22.8666667", "city": "Lente", "lon": "93.7166667"}, {"lat": "21.35", "city": "Letha", "lon": "93.7"}, {"lat": "20.75", "city": "Letpangyin", "lon": "94.1333333"}, {"lat": "23.3166667", "city": "Lianhna", "lon": "93.4333333"}, {"lat": "22.9", "city": "Lianrih", "lon": "93.7666667"}, {"lat": "23.2", "city": "Limkhai", "lon": "93.7"}, {"lat": "21.2666667", "city": "Limpu", "lon": "92.8666667"}, {"lat": "21.4333333", "city": "Lingtui", "lon": "93.3"}, {"lat": "21.1", "city": "Linhu", "lon": "93.1"}, {"lat": "21.9333333", "city": "Liyo", "lon": "92.7666667"}, {"lat": "21.5833333", "city": "Loipang", "lon": "93.9666667"}, {"lat": "20.8833333", "city": "L\u00f4nbo", "lon": "94.0166667"}, {"lat": "21.5833333", "city": "Longat", "lon": "93.3"}, {"lat": "22.2833333", "city": "Longchaui", "lon": "93.2166667"}, {"lat": "22.3166667", "city": "Longlang", "lon": "93.25"}, {"lat": "22.9", "city": "Lonler", "lon": "93.2166667"}, {"lat": "23.25", "city": "Lophei", "lon": "93.75"}, {"lat": "23.05", "city": "Losau", "lon": "93.6"}, {"lat": "22.1", "city": "Lotau", "lon": "93.65"}, {"lat": "22.1", "city": "Lotaw", "lon": "93.65"}, {"lat": "23.0833333", "city": "Lotharawn", "lon": "93.5166667"}, {"lat": "21.3666667", "city": "Lower Kheng", "lon": "93.55"}, {"lat": "23.75", "city": "Luangel", "lon": "93.5"}, {"lat": "21.7166667", "city": "Luivang", "lon": "93.2833333"}, {"lat": "22.6", "city": "Lulpilung", "lon": "93.1833333"}, {"lat": "23.0", "city": "Lumbang", "lon": "93.7"}, {"lat": "22.95", "city": "Lumte", "lon": "93.8"}, {"lat": "23.5333333", "city": "Lumzang", "lon": "93.7333333"}, {"lat": "21.9833333", "city": "Lungdaw", "lon": "93.7666667"}, {"lat": "22.9333333", "city": "Lungding", "lon": "93.3"}, {"lat": "21.1666667", "city": "Lungdu", "lon": "93.5"}, {"lat": "22.35", "city": "Lunghau", "lon": "93.7666667"}, {"lat": "22.6666667", "city": "Lunghnam", "lon": "93.6833333"}, {"lat": "23.0333333", "city": "Lunghrawh", "lon": "93.7333333"}, {"lat": "21.8833333", "city": "Lungka", "lon": "93.5833333"}, {"lat": "22.1833333", "city": "Lungkhin", "lon": "93.5833333"}, {"lat": "22.9", "city": "Lungler", "lon": "93.2166667"}, {"lat": "21.95", "city": "Lungngo", "lon": "93.6"}, {"lat": "21.4666667", "city": "Lungpang", "lon": "93.3"}, {"lat": "21.9666667", "city": "Lungphialia", "lon": "93.4166667"}, {"lat": "22.8666667", "city": "Lungpi", "lon": "93.6333333"}, {"lat": "22.2166667", "city": "Lungrang", "lon": "93.6"}, {"lat": "21.9", "city": "Lungring", "lon": "93.6833333"}, {"lat": "22.15", "city": "Lungsawi", "lon": "93.2"}, {"lat": "21.0333333", "city": "Lungseing", "lon": "93.3833333"}, {"lat": "21.3833333", "city": "Lungsu-loisan", "lon": "93.5666667"}, {"lat": "23.6333333", "city": "Lungtak", "lon": "93.7333333"}, {"lat": "22.2333333", "city": "Lungtar", "lon": "93.75"}, {"lat": "22.3833333", "city": "Lungtlang", "lon": "93.7166667"}, {"lat": "21.65", "city": "Lungtum", "lon": "93.4"}, {"lat": "22.7833333", "city": "Lungzarh", "lon": "93.45"}, {"lat": "21.15", "city": "Lwedup", "lon": "93.8833333"}, {"lat": "20.75", "city": "Mabadu", "lon": "93.4"}, {"lat": "23.7333333", "city": "Madam", "lon": "94.0666667"}, {"lat": "21.3666667", "city": "Madhu", "lon": "93.4666667"}, {"lat": "21.6166667", "city": "Madupi", "lon": "93.4166667"}, {"lat": "20.75", "city": "Mahadu", "lon": "93.4"}, {"lat": "21.05", "city": "Ma Htang", "lon": "93.3666667"}, {"lat": "21.5166667", "city": "Mairai", "lon": "92.75"}, {"lat": "21.9833333", "city": "Mala", "lon": "93.0833333"}, {"lat": "21.1666667", "city": "Mali", "lon": "93.8166667"}, {"lat": "22.5166667", "city": "Malsawm", "lon": "93.8"}, {"lat": "22.85", "city": "Mangkheng", "lon": "93.65"}, {"lat": "21.15", "city": "Mangpu", "lon": "93.0333333"}, {"lat": "21.55", "city": "Mangsan", "lon": "92.7833333"}, {"lat": "21.1166667", "city": "Mang Yung", "lon": "93.1166667"}, {"lat": "21.8166667", "city": "Mantalaing", "lon": "92.8666667"}, {"lat": "21.6", "city": "Matupi", "lon": "93.45"}, {"lat": "21.5666667", "city": "Matute", "lon": "93.45"}, {"lat": "22.2833333", "city": "Maukhua", "lon": "93.75"}, {"lat": "21.3833333", "city": "Maung Bwei", "lon": "93.0666667"}, {"lat": "21.2333333", "city": "Maungdaw", "lon": "94.0833333"}, {"lat": "21.4", "city": "Maung Tu", "lon": "93.0666667"}, {"lat": "23.8333333", "city": "Mauvawm", "lon": "93.5"}, {"lat": "23.8333333", "city": "Mauvum", "lon": "93.5"}, {"lat": "20.85", "city": "Mawgyaung", "lon": "94.0333333"}, {"lat": "20.8833333", "city": "Mawzum", "lon": "93.4166667"}, {"lat": "21.4833333", "city": "Mbawtha", "lon": "93.9166667"}, {"lat": "21.3666667", "city": "Mbingyaw", "lon": "93.95"}, {"lat": "21.1166667", "city": "Mda-imnu", "lon": "93.6833333"}, {"lat": "21.3166667", "city": "Mdap", "lon": "93.9166667"}, {"lat": "21.0666667", "city": "Mdasa", "lon": "93.5833333"}, {"lat": "22.0333333", "city": "Meilangtlang", "lon": "92.7166667"}, {"lat": "22.6166667", "city": "Mengnu", "lon": "93.6666667"}, {"lat": "21.4166667", "city": "Men", "lon": "93.8833333"}, {"lat": "21.3666667", "city": "Meriao", "lon": "92.7333333"}, {"lat": "21.1666667", "city": "Mgwe-imnu", "lon": "93.65"}, {"lat": "21.45", "city": "Mgwi", "lon": "93.8333333"}, {"lat": "21.3833333", "city": "Mhaw", "lon": "93.95"}, {"lat": "21.6", "city": "Mhreng", "lon": "93.95"}, {"lat": "21.6", "city": "Milawa", "lon": "92.9666667"}, {"lat": "23.6", "city": "Mimbil", "lon": "93.9"}, {"lat": "21.3666667", "city": "Mindat", "lon": "93.9833333"}, {"lat": "21.15", "city": "Min Kraing", "lon": "93.1166667"}, {"lat": "21.3", "city": "Mitu", "lon": "93.4333333"}, {"lat": "21.1333333", "city": "Mkai-imnu", "lon": "93.5833333"}, {"lat": "21.2833333", "city": "Mkyai", "lon": "93.9833333"}, {"lat": "21.4", "city": "Mkyam-im", "lon": "93.9"}, {"lat": "21.2833333", "city": "Mleng", "lon": "93.8666667"}, {"lat": "23.4666667", "city": "Mongken", "lon": "93.7"}, {"lat": "23.45", "city": "Monglang", "lon": "93.9"}, {"lat": "21.15", "city": "Msang", "lon": "93.7"}, {"lat": "21.45", "city": "Mshawng", "lon": "93.85"}, {"lat": "21.2166667", "city": "Mshwe", "lon": "93.8"}, {"lat": "21.5333333", "city": "Mthongnu", "lon": "93.9833333"}, {"lat": "21.5166667", "city": "Mthu", "lon": "93.9"}, {"lat": "21.3166667", "city": "Mthway", "lon": "93.6833333"}, {"lat": "23.3166667", "city": "Muaizawl", "lon": "93.5833333"}, {"lat": "23.2", "city": "Mualbem", "lon": "93.6666667"}, {"lat": "22.8666667", "city": "Mualkai", "lon": "93.45"}, {"lat": "23.6833333", "city": "Mualkawi", "lon": "93.65"}, {"lat": "23.4", "city": "Mualnuam", "lon": "93.5166667"}, {"lat": "23.75", "city": "Mualpi", "lon": "93.7333333"}, {"lat": "21.0166667", "city": "Muchintang", "lon": "93.7"}, {"lat": "21.0666667", "city": "Muhlaung", "lon": "93.6333333"}, {"lat": "23.3833333", "city": "Muizawl", "lon": "93.5666667"}, {"lat": "22.9", "city": "Murang", "lon": "93.85"}, {"lat": "21.1666667", "city": "Mwedon", "lon": "94.0666667"}, {"lat": "21.35", "city": "Mwei Shi", "lon": "93.2"}, {"lat": "21.2166667", "city": "Mwendaung", "lon": "92.8833333"}, {"lat": "20.7", "city": "Nab\u00e8d\u00f4n", "lon": "94.15"}, {"lat": "22.6833333", "city": "Nabual", "lon": "93.65"}, {"lat": "22.0166667", "city": "Nabung", "lon": "93.8"}, {"lat": "22.3333333", "city": "Naling", "lon": "93.2333333"}, {"lat": "21.2666667", "city": "Nang Hat", "lon": "93.0833333"}, {"lat": "20.8", "city": "Nan-o", "lon": "94.0333333"}, {"lat": "22.1833333", "city": "Naring", "lon": "93.4333333"}, {"lat": "21.5833333", "city": "Nawt", "lon": "93.8833333"}, {"lat": "22.6666667", "city": "Nengrang", "lon": "93.5"}, {"lat": "21.4666667", "city": "Ngadet", "lon": "92.7666667"}, {"lat": "21.6166667", "city": "Ngafu", "lon": "93.3333333"}, {"lat": "23.05", "city": "Ngailan", "lon": "93.4"}, {"lat": "22.2333333", "city": "Ngaiphaipi", "lon": "93.25"}, {"lat": "22.2666667", "city": "Ngaiphaite", "lon": "93.3166667"}, {"lat": "22.2333333", "city": "Ngaipnaipi", "lon": "93.25"}, {"lat": "22.9166667", "city": "Ngaizam", "lon": "93.7666667"}, {"lat": "23.5333333", "city": "Ngalbual", "lon": "93.55"}, {"lat": "21.6833333", "city": "Ngaleng", "lon": "93.4166667"}, {"lat": "20.7666667", "city": "Ngalwegyin", "lon": "94.1166667"}, {"lat": "23.1833333", "city": "Ngalzang", "lon": "93.85"}, {"lat": "23.5", "city": "Ngamngai", "lon": "93.7333333"}, {"lat": "21.1", "city": "Ngamyinthaung", "lon": "93.0166667"}, {"lat": "21.5166667", "city": "Ngasha", "lon": "92.75"}, {"lat": "20.9166667", "city": "Ngashaung", "lon": "93.75"}, {"lat": "21.4666667", "city": "Ngatgyaungwa", "lon": "92.6666667"}, {"lat": "20.6833333", "city": "Ngatkyiywa", "lon": "94.1166667"}, {"lat": "21.05", "city": "Ngayaung", "lon": "93.6833333"}, {"lat": "23.55", "city": "Ngente", "lon": "93.45"}, {"lat": "21.2", "city": "Nghka", "lon": "93.8666667"}, {"lat": "20.8833333", "city": "Ngunsaing", "lon": "93.8166667"}, {"lat": "21.1166667", "city": "Ngweiwa", "lon": "93.0333333"}, {"lat": "23.1", "city": "Nimzawl", "lon": "93.9"}, {"lat": "21.8833333", "city": "Nitu", "lon": "92.7833333"}, {"lat": "21.0833333", "city": "Nlung-imnu", "lon": "93.7666667"}, {"lat": "23.45", "city": "Nonglang", "lon": "93.9"}, {"lat": "21.85", "city": "Numbo", "lon": "92.7666667"}, {"lat": "21.1333333", "city": "Nyung-imnu", "lon": "93.75"}, {"lat": "21.2166667", "city": "Oisi", "lon": "93.3"}, {"lat": "21.4833333", "city": "Omswe", "lon": "93.45"}, {"lat": "21.25", "city": "On Dwei", "lon": "93.3"}, {"lat": "21.3166667", "city": "Ong", "lon": "93.7666667"}, {"lat": "21.3", "city": "Paboh", "lon": "93.1333333"}, {"lat": "21.4", "city": "Pa Boi", "lon": "93.25"}, {"lat": "23.6333333", "city": "Paidim", "lon": "94.0166667"}, {"lat": "21.6", "city": "Paihang", "lon": "93.2666667"}, {"lat": "21.5666667", "city": "Paingdi", "lon": "94.0166667"}, {"lat": "20.8833333", "city": "Paing Sin", "lon": "93.4166667"}, {"lat": "21.5", "city": "Palan", "lon": "94.0166667"}, {"lat": "21.3", "city": "Paletwa", "lon": "92.85"}, {"lat": "21.05", "city": "Pangdag", "lon": "93.9666667"}, {"lat": "21.4", "city": "Panglei", "lon": "92.8"}, {"lat": "24.0666667", "city": "Pangmoi", "lon": "93.3666667"}, {"lat": "24.0666667", "city": "Pangmol", "lon": "93.3666667"}, {"lat": "22.0833333", "city": "Pangrang", "lon": "93.0333333"}, {"lat": "23.2166667", "city": "Pangsak", "lon": "93.6"}, {"lat": "21.3", "city": "Pang Ting", "lon": "93.25"}, {"lat": "21.45", "city": "Pangtui", "lon": "93.4"}, {"lat": "22.1", "city": "Pangva", "lon": "93.7833333"}, {"lat": "23.6", "city": "Pangzang", "lon": "93.5833333"}, {"lat": "21.0166667", "city": "Pat Sein", "lon": "93.4"}, {"lat": "21.6333333", "city": "Patsi", "lon": "93.1833333"}, {"lat": "21.1", "city": "Paungbin", "lon": "94.0166667"}, {"lat": "21.45", "city": "Pei Lai", "lon": "93.25"}, {"lat": "21.2166667", "city": "Pengwa", "lon": "93.3"}, {"lat": "20.9666667", "city": "Petoe", "lon": "93.6166667"}, {"lat": "21.6", "city": "Pewachaung", "lon": "94.0666667"}, {"lat": "23.3166667", "city": "Phaileng", "lon": "93.65"}, {"lat": "22.7", "city": "Phai", "lon": "93.6666667"}, {"lat": "22.3166667", "city": "Phaipha", "lon": "93.5833333"}, {"lat": "22.5333333", "city": "Phaipi", "lon": "93.3333333"}, {"lat": "23.95", "city": "Phaisat", "lon": "93.6833333"}, {"lat": "23.6", "city": "Phaitu", "lon": "93.7333333"}, {"lat": "21.6833333", "city": "Phaivawn", "lon": "93.8"}, {"lat": "23.4666667", "city": "Phaizah", "lon": "93.5166667"}, {"lat": "23.0833333", "city": "Phaizawl", "lon": "93.7166667"}, {"lat": "22.25", "city": "Phaizawng", "lon": "93.6"}, {"lat": "22.6833333", "city": "Pharawn", "lon": "93.7166667"}, {"lat": "21.6666667", "city": "Phenaing", "lon": "93.4333333"}, {"lat": "22.8666667", "city": "Phungkah", "lon": "93.2333333"}, {"lat": "22.7666667", "city": "Phungrilh", "lon": "93.4333333"}, {"lat": "23.2833333", "city": "Phunom", "lon": "93.7333333"}, {"lat": "23.25", "city": "Phunte", "lon": "93.4"}, {"lat": "22.5833333", "city": "Piel-um", "lon": "93.8"}, {"lat": "23.2833333", "city": "Pimpi", "lon": "93.8666667"}, {"lat": "21.1666667", "city": "Pinlaung", "lon": "93.85"}, {"lat": "21.9833333", "city": "Pintia", "lon": "93.2"}, {"lat": "21.45", "city": "Pome", "lon": "92.7166667"}, {"lat": "21.05", "city": "Pongdaw", "lon": "93.45"}, {"lat": "20.75", "city": "Positkaung", "lon": "94.1333333"}, {"lat": "21.2", "city": "Praunglaung", "lon": "93.0333333"}, {"lat": "21.9833333", "city": "Priaung", "lon": "92.7333333"}, {"lat": "21.45", "city": "Prung", "lon": "93.7333333"}, {"lat": "21.15", "city": "Pru Tun", "lon": "93.0833333"}, {"lat": "22.4833333", "city": "Pumlan", "lon": "93.7166667"}, {"lat": "20.9166667", "city": "Pu Saing", "lon": "93.3666667"}, {"lat": "21.3666667", "city": "Pushi", "lon": "93.55"}, {"lat": "20.95", "city": "Puywa", "lon": "93.7833333"}, {"lat": "21.05", "city": "Pyaw-imnu", "lon": "93.7666667"}, {"lat": "21.8", "city": "Radui Khuathar", "lon": "93.4166667"}, {"lat": "21.3", "city": "Raik Don", "lon": "93.0166667"}, {"lat": "21.25", "city": "Raing Ba", "lon": "93.0833333"}, {"lat": "22.0833333", "city": "Raithaw", "lon": "93.0833333"}, {"lat": "23.0333333", "city": "Ralawm", "lon": "93.85"}, {"lat": "22.8166667", "city": "Ralawn", "lon": "93.7833333"}, {"lat": "22.95", "city": "Ralpel", "lon": "93.1833333"}, {"lat": "21.75", "city": "Ramaw", "lon": "92.75"}, {"lat": "22.8166667", "city": "Ramkhlau", "lon": "93.5666667"}, {"lat": "21.8", "city": "Ramrik", "lon": "92.7166667"}, {"lat": "21.9833333", "city": "Ramsai", "lon": "93.4"}, {"lat": "20.95", "city": "Ramshin", "lon": "93.6333333"}, {"lat": "21.6166667", "city": "Ranlaung", "lon": "93.7833333"}, {"lat": "21.05", "city": "Ranze", "lon": "93.7"}, {"lat": "21.3", "city": "Rapdok", "lon": "93.5833333"}, {"lat": "21.8166667", "city": "Raso", "lon": "93.4333333"}, {"lat": "21.2666667", "city": "Rat Ki", "lon": "93.0"}, {"lat": "22.0166667", "city": "Ratu", "lon": "93.2833333"}, {"lat": "21.6333333", "city": "Rawnglaung", "lon": "93.8"}, {"lat": "21.55", "city": "Rawt", "lon": "93.8833333"}, {"lat": "22.5166667", "city": "Rawvan", "lon": "93.75"}, {"lat": "22.5166667", "city": "Rawva", "lon": "93.75"}, {"lat": "22.05", "city": "Razua", "lon": "93.4166667"}, {"lat": "21.1333333", "city": "Reing Hat", "lon": "93.2"}, {"lat": "21.2", "city": "Ridaung", "lon": "92.8166667"}, {"lat": "21.7", "city": "Ridwi", "lon": "93.9"}, {"lat": "22.7666667", "city": "Rinpi", "lon": "93.7666667"}, {"lat": "22.7666667", "city": "Rinte", "lon": "93.7833333"}, {"lat": "21.3666667", "city": "Rokthang", "lon": "93.3166667"}, {"lat": "21.5166667", "city": "Ro", "lon": "93.7"}, {"lat": "23.0333333", "city": "Roshi", "lon": "93.5"}, {"lat": "22.8333333", "city": "Ruabuk", "lon": "93.1666667"}, {"lat": "22.8166667", "city": "Ruakhua", "lon": "93.2333333"}, {"lat": "21.75", "city": "Ruava", "lon": "93.8666667"}, {"lat": "22.8833333", "city": "Rulbu", "lon": "93.5"}, {"lat": "21.35", "city": "Rung", "lon": "93.3333333"}, {"lat": "20.95", "city": "Sabaung", "lon": "93.2"}, {"lat": "22.0833333", "city": "Sabawngpi", "lon": "93.1333333"}, {"lat": "22.15", "city": "Sabawngte", "lon": "93.1166667"}, {"lat": "23.2166667", "city": "Saek", "lon": "93.45"}, {"lat": "21.6333333", "city": "Sahak", "lon": "92.6333333"}, {"lat": "20.9833333", "city": "Saidu", "lon": "93.5166667"}, {"lat": "23.1833333", "city": "Saihmun", "lon": "93.55"}, {"lat": "23.3833333", "city": "Saino", "lon": "93.85"}, {"lat": "23.7833333", "city": "Saipimual", "lon": "93.5166667"}, {"lat": "22.8333333", "city": "Saisichauk", "lon": "93.2"}, {"lat": "22.1166667", "city": "Saitlai", "lon": "93.6"}, {"lat": "23.3", "city": "Saizang", "lon": "93.65"}, {"lat": "23.7166667", "city": "Sakawng", "lon": "93.6166667"}, {"lat": "22.4666667", "city": "Sakta", "lon": "93.6333333"}, {"lat": "22.65", "city": "Salen", "lon": "93.3"}, {"lat": "22.1666667", "city": "Sale", "lon": "93.4166667"}, {"lat": "23.55", "city": "Salzang", "lon": "93.7333333"}, {"lat": "21.3", "city": "Sami", "lon": "93.1"}, {"lat": "21.35", "city": "Samphrao", "lon": "92.7666667"}, {"lat": "21.6666667", "city": "Sanglang", "lon": "92.7666667"}, {"lat": "21.8666667", "city": "Sangseh", "lon": "93.7666667"}, {"lat": "21.5", "city": "Sangtak", "lon": "93.3166667"}, {"lat": "22.2666667", "city": "Sangva", "lon": "93.85"}, {"lat": "21.4166667", "city": "San", "lon": "94.0833333"}, {"lat": "21.4", "city": "Sa Phwei", "lon": "93.1"}, {"lat": "23.15", "city": "Satawn", "lon": "93.45"}, {"lat": "21.3166667", "city": "Satchida", "lon": "94.0"}, {"lat": "22.1", "city": "Sathawng", "lon": "93.5"}, {"lat": "21.5833333", "city": "Satpaung", "lon": "92.7333333"}, {"lat": "21.2833333", "city": "Satwei", "lon": "92.7333333"}, {"lat": "21.5166667", "city": "Satyaungwa", "lon": "92.65"}, {"lat": "20.8333333", "city": "Saukdin", "lon": "93.55"}, {"lat": "20.8166667", "city": "Saungau", "lon": "93.55"}, {"lat": "21.45", "city": "Saung Bauk", "lon": "93.15"}, {"lat": "21.2666667", "city": "Saung Hat", "lon": "93.2"}, {"lat": "23.7333333", "city": "Saungpek", "lon": "93.9833333"}, {"lat": "21.9166667", "city": "Saungso", "lon": "92.85"}, {"lat": "22.55", "city": "Sawngthia", "lon": "93.4333333"}, {"lat": "22.55", "city": "Sawngthla", "lon": "93.4333333"}, {"lat": "22.1666667", "city": "Sawnkyun", "lon": "93.9166667"}, {"lat": "22.0333333", "city": "Sawti", "lon": "93.3666667"}, {"lat": "22.1", "city": "Sawtor", "lon": "93.5"}, {"lat": "21.2333333", "city": "Sayo", "lon": "94.0666667"}, {"lat": "21.2666667", "city": "Segyaung", "lon": "92.7333333"}, {"lat": "21.0", "city": "Seiksa", "lon": "93.35"}, {"lat": "21.2833333", "city": "Seinzan", "lon": "92.9"}, {"lat": "23.7666667", "city": "Seitual", "lon": "93.6"}, {"lat": "23.65", "city": "Seksih", "lon": "93.9"}, {"lat": "23.9", "city": "Selbung", "lon": "93.4166667"}, {"lat": "21.95", "city": "Sempi", "lon": "93.65"}, {"lat": "23.85", "city": "Senam", "lon": "93.75"}, {"lat": "21.1", "city": "Sengnam", "lon": "93.95"}, {"lat": "23.9166667", "city": "Serpui", "lon": "93.4166667"}, {"lat": "21.6", "city": "Shadeing", "lon": "93.1833333"}, {"lat": "21.1333333", "city": "Shaowa", "lon": "92.95"}, {"lat": "21.35", "city": "Sheet", "lon": "93.7333333"}, {"lat": "21.25", "city": "Sheing Htang", "lon": "93.25"}, {"lat": "21.2", "city": "Shekawktu", "lon": "93.85"}, {"lat": "21.4166667", "city": "Shet", "lon": "93.95"}, {"lat": "23.2", "city": "Shiallam", "lon": "93.45"}, {"lat": "23.8", "city": "Shiallup", "lon": "94.0166667"}, {"lat": "21.45", "city": "Shihmwe", "lon": "93.95"}, {"lat": "21.3166667", "city": "Shileh Khuathar", "lon": "93.3833333"}, {"lat": "21.4", "city": "Shileh", "lon": "93.4"}, {"lat": "22.4666667", "city": "Shimpi", "lon": "93.9166667"}, {"lat": "21.3333333", "city": "Shim", "lon": "93.9333333"}, {"lat": "21.7166667", "city": "Shivalaung", "lon": "93.75"}, {"lat": "21.6333333", "city": "Shivanu", "lon": "93.7"}, {"lat": "22.7833333", "city": "Shopun", "lon": "93.3833333"}, {"lat": "21.2833333", "city": "Shu Hung", "lon": "93.2"}, {"lat": "22.9166667", "city": "Shunkla", "lon": "93.6333333"}, {"lat": "21.45", "city": "Shuntwi", "lon": "93.5333333"}, {"lat": "22.25", "city": "Shurkhua", "lon": "93.6333333"}, {"lat": "22.25", "city": "Shurkwa", "lon": "93.6333333"}, {"lat": "21.4666667", "city": "Shweban", "lon": "92.9166667"}, {"lat": "21.6", "city": "Shwiaung", "lon": "92.7166667"}, {"lat": "21.15", "city": "Shwidu", "lon": "93.85"}, {"lat": "22.7", "city": "Sialam", "lon": "93.15"}, {"lat": "23.8833333", "city": "Sialmong", "lon": "93.65"}, {"lat": "23.5333333", "city": "Sialthaw", "lon": "93.9"}, {"lat": "21.95", "city": "Siang-ngo", "lon": "93.4333333"}, {"lat": "23.4166667", "city": "Siangpikot", "lon": "93.5666667"}, {"lat": "22.1", "city": "Siasih", "lon": "93.5166667"}, {"lat": "22.1166667", "city": "Siatlai", "lon": "93.6"}, {"lat": "21.95", "city": "Siei", "lon": "92.7333333"}, {"lat": "22.6833333", "city": "Sih-hai", "lon": "93.8333333"}, {"lat": "22.8166667", "city": "Sih-hmuh", "lon": "93.3"}, {"lat": "22.8", "city": "Sihsang", "lon": "93.45"}, {"lat": "22.8166667", "city": "Simpi", "lon": "93.75"}, {"lat": "23.0", "city": "Simtsing", "lon": "93.7833333"}, {"lat": "23.05", "city": "Simzawl", "lon": "93.6833333"}, {"lat": "21.2", "city": "Sing Aik", "lon": "93.0666667"}, {"lat": "23.75", "city": "Singgel", "lon": "93.55"}, {"lat": "21.3833333", "city": "Sin Htang", "lon": "93.2166667"}, {"lat": "22.6166667", "city": "Sinkhua", "lon": "93.7333333"}, {"lat": "22.4", "city": "Sintlang", "lon": "93.6333333"}, {"lat": "23.9166667", "city": "Sipek", "lon": "93.8833333"}, {"lat": "21.55", "city": "Si Rang", "lon": "93.25"}, {"lat": "20.9666667", "city": "Sitwi", "lon": "93.65"}, {"lat": "20.8833333", "city": "Sokchaung", "lon": "93.2666667"}, {"lat": "21.1666667", "city": "Son Laing", "lon": "93.1333333"}, {"lat": "22.7833333", "city": "Sopum", "lon": "93.3833333"}, {"lat": "23.9666667", "city": "Suangbem", "lon": "93.3666667"}, {"lat": "23.35", "city": "Suangdaw", "lon": "93.9"}, {"lat": "23.9", "city": "Suanghawih", "lon": "93.6166667"}, {"lat": "23.7333333", "city": "Suangpek", "lon": "93.9833333"}, {"lat": "23.15", "city": "Suangphei", "lon": "93.8333333"}, {"lat": "23.3", "city": "Suangpi", "lon": "93.7166667"}, {"lat": "23.55", "city": "Suangsang", "lon": "93.55"}, {"lat": "23.25", "city": "Suangzang", "lon": "93.55"}, {"lat": "20.85", "city": "Sub\u00f4kkyin", "lon": "94.0333333"}, {"lat": "22.85", "city": "Sumhrang", "lon": "93.7166667"}, {"lat": "21.9", "city": "Sumsen", "lon": "93.25"}, {"lat": "22.3333333", "city": "Sumsi", "lon": "93.7"}, {"lat": "21.1", "city": "Sundaung", "lon": "94.0333333"}, {"lat": "23.25", "city": "Surbung", "lon": "93.4333333"}, {"lat": "22.3", "city": "Surngen", "lon": "93.4666667"}, {"lat": "20.75", "city": "Tagaunggyin", "lon": "94.1"}, {"lat": "21.2", "city": "Tai-imnu", "lon": "93.6833333"}, {"lat": "21.3", "city": "Taing Wei", "lon": "92.8333333"}, {"lat": "22.95", "city": "Taison", "lon": "93.7166667"}, {"lat": "20.7166667", "city": "Tal\u00e8gyin", "lon": "94.15"}, {"lat": "23.6333333", "city": "Talek", "lon": "93.5166667"}, {"lat": "22.8666667", "city": "Tal", "lon": "93.5666667"}, {"lat": "23.7666667", "city": "Talzang", "lon": "93.7833333"}, {"lat": "21.1666667", "city": "Ta Naw", "lon": "93.1833333"}, {"lat": "21.9166667", "city": "Tanbeiywa", "lon": "92.7666667"}, {"lat": "21.2666667", "city": "Tang Bwei", "lon": "93.1333333"}, {"lat": "21.8833333", "city": "Tangin", "lon": "93.4166667"}, {"lat": "21.8666667", "city": "Tangkuwa", "lon": "92.8833333"}, {"lat": "21.2", "city": "Tang Raung", "lon": "93.2"}, {"lat": "23.9166667", "city": "Tangsiat", "lon": "93.9666667"}, {"lat": "23.95", "city": "Tangsih", "lon": "93.7666667"}, {"lat": "23.4333333", "city": "Tangzang", "lon": "93.7166667"}, {"lat": "21.6833333", "city": "Tarawaing", "lon": "92.7666667"}, {"lat": "21.2833333", "city": "Taung Bwei", "lon": "93.05"}, {"lat": "21.4", "city": "Taung Kai", "lon": "93.2"}, {"lat": "21.45", "city": "Taung Lai", "lon": "93.1666667"}, {"lat": "22.9833333", "city": "Taungteik", "lon": "93.8"}, {"lat": "21.7833333", "city": "Tawngbu", "lon": "93.2"}, {"lat": "21.5666667", "city": "Tawnggon", "lon": "93.9666667"}, {"lat": "21.3666667", "city": "Teimagyaung Pya", "lon": "92.8"}, {"lat": "21.5833333", "city": "Teiyar", "lon": "93.55"}, {"lat": "23.4", "city": "Teklui", "lon": "93.6833333"}, {"lat": "21.4666667", "city": "Telaung", "lon": "94.0"}, {"lat": "21.8166667", "city": "Tengai", "lon": "93.4666667"}, {"lat": "22.2166667", "city": "Thangaw", "lon": "93.4666667"}, {"lat": "23.2833333", "city": "Thangnuai", "lon": "93.75"}, {"lat": "21.6666667", "city": "Thangping", "lon": "93.3"}, {"lat": "22.85", "city": "Thangzang", "lon": "93.2666667"}, {"lat": "22.8833333", "city": "Thanhniar", "lon": "93.6666667"}, {"lat": "22.75", "city": "Thau", "lon": "93.2"}, {"lat": "21.4", "city": "Thawtui", "lon": "93.3166667"}, {"lat": "23.2", "city": "Theizang", "lon": "93.8833333"}, {"lat": "21.1833333", "city": "Themawa", "lon": "92.9333333"}, {"lat": "21.85", "city": "Thesi", "lon": "93.65"}, {"lat": "22.4666667", "city": "Thetta", "lon": "93.6333333"}, {"lat": "22.9833333", "city": "Thinghual", "lon": "93.4166667"}, {"lat": "23.4333333", "city": "Thinglei", "lon": "93.4833333"}, {"lat": "23.2333333", "city": "Thingoang", "lon": "93.4166667"}, {"lat": "21.25", "city": "Thinpa", "lon": "94.0666667"}, {"lat": "21.7166667", "city": "Thi-ui", "lon": "93.35"}, {"lat": "22.7", "city": "Thlualam", "lon": "93.3833333"}, {"lat": "21.4166667", "city": "Thuio", "lon": "92.7333333"}, {"lat": "23.2333333", "city": "Thuklai", "lon": "93.7333333"}, {"lat": "21.4", "city": "Thungna", "lon": "93.45"}, {"lat": "22.8666667", "city": "Thungthul", "lon": "93.75"}, {"lat": "21.3666667", "city": "Thung", "lon": "93.7166667"}, {"lat": "22.9166667", "city": "Tiadai", "lon": "93.4666667"}, {"lat": "23.1333333", "city": "Tibual", "lon": "93.45"}, {"lat": "22.15", "city": "Tichunglailen", "lon": "93.2833333"}, {"lat": "23.3666667", "city": "Tiddim", "lon": "93.6666667"}, {"lat": "23.3666667", "city": "Tidein", "lon": "93.6666667"}, {"lat": "23.3833333", "city": "Tidil", "lon": "93.4666667"}, {"lat": "22.9", "city": "Tihbual", "lon": "93.4333333"}, {"lat": "22.7666667", "city": "Tihpul", "lon": "93.65"}, {"lat": "22.9666667", "city": "Tikhaunglum", "lon": "93.4333333"}, {"lat": "22.6666667", "city": "Tikir", "lon": "93.1833333"}, {"lat": "22.8166667", "city": "Tikoal", "lon": "93.6833333"}, {"lat": "21.8833333", "city": "Tila", "lon": "93.5"}, {"lat": "22.8833333", "city": "Tili", "lon": "93.5833333"}, {"lat": "22.4666667", "city": "Tinan", "lon": "93.7833333"}, {"lat": "21.2166667", "city": "Ting Kung", "lon": "93.4833333"}, {"lat": "21.35", "city": "Ting Mwei", "lon": "93.1333333"}, {"lat": "22.05", "city": "Tini", "lon": "93.5"}, {"lat": "21.9", "city": "Tinnam", "lon": "93.2333333"}, {"lat": "23.1166667", "city": "Tisan", "lon": "93.7666667"}, {"lat": "21.9666667", "city": "Tisi", "lon": "93.2666667"}, {"lat": "23.0833333", "city": "Tlangkawi", "lon": "93.4166667"}, {"lat": "23.0", "city": "Tlanglao", "lon": "93.3333333"}, {"lat": "22.6666667", "city": "Tlangtlang", "lon": "93.4"}, {"lat": "22.5", "city": "Tluangram", "lon": "93.2"}, {"lat": "21.1833333", "city": "Tocho", "lon": "93.1333333"}, {"lat": "21.65", "city": "Tokke", "lon": "92.7666667"}, {"lat": "24.0166667", "city": "Tongchin", "lon": "93.3666667"}, {"lat": "21.25", "city": "T\u00f4nkyi", "lon": "94.0166667"}, {"lat": "21.2666667", "city": "Tonng\u00e8", "lon": "94.0"}, {"lat": "23.6", "city": "Tonzang", "lon": "93.7"}, {"lat": "23.6", "city": "T\u00f4nzan", "lon": "93.7"}, {"lat": "21.4833333", "city": "Topui", "lon": "92.65"}, {"lat": "23.55", "city": "Tsauleng", "lon": "93.4833333"}, {"lat": "23.1", "city": "Tsawngthu", "lon": "93.5833333"}, {"lat": "22.95", "city": "Tserhmun", "lon": "93.5833333"}, {"lat": "21.45", "city": "Tsuthmwe", "lon": "93.9833333"}, {"lat": "23.4833333", "city": "Tualmu", "lon": "93.7"}, {"lat": "23.4166667", "city": "Tualzang", "lon": "93.65"}, {"lat": "23.8666667", "city": "Tuambual", "lon": "93.8"}, {"lat": "23.4", "city": "Tuibel", "lon": "93.6166667"}, {"lat": "23.35", "city": "Tuibial", "lon": "93.8666667"}, {"lat": "23.7833333", "city": "Tuimang", "lon": "93.4833333"}, {"lat": "23.85", "city": "Tuimui", "lon": "93.4333333"}, {"lat": "23.85", "city": "Tuimu", "lon": "93.4333333"}, {"lat": "23.5833333", "city": "Tuipi", "lon": "93.6"}, {"lat": "23.25", "city": "Tuisang", "lon": "93.85"}, {"lat": "23.3333333", "city": "Tuisau", "lon": "93.8"}, {"lat": "21.4666667", "city": "Tuiship Khuathar", "lon": "93.4"}, {"lat": "21.4833333", "city": "Tuiship", "lon": "93.3833333"}, {"lat": "23.6666667", "city": "Tuitang", "lon": "93.5333333"}, {"lat": "23.3333333", "city": "Tuitaw", "lon": "93.5"}, {"lat": "23.4833333", "city": "Tuithang", "lon": "93.5833333"}, {"lat": "23.6166667", "city": "Tuitum", "lon": "93.7"}, {"lat": "22.8833333", "city": "Tulung", "lon": "93.9333333"}, {"lat": "21.6666667", "city": "Tumtieo", "lon": "93.3666667"}, {"lat": "23.5666667", "city": "Tung Taung", "lon": "93.7"}, {"lat": "23.5666667", "city": "Tungtuang", "lon": "93.7"}, {"lat": "23.5166667", "city": "Tungzang", "lon": "93.6"}, {"lat": "23.5166667", "city": "Tunzan", "lon": "93.6"}, {"lat": "21.6833333", "city": "Turawine", "lon": "92.75"}, {"lat": "24.0166667", "city": "Twelkhiang", "lon": "93.4333333"}, {"lat": "21.55", "city": "Twiding", "lon": "93.7333333"}, {"lat": "21.35", "city": "Twili", "lon": "93.9"}, {"lat": "21.3166667", "city": "Twipang", "lon": "92.7166667"}, {"lat": "21.2166667", "city": "Twi Shan", "lon": "93.0333333"}, {"lat": "21.3666667", "city": "Uisi", "lon": "93.2666667"}, {"lat": "21.3", "city": "U Kang", "lon": "93.1666667"}, {"lat": "21.3666667", "city": "Upi", "lon": "92.6833333"}, {"lat": "21.3666667", "city": "Upper Kheng", "lon": "93.6"}, {"lat": "21.6833333", "city": "Uthai", "lon": "92.85"}, {"lat": "21.4666667", "city": "Vaga", "lon": "93.9333333"}, {"lat": "21.5333333", "city": "Vaihum", "lon": "93.3"}, {"lat": "23.85", "city": "Vaivet", "lon": "93.4666667"}, {"lat": "21.5333333", "city": "Valaungpi", "lon": "93.35"}, {"lat": "23.3666667", "city": "Valvum", "lon": "93.7"}, {"lat": "22.6833333", "city": "Vambai", "lon": "93.3333333"}, {"lat": "22.6", "city": "Vamkua", "lon": "93.2333333"}, {"lat": "21.55", "city": "Vangkai", "lon": "93.3"}, {"lat": "23.9333333", "city": "Vanglai", "lon": "93.5833333"}, {"lat": "23.25", "city": "Vangte", "lon": "93.6833333"}, {"lat": "22.65", "city": "Vanha", "lon": "93.8166667"}, {"lat": "22.65", "city": "Vanhna", "lon": "93.8166667"}, {"lat": "22.75", "city": "Vaniam", "lon": "93.6166667"}, {"lat": "22.5333333", "city": "Vanklang", "lon": "93.8333333"}, {"lat": "22.85", "city": "Vanzang", "lon": "93.35"}, {"lat": "23.1833333", "city": "Vawklak", "lon": "93.75"}, {"lat": "21.6", "city": "Vawlaung", "lon": "93.8833333"}, {"lat": "23.0833333", "city": "Vawmhalkhum", "lon": "93.4666667"}, {"lat": "21.4833333", "city": "Vawmthu", "lon": "93.95"}, {"lat": "21.35", "city": "Vawm", "lon": "93.95"}, {"lat": "23.15", "city": "Vazang", "lon": "93.6833333"}, {"lat": "21.6333333", "city": "Vithu", "lon": "93.4833333"}, {"lat": "23.4166667", "city": "Vommual", "lon": "93.8333333"}, {"lat": "22.4833333", "city": "Vuangtu", "lon": "93.2666667"}, {"lat": "21.2666667", "city": "Vuilu", "lon": "93.4833333"}, {"lat": "23.35", "city": "Vutbuak", "lon": "93.45"}, {"lat": "20.9333333", "city": "Wagok", "lon": "93.2"}, {"lat": "21.1333333", "city": "Wama", "lon": "92.9833333"}, {"lat": "21.5166667", "city": "Ware", "lon": "93.9333333"}, {"lat": "21.4833333", "city": "Wayu", "lon": "93.1833333"}, {"lat": "23.0166667", "city": "Webula", "lon": "93.9166667"}, {"lat": "21.6666667", "city": "Welaung", "lon": "93.65"}, {"lat": "21.15", "city": "Wilugyaung", "lon": "92.9666667"}, {"lat": "21.9", "city": "Witung", "lon": "92.7"}, {"lat": "21.1833333", "city": "Wunubaung", "lon": "94.1"}, {"lat": "21.7", "city": "Yangbe", "lon": "92.95"}, {"lat": "20.8", "city": "Yangkhet", "lon": "93.4833333"}, {"lat": "20.8166667", "city": "Yapi", "lon": "93.5333333"}, {"lat": "21.2166667", "city": "Yapkon", "lon": "93.6"}, {"lat": "21.9833333", "city": "Yatalaing", "lon": "92.7666667"}, {"lat": "20.8", "city": "Yegyaung", "lon": "93.9833333"}, {"lat": "21.3666667", "city": "Yeikauk", "lon": "93.25"}, {"lat": "23.0166667", "city": "Yetagon", "lon": "93.85"}, {"lat": "21.5666667", "city": "Yetpa", "lon": "93.8666667"}, {"lat": "21.4666667", "city": "Yon Sheing", "lon": "93.2666667"}, {"lat": "21.4166667", "city": "Yopong", "lon": "93.6333333"}, {"lat": "21.4166667", "city": "Yopon", "lon": "93.6333333"}, {"lat": "21.1833333", "city": "Ywa Ashe", "lon": "94.05"}, {"lat": "22.1666667", "city": "Zahaw", "lon": "93.7166667"}, {"lat": "22.9333333", "city": "Zakhlir", "lon": "93.6"}, {"lat": "23.0333333", "city": "Zalang", "lon": "93.8833333"}, {"lat": "23.7", "city": "Zampi", "lon": "93.5166667"}, {"lat": "22.9333333", "city": "Zamual", "lon": "93.6833333"}, {"lat": "21.2666667", "city": "Zang-imnu", "lon": "93.7"}, {"lat": "21.7333333", "city": "Zangkhai", "lon": "92.7333333"}, {"lat": "22.9833333", "city": "Zang Klang", "lon": "93.25"}, {"lat": "22.9333333", "city": "Zatual", "lon": "93.95"}, {"lat": "23.1666667", "city": "Zawlnu", "lon": "93.7"}, {"lat": "23.1333333", "city": "Zawlpi", "lon": "93.85"}, {"lat": "23.05", "city": "Zawlte", "lon": "93.4666667"}, {"lat": "23.0333333", "city": "Zawngte", "lon": "93.4333333"}, {"lat": "22.45", "city": "Zephai", "lon": "93.2666667"}, {"lat": "21.85", "city": "Zesaw", "lon": "93.6166667"}, {"lat": "21.25", "city": "Zinchaung", "lon": "94.05"}, {"lat": "22.5333333", "city": "Zokhua", "lon": "93.6833333"}, {"lat": "22.9666667", "city": "Zomual", "lon": "93.65"}, {"lat": "22.0666667", "city": "Zuamang", "lon": "93.3333333"}, {"lat": "22.0666667", "city": "Zuamukwa", "lon": "93.3333333"}, {"lat": "22.9833333", "city": "Zultu", "lon": "93.7333333"}], "03": [{"lat": "16.2166667", "city": "Acha", "lon": "95.7"}, {"lat": "16.6666667", "city": "Achaw", "lon": "95.65"}, {"lat": "17.5333333", "city": "Ada", "lon": "95.5"}, {"lat": "16.8666667", "city": "Adalauk", "lon": "94.9666667"}, {"lat": "15.7833333", "city": "Adama Thitp\u00f4k", "lon": "94.9833333"}, {"lat": "16.5666667", "city": "Agat", "lon": "95.3166667"}, {"lat": "16.6", "city": "Agayan", "lon": "95.3333333"}, {"lat": "16.3333333", "city": "Agegyi", "lon": "95.8"}, {"lat": "16.7333333", "city": "Aheik", "lon": "95.6166667"}, {"lat": "16.8", "city": "Ahpyan", "lon": "95.2166667"}, {"lat": "17.35", "city": "Ahtaung", "lon": "95.3333333"}, {"lat": "17.6833333", "city": "Aingdo", "lon": "95.4"}, {"lat": "17.9333333", "city": "Ainggalaw", "lon": "95.2"}, {"lat": "15.95", "city": "Ainggo", "lon": "94.4"}, {"lat": "17.5833333", "city": "Ainggyi", "lon": "95.5"}, {"lat": "17.2", "city": "Aingma", "lon": "95.3"}, {"lat": "17.5333333", "city": "Aingthabyu", "lon": "95.1666667"}, {"lat": "17.35", "city": "Aingzauk", "lon": "94.9666667"}, {"lat": "16.4", "city": "Akaw", "lon": "95.5166667"}, {"lat": "16.8166667", "city": "Ake", "lon": "94.85"}, {"lat": "16.2", "city": "Akechaungwa", "lon": "95.85"}, {"lat": "16.2", "city": "Akegyaungwa", "lon": "95.85"}, {"lat": "17.2833333", "city": "Akegyi", "lon": "95.3333333"}, {"lat": "17.1166667", "city": "Akwi", "lon": "95.4833333"}, {"lat": "17.9", "city": "Akyagwin", "lon": "95.1166667"}, {"lat": "17.2333333", "city": "Akyaw", "lon": "95.5333333"}, {"lat": "16.65", "city": "Alan", "lon": "95.65"}, {"lat": "16.15", "city": "Alanbalut", "lon": "95.6166667"}, {"lat": "15.7833333", "city": "Alandaing", "lon": "95.5"}, {"lat": "16.5833333", "city": "Alanwa", "lon": "95.5"}, {"lat": "16.95", "city": "Alechaung", "lon": "95.7"}, {"lat": "16.5333333", "city": "Aleg\u00f4n", "lon": "94.2666667"}, {"lat": "16.1166667", "city": "Alegyaung", "lon": "95.3333333"}, {"lat": "16.2", "city": "Aleyegyaw", "lon": "95.05"}, {"lat": "17.7166667", "city": "Aleywa", "lon": "95.35"}, {"lat": "17.0166667", "city": "Alezu", "lon": "95.5333333"}, {"lat": "15.8", "city": "Ama", "lon": "95.2833333"}, {"lat": "16.3833333", "city": "Amawchok", "lon": "95.5333333"}, {"lat": "17.2", "city": "Anang\u00f4n", "lon": "94.85"}, {"lat": "17.2833333", "city": "Anyadan", "lon": "95.3166667"}, {"lat": "16.5833333", "city": "Anyasu", "lon": "95.25"}, {"lat": "16.5833333", "city": "Anyazu", "lon": "95.25"}, {"lat": "16.2", "city": "Apaung", "lon": "95.7166667"}, {"lat": "17.0833333", "city": "Apinhnase", "lon": "95.05"}, {"lat": "17.3833333", "city": "Apyauk", "lon": "95.7"}, {"lat": "17.9", "city": "Apyin Nangat", "lon": "95.45"}, {"lat": "16.2833333", "city": "Ase", "lon": "95.9166667"}, {"lat": "17.9833333", "city": "Asegwin", "lon": "95.35"}, {"lat": "16.9333333", "city": "Ashegyaung", "lon": "95.0666667"}, {"lat": "16.3333333", "city": "Asigale", "lon": "95.55"}, {"lat": "16.5333333", "city": "Asugyi", "lon": "95.7333333"}, {"lat": "17.35", "city": "Ataung", "lon": "95.3333333"}, {"lat": "16.5166667", "city": "Atayaw", "lon": "95.8333333"}, {"lat": "16.2", "city": "Atetpyunwa", "lon": "94.6666667"}, {"lat": "18.05", "city": "Athalun", "lon": "95.3666667"}, {"lat": "17.2", "city": "Athok", "lon": "95.0833333"}, {"lat": "17.2", "city": "Aukin", "lon": "95.0333333"}, {"lat": "16.1166667", "city": "Aukkaba", "lon": "95.6333333"}, {"lat": "16.15", "city": "Auk Ky\u00f4ndamingyi", "lon": "95.75"}, {"lat": "17.3", "city": "Aukma", "lon": "94.9"}, {"lat": "16.2888889", "city": "Auksu", "lon": "96.0075"}, {"lat": "16.9333333", "city": "Aukthada", "lon": "94.7666667"}, {"lat": "16.8", "city": "Aukton", "lon": "95.4833333"}, {"lat": "16.9", "city": "Aungdat", "lon": "94.7333333"}, {"lat": "16.3666667", "city": "Aungdaung", "lon": "95.3333333"}, {"lat": "15.7666667", "city": "Aunghlaing", "lon": "94.9833333"}, {"lat": "17.6166667", "city": "Aungzatkwin", "lon": "95.0166667"}, {"lat": "16.2666667", "city": "Awabeik", "lon": "94.5666667"}, {"lat": "16.0833333", "city": "Awabye", "lon": "95.5"}, {"lat": "16.4833333", "city": "Ayoda", "lon": "94.65"}, {"lat": "18.0166667", "city": "Ayogon", "lon": "95.3166667"}, {"lat": "16.9333333", "city": "A-ywe", "lon": "95.85"}, {"lat": "16.15", "city": "Az\u00f4kkyi", "lon": "95.5833333"}, {"lat": "15.8666667", "city": "Badaukkon", "lon": "94.7"}, {"lat": "15.7833333", "city": "Ba-e-g\u00f4n", "lon": "95.2833333"}, {"lat": "16.0166667", "city": "Baingdaunggyaung", "lon": "94.8"}, {"lat": "17.0666667", "city": "Balakwin", "lon": "95.0666667"}, {"lat": "16.5833333", "city": "Bale", "lon": "95.3166667"}, {"lat": "16.55", "city": "Balug\u00f4n", "lon": "94.65"}, {"lat": "16.4", "city": "Bamaw", "lon": "95.4"}, {"lat": "16.4833333", "city": "Bamawgyaung", "lon": "95.0833333"}, {"lat": "16.65", "city": "Bamaw-wa", "lon": "94.9"}, {"lat": "16.4833333", "city": "Banawgyaung", "lon": "95.0833333"}, {"lat": "17.1", "city": "Bangyi", "lon": "95.35"}, {"lat": "17.05", "city": "Banit", "lon": "95.4"}, {"lat": "16.7833333", "city": "Bassein", "lon": "94.7333333"}, {"lat": "17.0166667", "city": "Bawaing", "lon": "95.5166667"}, {"lat": "17.0166667", "city": "Bawdi", "lon": "95.7333333"}, {"lat": "16.0", "city": "Bawdima", "lon": "95.65"}, {"lat": "17.3166667", "city": "Bawmi", "lon": "94.5833333"}, {"lat": "17.6833333", "city": "Bawzakaing", "lon": "95.2"}, {"lat": "17.1833333", "city": "Bawzok Sabyuzu", "lon": "95.3833333"}, {"lat": "18.15", "city": "Bebya", "lon": "95.1166667"}, {"lat": "17.7833333", "city": "B\u00e8byagon", "lon": "95.15"}, {"lat": "16.8833333", "city": "Begayet", "lon": "94.9166667"}, {"lat": "16.2666667", "city": "Begyi", "lon": "95.9"}, {"lat": "17.45", "city": "Beikshe", "lon": "94.9833333"}, {"lat": "16.8", "city": "Bhukhung", "lon": "94.4166667"}, {"lat": "16.1", "city": "Bidutgale", "lon": "94.8666667"}, {"lat": "17.0", "city": "Bilin", "lon": "95.15"}, {"lat": "16.7833333", "city": "Bilinsu", "lon": "95.5666667"}, {"lat": "16.7833333", "city": "Bilinzu", "lon": "95.5666667"}, {"lat": "17.6166667", "city": "Bithalun", "lon": "95.15"}, {"lat": "16.2833333", "city": "Bogale", "lon": "95.4"}, {"lat": "15.9166667", "city": "Bog\u00f4n", "lon": "94.9333333"}, {"lat": "17.4833333", "city": "Bokchaung", "lon": "95.1"}, {"lat": "16.4166667", "city": "B\u00f4kpinzeik", "lon": "94.25"}, {"lat": "15.8833333", "city": "Bomi", "lon": "94.6333333"}, {"lat": "17.0", "city": "Bondagale", "lon": "95.2166667"}, {"lat": "16.5166667", "city": "Bondaungsu", "lon": "95.45"}, {"lat": "16.5166667", "city": "Bondaungzu", "lon": "95.45"}, {"lat": "16.3333333", "city": "B\u00f4nthaleik", "lon": "95.6833333"}, {"lat": "16.5333333", "city": "Boteza", "lon": "95.6166667"}, {"lat": "17.1833333", "city": "Bowzok Sabyuzu", "lon": "95.3833333"}, {"lat": "17.15", "city": "Boyag\u00f4n", "lon": "94.8666667"}, {"lat": "17.2666667", "city": "Boyaw", "lon": "94.9"}, {"lat": "16.3666667", "city": "Budingwin", "lon": "94.7333333"}, {"lat": "16.8", "city": "Bugwegyi", "lon": "94.4166667"}, {"lat": "17.7833333", "city": "Bwet", "lon": "95.1166667"}, {"lat": "16.4833333", "city": "Bwetgyigon", "lon": "94.6166667"}, {"lat": "17.95", "city": "Bwetkyi", "lon": "95.35"}, {"lat": "16.6166667", "city": "Bwettan", "lon": "95.1"}, {"lat": "16.3833333", "city": "Bwettan Kayinzu", "lon": "95.0833333"}, {"lat": "16.9833333", "city": "Byaikkyi", "lon": "95.0"}, {"lat": "16.8333333", "city": "Byaingse", "lon": "95.5666667"}, {"lat": "16.4333333", "city": "Byangyi", "lon": "95.3833333"}, {"lat": "15.9", "city": "Byaungbyan", "lon": "94.7833333"}, {"lat": "17.0833333", "city": "Byawthalan", "lon": "95.8"}, {"lat": "17.15", "city": "Byinbwe", "lon": "95.5333333"}, {"lat": "16.3025", "city": "Byugyaung", "lon": "96.0044444"}, {"lat": "16.1", "city": "Byusakan", "lon": "95.4666667"}, {"lat": "17.0", "city": "Changon", "lon": "94.8"}, {"lat": "17.0333333", "city": "Chaukeindan", "lon": "95.15"}, {"lat": "16.4166667", "city": "Chaukpin", "lon": "95.7333333"}, {"lat": "17.0166667", "city": "Chaukseyo", "lon": "95.4833333"}, {"lat": "16.6666667", "city": "Chaukywa", "lon": "95.4666667"}, {"lat": "16.9666667", "city": "Chaungbya", "lon": "95.6166667"}, {"lat": "16.25", "city": "Chaungbyegyi", "lon": "95.05"}, {"lat": "16.3", "city": "Chaungdwin", "lon": "95.6833333"}, {"lat": "16.2", "city": "Chaunggale", "lon": "94.6833333"}, {"lat": "16.0", "city": "Chaunggwa", "lon": "94.4"}, {"lat": "16.2666667", "city": "Chaunggwegyi", "lon": "95.0"}, {"lat": "15.85", "city": "Chaunggyi", "lon": "94.7666667"}, {"lat": "16.2333333", "city": "Chaunggyo", "lon": "94.4"}, {"lat": "16.0166667", "city": "Chaungtaungbe", "lon": "94.2833333"}, {"lat": "16.9666667", "city": "Chaungtha", "lon": "94.45"}, {"lat": "16.3", "city": "Chaungwa", "lon": "95.9833333"}, {"lat": "16.7166667", "city": "Chaungzauk", "lon": "94.75"}, {"lat": "15.9333333", "city": "Chaungzu", "lon": "94.8166667"}, {"lat": "16.9666667", "city": "Chawngtha", "lon": "94.45"}, {"lat": "17.7166667", "city": "Chinbo", "lon": "95.4"}, {"lat": "17.1", "city": "Chingon", "lon": "94.7833333"}, {"lat": "17.3166667", "city": "Chingwin", "lon": "94.8666667"}, {"lat": "17.5666667", "city": "Chinle", "lon": "95.0"}, {"lat": "18.1666667", "city": "Chinywagyi", "lon": "95.1166667"}, {"lat": "17.6166667", "city": "Chondaung", "lon": "94.95"}, {"lat": "17.6", "city": "Daga", "lon": "95.3166667"}, {"lat": "17.2833333", "city": "Daikhlya", "lon": "95.4"}, {"lat": "16.3333333", "city": "Damathein", "lon": "95.8833333"}, {"lat": "17.9", "city": "Damingyun", "lon": "95.4"}, {"lat": "16.1333333", "city": "Daminzeik", "lon": "95.7333333"}, {"lat": "16.1166667", "city": "Damyagyaung", "lon": "95.3333333"}, {"lat": "17.1666667", "city": "Danaw", "lon": "95.3833333"}, {"lat": "16.4833333", "city": "Danawwa", "lon": "95.5166667"}, {"lat": "17.7166667", "city": "Danbi", "lon": "95.2833333"}, {"lat": "16.2833333", "city": "Danibat", "lon": "95.8166667"}, {"lat": "17.2666667", "city": "Dani", "lon": "94.55"}, {"lat": "15.95", "city": "Danizeik", "lon": "95.0666667"}, {"lat": "15.9333333", "city": "Danizeik Kang\u00f4n", "lon": "95.0166667"}, {"lat": "16.1", "city": "Dan\u00f4n", "lon": "95.0833333"}, {"lat": "16.2666667", "city": "Danong\u00f4n", "lon": "95.8"}, {"lat": "16.2333333", "city": "Danongyaung", "lon": "95.6666667"}, {"lat": "16.3666667", "city": "Dan\u00f4nzeik", "lon": "95.3833333"}, {"lat": "17.4333333", "city": "Danube", "lon": "95.5833333"}, {"lat": "17.25", "city": "Danubyu", "lon": "95.5833333"}, {"lat": "17.0", "city": "Daunggy", "lon": "95.2"}, {"lat": "16.9666667", "city": "Daunggyi-atet", "lon": "95.5333333"}, {"lat": "16.0333333", "city": "Daunggyi", "lon": "95.4666667"}, {"lat": "16.5166667", "city": "Dawbon", "lon": "95.6"}, {"lat": "16.5666667", "city": "Dawehmaing", "lon": "95.5333333"}, {"lat": "15.9", "city": "Dawnyein", "lon": "95.6"}, {"lat": "17.95", "city": "Dawpegwin", "lon": "95.3"}, {"lat": "17.6166667", "city": "Dawthayaw", "lon": "95.3"}, {"lat": "17.0333333", "city": "Dawwa", "lon": "95.4666667"}, {"lat": "16.4833333", "city": "Dayebauk", "lon": "94.9666667"}, {"lat": "16.5333333", "city": "Dayegyo", "lon": "95.6666667"}, {"lat": "16.65", "city": "Dayin", "lon": "95.1666667"}, {"lat": "17.7333333", "city": "Dayingauk", "lon": "95.1833333"}, {"lat": "16.0", "city": "Dedalu", "lon": "95.6166667"}, {"lat": "16.4", "city": "Dedavai", "lon": "95.8833333"}, {"lat": "16.4", "city": "Dedayai", "lon": "95.8833333"}, {"lat": "16.4", "city": "Dedaye", "lon": "95.8833333"}, {"lat": "15.8833333", "city": "Dedug\u00f4n", "lon": "94.4166667"}, {"lat": "16.6666667", "city": "Degan", "lon": "94.7666667"}, {"lat": "17.0666667", "city": "Degon", "lon": "94.85"}, {"lat": "17.9666667", "city": "Didokkon", "lon": "95.3333333"}, {"lat": "16.45", "city": "Dobat", "lon": "94.9666667"}, {"lat": "17.0166667", "city": "Dodan", "lon": "95.15"}, {"lat": "17.9", "city": "Dogon", "lon": "95.2833333"}, {"lat": "17.5833333", "city": "Dokyaik", "lon": "95.2833333"}, {"lat": "17.25", "city": "Donabyu", "lon": "95.5833333"}, {"lat": "16.3666667", "city": "D\u00f4nbaung", "lon": "95.05"}, {"lat": "16.2166667", "city": "Donyan", "lon": "95.8666667"}, {"lat": "16.3166667", "city": "Dunwaing", "lon": "95.0666667"}, {"lat": "17.55", "city": "Duya", "lon": "95.4833333"}, {"lat": "17.2166667", "city": "Eikkadut", "lon": "95.3333333"}, {"lat": "16.7333333", "city": "Einmedan", "lon": "94.7166667"}, {"lat": "16.9", "city": "Einme", "lon": "95.1833333"}, {"lat": "16.8166667", "city": "Eintami", "lon": "95.15"}, {"lat": "16.5", "city": "Einyagyi", "lon": "95.5166667"}, {"lat": "17.7", "city": "Eitpyet", "lon": "95.4"}, {"lat": "15.8166667", "city": "Eyadawngu", "lon": "94.8833333"}, {"lat": "15.8", "city": "Eya", "lon": "95.1166667"}, {"lat": "16.75", "city": "Galon", "lon": "95.7666667"}, {"lat": "17.55", "city": "Gamonzu", "lon": "95.65"}, {"lat": "16.1", "city": "Ganeik", "lon": "94.6666667"}, {"lat": "16.7166667", "city": "Gangawgan", "lon": "94.8333333"}, {"lat": "16.3833333", "city": "Gangawg\u00f4n", "lon": "94.85"}, {"lat": "16.1833333", "city": "Gangyaung", "lon": "94.5833333"}, {"lat": "16.9166667", "city": "Gaungdoma", "lon": "94.9333333"}, {"lat": "15.7333333", "city": "Gawduthaung", "lon": "95.2833333"}, {"lat": "17.15", "city": "Gaya", "lon": "94.65"}, {"lat": "16.4333333", "city": "Gayan", "lon": "95.45"}, {"lat": "16.5333333", "city": "Gayetgyi", "lon": "94.7833333"}, {"lat": "17.1166667", "city": "Gayetkyaw", "lon": "95.3333333"}, {"lat": "16.8833333", "city": "Gayetta", "lon": "95.3166667"}, {"lat": "16.1833333", "city": "Gegu", "lon": "95.55"}, {"lat": "16.4", "city": "G\u00f4ndangale", "lon": "95.8666667"}, {"lat": "16.4666667", "city": "G\u00f4nmin", "lon": "95.7666667"}, {"lat": "16.2666667", "city": "G\u00f4nmingyaung", "lon": "95.5166667"}, {"lat": "16.1666667", "city": "Gonnyindan", "lon": "95.4166667"}, {"lat": "16.1166667", "city": "Gonnyinzan", "lon": "94.4166667"}, {"lat": "16.55", "city": "Gonywa", "lon": "95.45"}, {"lat": "17.9166667", "city": "Gwedaukchaung", "lon": "95.4333333"}, {"lat": "18.1833333", "city": "Gwedaukkon", "lon": "95.1666667"}, {"lat": "16.65", "city": "Gweg\u00f4n", "lon": "94.7333333"}, {"lat": "16.0166667", "city": "Gwegyaung", "lon": "94.55"}, {"lat": "17.5666667", "city": "Gwegyo", "lon": "95.2166667"}, {"lat": "17.5166667", "city": "Gwetkyi", "lon": "95.5833333"}, {"lat": "17.1", "city": "Gyaingle", "lon": "94.4833333"}, {"lat": "17.85", "city": "Gyanbyin", "lon": "95.3666667"}, {"lat": "17.6", "city": "Gyangon", "lon": "95.1666667"}, {"lat": "17.0", "city": "Gyaunggyi", "lon": "95.2"}, {"lat": "17.65", "city": "Gyeikkwin", "lon": "95.0"}, {"lat": "17.7666667", "city": "Gyibaukkon", "lon": "95.2666667"}, {"lat": "17.1833333", "city": "Gyingyaung", "lon": "94.4833333"}, {"lat": "17.9333333", "city": "Gyobin", "lon": "95.35"}, {"lat": "17.0333333", "city": "Gyobinkwin", "lon": "95.05"}, {"lat": "17.6666667", "city": "Gyogaung", "lon": "95.2666667"}, {"lat": "16.8", "city": "Gyogon", "lon": "95.1666667"}, {"lat": "16.9666667", "city": "Gyogyakwin", "lon": "95.0"}, {"lat": "18.3333333", "city": "Gyogyandan", "lon": "95.2"}, {"lat": "17.9333333", "city": "Gyogyaung", "lon": "95.4"}, {"lat": "16.9833333", "city": "Gyongyongya", "lon": "94.9333333"}, {"lat": "16.9833333", "city": "Gyongyongy", "lon": "94.9333333"}, {"lat": "16.4", "city": "Gyowa", "lon": "95.6666667"}, {"lat": "16.0166667", "city": "Hainggyi", "lon": "94.35"}, {"lat": "16.1833333", "city": "Heman", "lon": "95.45"}, {"lat": "17.6333333", "city": "Henzada", "lon": "95.4666667"}, {"lat": "16.6", "city": "Hinogyaung", "lon": "94.6333333"}, {"lat": "16.6", "city": "Hinoyaung", "lon": "94.6333333"}, {"lat": "17.6333333", "city": "Hintada", "lon": "95.4666667"}, {"lat": "17.6333333", "city": "Hinthada", "lon": "95.4666667"}, {"lat": "16.2666667", "city": "Hkanaung", "lon": "95.7666667"}, {"lat": "16.2333333", "city": "Hkwenet", "lon": "94.4666667"}, {"lat": "16.15", "city": "Hlaingb\u00f4n", "lon": "95.1"}, {"lat": "16.6", "city": "Hlaingta", "lon": "95.4166667"}, {"lat": "17.5666667", "city": "Hlawkata", "lon": "95.0833333"}, {"lat": "17.1166667", "city": "Hle-da-chaung", "lon": "95.1"}, {"lat": "17.3333333", "city": "Hledaw", "lon": "94.6333333"}, {"lat": "16.9666667", "city": "Hledawzeik", "lon": "94.6666667"}, {"lat": "17.0333333", "city": "Hledindaung", "lon": "95.6166667"}, {"lat": "17.65", "city": "Hlegu", "lon": "95.1"}, {"lat": "17.0333333", "city": "Hlegyibyet", "lon": "94.7833333"}, {"lat": "16.9333333", "city": "Hleswewa", "lon": "95.4166667"}, {"lat": "16.3333333", "city": "Hlezeik", "lon": "95.95"}, {"lat": "15.9833333", "city": "Hlwaxa", "lon": "94.8"}, {"lat": "15.9833333", "city": "Hlwaza", "lon": "94.8"}, {"lat": "16.85", "city": "Hlwazing\u00f4n", "lon": "94.6333333"}, {"lat": "16.7", "city": "Hlwazinzu", "lon": "95.1166667"}, {"lat": "17.5333333", "city": "Hmangon", "lon": "95.15"}, {"lat": "16.3333333", "city": "Hmangu", "lon": "95.1"}, {"lat": "18.2333333", "city": "Hmangwin", "lon": "95.15"}, {"lat": "16.25", "city": "Hmawbi", "lon": "95.7"}, {"lat": "16.8166667", "city": "Hmwezan", "lon": "95.0666667"}, {"lat": "17.3", "city": "Hmyawdu", "lon": "95.3"}, {"lat": "17.55", "city": "Hna-eindan", "lon": "95.5666667"}, {"lat": "17.3833333", "city": "Hnegyo", "lon": "95.4666667"}, {"lat": "16.45", "city": "Hngetkyagyaung", "lon": "95.15"}, {"lat": "18.0833333", "city": "Hngetkyigwin", "lon": "95.2"}, {"lat": "16.2166667", "city": "Hngetpauk", "lon": "94.6"}, {"lat": "16.8833333", "city": "Hngetpyawgyun", "lon": "95.8"}, {"lat": "16.7", "city": "Hngettawyo", "lon": "95.5"}, {"lat": "17.35", "city": "Hpalan", "lon": "94.9"}, {"lat": "17.4166667", "city": "Hpan-gapin", "lon": "94.95"}, {"lat": "15.9833333", "city": "Hpayagon", "lon": "95.6"}, {"lat": "15.85", "city": "Hpobag\u00f4n", "lon": "95.5166667"}, {"lat": "16.2", "city": "Hpole", "lon": "95.5333333"}, {"lat": "15.9333333", "city": "Hpondawbye", "lon": "94.45"}, {"lat": "16.2", "city": "Hp\u00f4nzogwin", "lon": "94.8166667"}, {"lat": "17.2166667", "city": "Hponzo", "lon": "95.4833333"}, {"lat": "15.9666667", "city": "Hpo Su Kyaung", "lon": "95.6166667"}, {"lat": "15.9833333", "city": "Hpo Than", "lon": "95.5833333"}, {"lat": "15.8166667", "city": "Hpotug\u00f4n", "lon": "95.4666667"}, {"lat": "16.3833333", "city": "Hputi", "lon": "95.35"}, {"lat": "15.8333333", "city": "Hseikma", "lon": "95.5166667"}, {"lat": "16.4833333", "city": "Hsingu", "lon": "95.7833333"}, {"lat": "16.2833333", "city": "Hsukalat", "lon": "95.9833333"}, {"lat": "16.4833333", "city": "Htaingkwi", "lon": "95.7666667"}, {"lat": "16.5833333", "city": "Htalu", "lon": "95.6666667"}, {"lat": "16.35", "city": "Htalunzu", "lon": "95.6333333"}, {"lat": "16.6666667", "city": "Htanbingwe", "lon": "95.7"}, {"lat": "15.9", "city": "Htanbin", "lon": "94.4333333"}, {"lat": "16.4166667", "city": "Htanbyawzeik", "lon": "95.7666667"}, {"lat": "16.2697222", "city": "Htandaw", "lon": "96.0002778"}, {"lat": "15.8166667", "city": "Htang\u00f4n", "lon": "94.75"}, {"lat": "15.9", "city": "Htanhin", "lon": "94.4333333"}, {"lat": "16.85", "city": "Htankanlan", "lon": "94.7"}, {"lat": "17.15", "city": "Htantabin", "lon": "94.95"}, {"lat": "17.2", "city": "Htayaung", "lon": "95.7333333"}, {"lat": "16.2333333", "city": "Hteindan", "lon": "94.5333333"}, {"lat": "16.5166667", "city": "Hteingyun", "lon": "95.6666667"}, {"lat": "16.5166667", "city": "Hteinkyun", "lon": "95.6666667"}, {"lat": "16.8833333", "city": "Hteinngu", "lon": "95.2166667"}, {"lat": "17.2666667", "city": "Hteintabin", "lon": "95.1666667"}, {"lat": "16.7666667", "city": "Htinbonzeik", "lon": "94.9"}, {"lat": "16.1833333", "city": "Htingyaung", "lon": "95.0666667"}, {"lat": "16.3333333", "city": "Htiyali", "lon": "95.3333333"}, {"lat": "17.7333333", "city": "Htonbaw", "lon": "95.0166667"}, {"lat": "16.4", "city": "Ht\u00f4nbo", "lon": "94.8666667"}, {"lat": "17.5333333", "city": "Htonput", "lon": "95.5833333"}, {"lat": "17.8833333", "city": "Inbingon", "lon": "95.2833333"}, {"lat": "17.2833333", "city": "Indaing", "lon": "95.2833333"}, {"lat": "16.35", "city": "Indu", "lon": "95.85"}, {"lat": "17.6166667", "city": "Ingabo", "lon": "95.3333333"}, {"lat": "17.8166667", "city": "Ingabu", "lon": "95.2666667"}, {"lat": "17.5333333", "city": "Ingade", "lon": "95.6666667"}, {"lat": "17.2833333", "city": "Ingala", "lon": "95.4333333"}, {"lat": "17.1", "city": "Ingale", "lon": "94.9166667"}, {"lat": "17.8166667", "city": "Ingapu", "lon": "95.2666667"}, {"lat": "17.8833333", "city": "Ingauk", "lon": "95.3833333"}, {"lat": "17.65", "city": "Ingayan", "lon": "95.3166667"}, {"lat": "17.4833333", "city": "Ingwe", "lon": "95.4166667"}, {"lat": "17.5666667", "city": "Ingyi", "lon": "95.3"}, {"lat": "16.9", "city": "Inma", "lon": "95.1"}, {"lat": "18.2333333", "city": "Inpetlet", "lon": "95.2166667"}, {"lat": "17.5833333", "city": "Inswet", "lon": "95.6333333"}, {"lat": "17.3833333", "city": "Intayaw", "lon": "95.3166667"}, {"lat": "16.7666667", "city": "Inte-apyinywa", "lon": "95.5166667"}, {"lat": "16.7833333", "city": "Inte-atwinywa", "lon": "95.5166667"}, {"lat": "16.7833333", "city": "Inteywa", "lon": "95.5166667"}, {"lat": "17.8666667", "city": "Inwingon", "lon": "95.3"}, {"lat": "17.5833333", "city": "Inwin", "lon": "95.3166667"}, {"lat": "17.2166667", "city": "Inyashe", "lon": "94.8666667"}, {"lat": "17.2333333", "city": "Inyegyi", "lon": "95.2333333"}, {"lat": "17.2166667", "city": "Inye", "lon": "95.2333333"}, {"lat": "15.9833333", "city": "Kabaung-maw", "lon": "94.2833333"}, {"lat": "16.2166667", "city": "Kada", "lon": "95.6"}, {"lat": "17.0333333", "city": "Kadauksat", "lon": "95.35"}, {"lat": "17.6833333", "city": "Kadet", "lon": "95.4"}, {"lat": "16.1333333", "city": "Kadetkon", "lon": "95.4166667"}, {"lat": "16.4666667", "city": "Kadetkwin", "lon": "94.9333333"}, {"lat": "16.15", "city": "Kadipa", "lon": "94.9833333"}, {"lat": "15.8166667", "city": "Kad\u00f4nkani", "lon": "95.2166667"}, {"lat": "17.5666667", "city": "Kaduyo", "lon": "95.05"}, {"lat": "15.8166667", "city": "Kagyin", "lon": "95.5"}, {"lat": "16.25", "city": "Kainggyaung", "lon": "95.5833333"}, {"lat": "16.2333333", "city": "Kakayan", "lon": "95.0166667"}, {"lat": "16.1166667", "city": "Kaladan", "lon": "95.5833333"}, {"lat": "16.8", "city": "Kalagon", "lon": "95.0166667"}, {"lat": "17.4", "city": "Kalagyaung", "lon": "94.5666667"}, {"lat": "16.4", "city": "Kalagyi", "lon": "95.5333333"}, {"lat": "16.7333333", "city": "Kalagyun", "lon": "95.45"}, {"lat": "16.0", "city": "Kalahtain", "lon": "95.7"}, {"lat": "16.0", "city": "Kalahteik", "lon": "95.7"}, {"lat": "16.4833333", "city": "Kalama", "lon": "95.8166667"}, {"lat": "16.3333333", "city": "Kalamataung", "lon": "94.55"}, {"lat": "16.4666667", "city": "Kalaukp\u00f4n", "lon": "95.5333333"}, {"lat": "16.7", "city": "Kalaukthaik", "lon": "95.0833333"}, {"lat": "16.4", "city": "Kalaungb\u00f4n", "lon": "95.5666667"}, {"lat": "16.4", "city": "Kalayat", "lon": "95.7"}, {"lat": "17.4", "city": "Kalayaung", "lon": "94.5666667"}, {"lat": "16.6833333", "city": "Kala-ywa", "lon": "95.25"}, {"lat": "16.7", "city": "Kaleik", "lon": "95.2666667"}, {"lat": "16.1", "city": "Kamabo", "lon": "95.65"}, {"lat": "16.1333333", "city": "Kamagalu", "lon": "95.4833333"}, {"lat": "16.1333333", "city": "Kamakalu", "lon": "95.4833333"}, {"lat": "16.7666667", "city": "Kamangon", "lon": "95.1666667"}, {"lat": "15.9", "city": "Kamanta", "lon": "95.6"}, {"lat": "17.5166667", "city": "Kamauksu", "lon": "95.25"}, {"lat": "16.8833333", "city": "Kana", "lon": "95.7166667"}, {"lat": "18.2166667", "city": "Kanaunggale", "lon": "95.3833333"}, {"lat": "16.8166667", "city": "Kanaunggyi", "lon": "95.7166667"}, {"lat": "16.0833333", "city": "Kanaung", "lon": "95.55"}, {"lat": "16.55", "city": "Kanazogon", "lon": "95.1333333"}, {"lat": "16.25", "city": "Kanazogyaung", "lon": "95.1333333"}, {"lat": "16.0666667", "city": "Kanbalagyaung", "lon": "95.3666667"}, {"lat": "16.0833333", "city": "Kanbala", "lon": "94.4166667"}, {"lat": "17.9166667", "city": "Kanbalu", "lon": "95.4"}, {"lat": "16.2333333", "city": "Kanbe", "lon": "94.9333333"}, {"lat": "16.7666667", "city": "Kanbyo", "lon": "95.45"}, {"lat": "17.3166667", "city": "Kanchaung", "lon": "95.0666667"}, {"lat": "16.7833333", "city": "Kangale", "lon": "95.0166667"}, {"lat": "16.6", "city": "Kangaung", "lon": "94.9833333"}, {"lat": "15.9333333", "city": "Kangon", "lon": "95.0166667"}, {"lat": "16.4", "city": "Kangwin", "lon": "94.9333333"}, {"lat": "15.9666667", "city": "Kangyaing", "lon": "94.2666667"}, {"lat": "16.9333333", "city": "Kangyidaung", "lon": "94.9"}, {"lat": "16.7333333", "city": "Kangyi", "lon": "95.0333333"}, {"lat": "16.9333333", "city": "Kangy", "lon": "94.45"}, {"lat": "16.0666667", "city": "Kanigyi", "lon": "95.5666667"}, {"lat": "16.15", "city": "Kani", "lon": "95.7166667"}, {"lat": "17.3333333", "city": "Kanizu", "lon": "95.5"}, {"lat": "17.7166667", "city": "Kanlangon", "lon": "95.2333333"}, {"lat": "17.0666667", "city": "Kanna Wedaung", "lon": "95.6666667"}, {"lat": "17.1333333", "city": "Kanneingale", "lon": "95.2"}, {"lat": "16.4333333", "city": "Kanni", "lon": "94.8166667"}, {"lat": "18.2166667", "city": "Kanoung", "lon": "95.3833333"}, {"lat": "16.4166667", "city": "Kan-th\u00f4nze", "lon": "94.6666667"}, {"lat": "17.35", "city": "Kanugale", "lon": "95.5666667"}, {"lat": "17.3333333", "city": "Kanugyi", "lon": "95.5833333"}, {"lat": "15.9166667", "city": "Kanukama", "lon": "94.7666667"}, {"lat": "16.6166667", "city": "Kanu", "lon": "95.6"}, {"lat": "16.8666667", "city": "Kanwekabo", "lon": "95.4"}, {"lat": "17.5333333", "city": "Kanwe", "lon": "95.4"}, {"lat": "18.0", "city": "Kanyatkon", "lon": "95.3333333"}, {"lat": "16.5833333", "city": "Kan-yaw", "lon": "94.7666667"}, {"lat": "17.1", "city": "Ka-nyinbin", "lon": "94.9166667"}, {"lat": "17.05", "city": "Ka-nyinchaung", "lon": "94.8"}, {"lat": "17.1", "city": "Kanyinchaung", "lon": "94.4833333"}, {"lat": "16.4833333", "city": "Kanyingaing", "lon": "95.6"}, {"lat": "17.3", "city": "Kanyingauk", "lon": "95.5333333"}, {"lat": "16.1166667", "city": "Kanying\u00f4n", "lon": "94.8333333"}, {"lat": "17.45", "city": "Kanyingwa-atet", "lon": "95.1666667"}, {"lat": "17.4333333", "city": "Kanyingwa-auk", "lon": "95.1666667"}, {"lat": "16.2666667", "city": "Kanyingyaung", "lon": "95.3333333"}, {"lat": "17.4166667", "city": "Kanyin", "lon": "95.5333333"}, {"lat": "17.85", "city": "Kanyinngu", "lon": "95.1833333"}, {"lat": "15.8666667", "city": "Kanyintabin", "lon": "95.5666667"}, {"lat": "17.3666667", "city": "Kanyinzaing", "lon": "95.3166667"}, {"lat": "17.8666667", "city": "Kanyinzu", "lon": "95.1333333"}, {"lat": "18.0", "city": "Kanyutkon", "lon": "95.3333333"}, {"lat": "17.85", "city": "Kanyutkwin", "lon": "95.0833333"}, {"lat": "16.4166667", "city": "Kanywa", "lon": "94.6666667"}, {"lat": "16.5833333", "city": "Kan-ywa", "lon": "94.7666667"}, {"lat": "16.0666667", "city": "Kanzeik", "lon": "95.4833333"}, {"lat": "17.85", "city": "Kanze", "lon": "95.25"}, {"lat": "16.4333333", "city": "Kanzudauk", "lon": "95.5833333"}, {"lat": "16.65", "city": "Kanzugyi", "lon": "95.4666667"}, {"lat": "16.0666667", "city": "Kanzu", "lon": "95.4"}, {"lat": "16.6166667", "city": "Kapingyi", "lon": "95.8333333"}, {"lat": "16.65", "city": "Kasage", "lon": "95.25"}, {"lat": "17.3833333", "city": "Kasunkwin", "lon": "95.3833333"}, {"lat": "16.9", "city": "Katan", "lon": "95.6166667"}, {"lat": "16.2833333", "city": "Kathabaung", "lon": "94.8666667"}, {"lat": "16.4666667", "city": "Katha-hmyin", "lon": "95.3"}, {"lat": "18.1666667", "city": "Katkho", "lon": "95.3166667"}, {"lat": "16.9", "city": "Kattiya", "lon": "95.4"}, {"lat": "16.8666667", "city": "Katun", "lon": "95.55"}, {"lat": "16.9833333", "city": "Kaukkyigon", "lon": "95.35"}, {"lat": "17.45", "city": "Kawche", "lon": "95.4666667"}, {"lat": "16.5833333", "city": "Kawe", "lon": "95.25"}, {"lat": "16.3530556", "city": "Kawet", "lon": "96.0411111"}, {"lat": "16.65", "city": "Kawetkin", "lon": "95.8333333"}, {"lat": "17.4", "city": "Kawkat", "lon": "95.4833333"}, {"lat": "16.7666667", "city": "Kayiklat", "lon": "94.8666667"}, {"lat": "17.3333333", "city": "Kayindaw", "lon": "95.1166667"}, {"lat": "17.9166667", "city": "Kayingu", "lon": "95.2666667"}, {"lat": "17.7", "city": "Kayin-in", "lon": "95.2166667"}, {"lat": "16.3666667", "city": "Kayinwagyaung", "lon": "94.5166667"}, {"lat": "18.4833333", "city": "Kayinzu", "lon": "95.1333333"}, {"lat": "16.9666667", "city": "Kazan", "lon": "95.6666667"}, {"lat": "16.2166667", "city": "Kazaung", "lon": "95.1166667"}, {"lat": "18.3333333", "city": "Kazingyi", "lon": "95.2"}, {"lat": "17.9833333", "city": "Kebauk", "lon": "95.4166667"}, {"lat": "16.4333333", "city": "Keiklat", "lon": "95.7333333"}, {"lat": "17.5", "city": "Ketkugale", "lon": "95.0333333"}, {"lat": "17.5333333", "city": "Ketkugyi", "lon": "95.0166667"}, {"lat": "15.95", "city": "Khalukala", "lon": "94.4"}, {"lat": "16.5833333", "city": "Khamon", "lon": "95.5"}, {"lat": "16.6833333", "city": "Khanaung", "lon": "95.6666667"}, {"lat": "17.15", "city": "Khayagan", "lon": "95.3333333"}, {"lat": "16.2833333", "city": "Khayeg\u00f4n", "lon": "94.6666667"}, {"lat": "17.2666667", "city": "Khayuyo", "lon": "95.2"}, {"lat": "17.2", "city": "Khenan", "lon": "94.9166667"}, {"lat": "16.5166667", "city": "Khwelegyi", "lon": "94.8"}, {"lat": "16.7833333", "city": "Kinbalinkyun", "lon": "94.7666667"}, {"lat": "16.95", "city": "Kindat", "lon": "94.75"}, {"lat": "16.45", "city": "Kingyaung", "lon": "95.7333333"}, {"lat": "16.2833333", "city": "Kinmung\u00f4n", "lon": "95.8833333"}, {"lat": "16.4666667", "city": "Kn\u00f4bat", "lon": "94.2666667"}, {"lat": "16.1", "city": "Kodaung", "lon": "94.6333333"}, {"lat": "16.0833333", "city": "Kokko", "lon": "94.85"}, {"lat": "16.6833333", "city": "Kokkosu", "lon": "95.7833333"}, {"lat": "17.0", "city": "Kokkowa", "lon": "95.8666667"}, {"lat": "16.6833333", "city": "Kokkozu", "lon": "95.7833333"}, {"lat": "16.4666667", "city": "K\u00f4nbat", "lon": "94.2666667"}, {"lat": "17.4833333", "city": "Konbyin", "lon": "94.9833333"}, {"lat": "16.6666667", "city": "Kondangyi", "lon": "95.5"}, {"lat": "16.0333333", "city": "Kondan", "lon": "94.3"}, {"lat": "17.1666667", "city": "Kondan Taung", "lon": "95.5833333"}, {"lat": "16.25", "city": "K\u00f4ngale", "lon": "94.8333333"}, {"lat": "16.8", "city": "Kongyangon", "lon": "94.9666667"}, {"lat": "15.8166667", "city": "K\u00f4ngyi", "lon": "94.7833333"}, {"lat": "18.2333333", "city": "Kontalon", "lon": "95.3333333"}, {"lat": "17.0", "city": "Kontawnyo", "lon": "95.0833333"}, {"lat": "16.5", "city": "K\u00f4nteikpyaung", "lon": "94.8666667"}, {"lat": "17.3833333", "city": "Konthagyi", "lon": "95.2166667"}, {"lat": "16.5333333", "city": "Kontha", "lon": "94.9166667"}, {"lat": "17.0666667", "city": "Kon Wedaung", "lon": "95.6833333"}, {"lat": "16.1833333", "city": "K\u00f4nyit-asu", "lon": "95.6"}, {"lat": "17.2333333", "city": "Konzun", "lon": "94.8833333"}, {"lat": "16.8333333", "city": "Kothaung", "lon": "94.8333333"}, {"lat": "16.7833333", "city": "Kothein", "lon": "94.75"}, {"lat": "16.8166667", "city": "Kozu", "lon": "94.8"}, {"lat": "17.35", "city": "Kunbaw", "lon": "95.2666667"}, {"lat": "17.3666667", "city": "Kunbaw-nattawsu", "lon": "95.2666667"}, {"lat": "17.35", "city": "Kunbaw-zayatseik", "lon": "95.2666667"}, {"lat": "18.2833333", "city": "Kunbyo", "lon": "95.2333333"}, {"lat": "16.7666667", "city": "Kundainggale", "lon": "95.7166667"}, {"lat": "16.8666667", "city": "Kundainggyi", "lon": "95.7166667"}, {"lat": "16.15", "city": "Kundaing", "lon": "95.7"}, {"lat": "17.4666667", "city": "Kundawsan", "lon": "94.9166667"}, {"lat": "16.3833333", "city": "Kungyang\u00f4n", "lon": "95.8666667"}, {"lat": "16.4333333", "city": "Kungyan", "lon": "94.9666667"}, {"lat": "17.4166667", "city": "Kungyaung", "lon": "94.9666667"}, {"lat": "17.85", "city": "Kun-on", "lon": "95.1333333"}, {"lat": "16.4166667", "city": "Kunpalaing", "lon": "95.8"}, {"lat": "16.7166667", "city": "Kunsu", "lon": "95.6166667"}, {"lat": "16.2166667", "city": "Kuntaw", "lon": "94.9"}, {"lat": "17.1", "city": "Kunthibin", "lon": "95.65"}, {"lat": "16.2833333", "city": "Kunthichaungwa", "lon": "95.4166667"}, {"lat": "16.6", "city": "Kunthidaw", "lon": "94.35"}, {"lat": "16.3833333", "city": "Kunthigyaunggale", "lon": "95.15"}, {"lat": "16.15", "city": "Kunthigyaung", "lon": "95.35"}, {"lat": "16.2833333", "city": "Kunthigyaungwa", "lon": "95.4166667"}, {"lat": "16.7166667", "city": "Kunzu", "lon": "95.6166667"}, {"lat": "16.6", "city": "Kwele", "lon": "94.9333333"}, {"lat": "15.95", "city": "Kwetkwagale", "lon": "94.7833333"}, {"lat": "16.9", "city": "Kwetpyin", "lon": "95.0"}, {"lat": "16.5333333", "city": "Kwinbauk", "lon": "95.0333333"}, {"lat": "17.3166667", "city": "Kwinbaung", "lon": "94.9"}, {"lat": "16.3333333", "city": "Kwinbet", "lon": "94.2333333"}, {"lat": "16.55", "city": "Kwingale", "lon": "94.7666667"}, {"lat": "17.0", "city": "Kwingauk", "lon": "94.7166667"}, {"lat": "17.7666667", "city": "Kwingauk Myauk", "lon": "95.1333333"}, {"lat": "17.7666667", "city": "Kwingauk Taung", "lon": "95.1333333"}, {"lat": "16.0833333", "city": "Kwinguyuppa", "lon": "94.2166667"}, {"lat": "16.3", "city": "Kwingyaung", "lon": "94.8"}, {"lat": "17.0833333", "city": "Kwingyi", "lon": "95.3166667"}, {"lat": "17.3333333", "city": "Kwingyo", "lon": "95.0"}, {"lat": "17.85", "city": "Kwinhla", "lon": "95.2833333"}, {"lat": "16.1333333", "city": "Kwinsakan", "lon": "95.35"}, {"lat": "17.2833333", "city": "Kwintha", "lon": "95.15"}, {"lat": "16.3166667", "city": "Kwin-waing", "lon": "94.2333333"}, {"lat": "17.1833333", "city": "Kwinyagyi", "lon": "95.1833333"}, {"lat": "16.9666667", "city": "Kyachaung", "lon": "94.9833333"}, {"lat": "16.5833333", "city": "Kyadan", "lon": "95.1"}, {"lat": "16.5166667", "city": "Kyagaik", "lon": "95.5666667"}, {"lat": "16.8666667", "city": "Kyagandaung", "lon": "94.7"}, {"lat": "16.1166667", "city": "Kyagan", "lon": "94.6"}, {"lat": "17.25", "city": "Kyagaung", "lon": "95.45"}, {"lat": "16.35", "city": "Kyagayet", "lon": "95.7666667"}, {"lat": "16.95", "city": "Kyagok", "lon": "95.0833333"}, {"lat": "16.5333333", "city": "Kyagwin", "lon": "95.8166667"}, {"lat": "17.05", "city": "Kyagyan", "lon": "95.05"}, {"lat": "16.2833333", "city": "Kyagyaung", "lon": "95.2833333"}, {"lat": "17.1833333", "city": "Kyagyun", "lon": "94.9666667"}, {"lat": "16.2", "city": "Kyaikkaba", "lon": "95.6333333"}, {"lat": "16.4333333", "city": "Kyaiklat", "lon": "95.7333333"}, {"lat": "16.5666667", "city": "Kyaiklatkyiwa", "lon": "95.7833333"}, {"lat": "17.2666667", "city": "Kyaikpa", "lon": "95.3"}, {"lat": "16.45", "city": "Kyaikpi", "lon": "95.4"}, {"lat": "17.2833333", "city": "Kya-in", "lon": "95.3666667"}, {"lat": "16.8", "city": "Kyakatgyaung", "lon": "94.7"}, {"lat": "17.5333333", "city": "Kyakatkwin", "lon": "95.4833333"}, {"lat": "16.95", "city": "Kyakhatkon", "lon": "95.3166667"}, {"lat": "17.3166667", "city": "Kyakhattaw", "lon": "95.3333333"}, {"lat": "18.3333333", "city": "Kyangin", "lon": "95.25"}, {"lat": "16.6", "city": "Kyanginsu", "lon": "95.7"}, {"lat": "16.6", "city": "Kyanginzu", "lon": "95.7"}, {"lat": "18.0666667", "city": "Kyangon", "lon": "95.3333333"}, {"lat": "16.7833333", "city": "Kyanigan", "lon": "94.5666667"}, {"lat": "17.9666667", "city": "Kyani Myauk", "lon": "95.2"}, {"lat": "17.95", "city": "Kyani Taung", "lon": "95.2"}, {"lat": "18.3333333", "city": "Kyan-kin", "lon": "95.25"}, {"lat": "17.3666667", "city": "Kyanlaha", "lon": "95.2"}, {"lat": "18.0666667", "city": "Kyathe", "lon": "95.3333333"}, {"lat": "17.4666667", "city": "Kyatkwin", "lon": "95.1333333"}, {"lat": "17.9166667", "city": "Kyatkyi", "lon": "95.1666667"}, {"lat": "16.35", "city": "Kyatsinbyo", "lon": "95.9833333"}, {"lat": "16.35", "city": "Kyatsinpyo", "lon": "95.9833333"}, {"lat": "16.8833333", "city": "Kyaukchaunggyi", "lon": "94.7166667"}, {"lat": "16.0666667", "city": "Kyaukchaung", "lon": "94.4"}, {"lat": "16.2", "city": "Kyaukhmaw", "lon": "94.8"}, {"lat": "15.8833333", "city": "Kyauk-kalat", "lon": "94.4333333"}, {"lat": "16.55", "city": "Kyaukkegyi", "lon": "94.35"}, {"lat": "16.8333333", "city": "Kyaukkyi", "lon": "94.4"}, {"lat": "16.3333333", "city": "Kyaukpyagale", "lon": "94.85"}, {"lat": "16.4166667", "city": "Kyaukpya", "lon": "94.5666667"}, {"lat": "16.9333333", "city": "Kyauktaing", "lon": "95.5833333"}, {"lat": "17.5166667", "city": "Kyauktal\u00f4n", "lon": "94.9166667"}, {"lat": "16.2166667", "city": "Kyauktangale", "lon": "94.6666667"}, {"lat": "15.8333333", "city": "Kyauktazi", "lon": "94.8833333"}, {"lat": "17.7666667", "city": "Kyauktut", "lon": "95.05"}, {"lat": "17.75", "city": "Kyauk-ye", "lon": "95.4333333"}, {"lat": "17.1166667", "city": "Kyaungaing", "lon": "95.25"}, {"lat": "16.8333333", "city": "Kyaungbang\u00f4n", "lon": "94.7166667"}, {"lat": "17.1", "city": "Kyaunggon", "lon": "95.1833333"}, {"lat": "17.0", "city": "Kyaunggonzu", "lon": "95.1166667"}, {"lat": "17.4666667", "city": "Kyaunggwin", "lon": "95.0"}, {"lat": "16.5166667", "city": "Kyaungsu", "lon": "95.15"}, {"lat": "17.1666667", "city": "Kyaungyo", "lon": "95.2833333"}, {"lat": "15.8166667", "city": "Kyaungzu", "lon": "95.1666667"}, {"lat": "16.8333333", "city": "Kyawkkyi", "lon": "94.4"}, {"lat": "16.3333333", "city": "Kyawnu-udo", "lon": "95.2166667"}, {"lat": "16.45", "city": "Kyawzan", "lon": "95.5"}, {"lat": "17.15", "city": "Kyazan", "lon": "95.5833333"}, {"lat": "17.9833333", "city": "Kyeiktaw", "lon": "95.2833333"}, {"lat": "16.3166667", "city": "Kyeing\u00f4ngyi", "lon": "94.9333333"}, {"lat": "16.3666667", "city": "Kyeingyaung", "lon": "94.5833333"}, {"lat": "17.9833333", "city": "Kyeingyongon", "lon": "95.2333333"}, {"lat": "17.15", "city": "Kyeinngugyi", "lon": "95.1333333"}, {"lat": "15.8666667", "city": "Kyeinnigale", "lon": "95.0"}, {"lat": "16.3166667", "city": "Kyeinni", "lon": "95.0"}, {"lat": "16.1333333", "city": "Kyetpamwezaung", "lon": "95.5833333"}, {"lat": "16.4333333", "city": "Kyetpaungg\u00f4n", "lon": "94.6166667"}, {"lat": "16.7", "city": "Kyetpaung", "lon": "94.7"}, {"lat": "17.6166667", "city": "Kyetpye", "lon": "95.2666667"}, {"lat": "18.25", "city": "Kyetsha Auksu", "lon": "95.0833333"}, {"lat": "16.1666667", "city": "Kyetsha", "lon": "95.1833333"}, {"lat": "16.9", "city": "Kyettanyinngu", "lon": "95.1333333"}, {"lat": "18.0333333", "city": "Kyetthungin", "lon": "95.3"}, {"lat": "16.8", "city": "Kyettu-ywe", "lon": "94.6"}, {"lat": "17.6833333", "city": "Kyettuywe", "lon": "95.3666667"}, {"lat": "17.2166667", "city": "Kyibin", "lon": "94.9666667"}, {"lat": "16.6166667", "city": "Kyichaung", "lon": "95.5666667"}, {"lat": "17.3", "city": "Kyidawgyi", "lon": "95.4333333"}, {"lat": "16.7833333", "city": "Kyidaw", "lon": "94.9"}, {"lat": "17.8", "city": "Kyidawngu", "lon": "95.15"}, {"lat": "17.4666667", "city": "Kyigon", "lon": "95.1833333"}, {"lat": "16.6166667", "city": "Kyigyaung", "lon": "95.5666667"}, {"lat": "17.75", "city": "Kyigyi", "lon": "95.1833333"}, {"lat": "16.2333333", "city": "Kyinabin", "lon": "95.6333333"}, {"lat": "17.3333333", "city": "Kyinaing", "lon": "95.2666667"}, {"lat": "16.0", "city": "Kyinkaw", "lon": "94.4166667"}, {"lat": "16.5666667", "city": "Kyonbauk", "lon": "95.1666667"}, {"lat": "16.2666667", "city": "Ky\u00f2nbaw", "lon": "95.9166667"}, {"lat": "16.3833333", "city": "Kyonbe", "lon": "95.6833333"}, {"lat": "17.3", "city": "Ky\u00f4nbyaw", "lon": "95.2"}, {"lat": "16.3666667", "city": "Ky\u00f4nchin", "lon": "95.9333333"}, {"lat": "16.9333333", "city": "Kyondainggyi", "lon": "95.2666667"}, {"lat": "16.2333333", "city": "Ky\u00f4nda", "lon": "95.9166667"}, {"lat": "16.2333333", "city": "Kyondamyauk", "lon": "95.9166667"}, {"lat": "17.2333333", "city": "Kyondani", "lon": "95.4"}, {"lat": "16.25", "city": "Ky\u00f4ndat", "lon": "95.9666667"}, {"lat": "17.5166667", "city": "Kyongyaik", "lon": "95.4333333"}, {"lat": "16.4666667", "city": "Ky\u00f4nhla", "lon": "95.7"}, {"lat": "16.2166667", "city": "Ky\u00f4nhlut", "lon": "95.45"}, {"lat": "16.4", "city": "Ky\u00f4nhmaw", "lon": "95.9666667"}, {"lat": "17.1333333", "city": "Kyonhpayo", "lon": "95.1"}, {"lat": "16.2333333", "city": "Kyonhpe", "lon": "95.7666667"}, {"lat": "16.7333333", "city": "Kyonkadan", "lon": "95.3666667"}, {"lat": "16.0666667", "city": "Kyonkadung", "lon": "95.6333333"}, {"lat": "16.0666667", "city": "Ky\u00f4nkadun", "lon": "95.6333333"}, {"lat": "16.6", "city": "Kyonkanaung", "lon": "95.2"}, {"lat": "16.0833333", "city": "Ky\u00f4nkan Daminzeik", "lon": "95.7166667"}, {"lat": "16.6833333", "city": "Kyonkani", "lon": "95.15"}, {"lat": "16.0666667", "city": "Ky\u00f4nkaw", "lon": "95.45"}, {"lat": "16.5333333", "city": "Kyonkaya", "lon": "95.2666667"}, {"lat": "16.15", "city": "Kyonku", "lon": "94.4833333"}, {"lat": "16.5166667", "city": "Kyonkyaik", "lon": "95.85"}, {"lat": "17.4", "city": "Kyonkyongya", "lon": "95.25"}, {"lat": "16.3166667", "city": "Ky\u00f4nlamu", "lon": "95.3"}, {"lat": "16.8833333", "city": "Kyonlan", "lon": "95.25"}, {"lat": "16.3", "city": "Kyonlata", "lon": "95.25"}, {"lat": "16.1833333", "city": "Ky\u00f4nlutgyi", "lon": "95.8"}, {"lat": "16.1833333", "city": "Kyonlutkyi", "lon": "95.8"}, {"lat": "16.9333333", "city": "Kyonma", "lon": "95.65"}, {"lat": "16.4333333", "city": "Kyonmange", "lon": "95.1333333"}, {"lat": "16.6833333", "city": "Kyon-o", "lon": "95.2666667"}, {"lat": "16.7833333", "city": "Kyonpadaw", "lon": "95.2166667"}, {"lat": "16.6833333", "city": "Kyonpadok", "lon": "95.2666667"}, {"lat": "16.5333333", "city": "Kyonpaing", "lon": "95.6166667"}, {"lat": "16.7833333", "city": "Kyonpa", "lon": "95.2166667"}, {"lat": "16.9", "city": "Kyonphaung", "lon": "95.2666667"}, {"lat": "17.3", "city": "Kyonpyaw", "lon": "95.2"}, {"lat": "16.2", "city": "Ky\u00f4nsein", "lon": "95.3333333"}, {"lat": "16.8", "city": "Kyonsha", "lon": "95.6"}, {"lat": "16.6333333", "city": "Kyonsok", "lon": "95.6666667"}, {"lat": "16.6166667", "city": "Kyontagyi", "lon": "95.8166667"}, {"lat": "16.6166667", "city": "Kyonta", "lon": "95.8166667"}, {"lat": "16.9833333", "city": "Kyontama", "lon": "95.6"}, {"lat": "17.5", "city": "Kyontanaw Sabyuzu", "lon": "95.5333333"}, {"lat": "16.9833333", "city": "Kyontani", "lon": "95.7333333"}, {"lat": "17.05", "city": "Kyontawa", "lon": "95.2333333"}, {"lat": "16.3511111", "city": "Kyontaw", "lon": "96.0105556"}, {"lat": "16.8166667", "city": "Kyontayeik", "lon": "95.2333333"}, {"lat": "17.4166667", "city": "Kyontha", "lon": "95.1"}, {"lat": "16.4166667", "city": "Ky\u00f4nthin", "lon": "95.8166667"},