{"NA": {"39": [{"lat": "-19.2833333", "city": "Abenab", "lon": "18.0833333"}, {"lat": "-18.9166667", "city": "Anker", "lon": "18.9833333"}, {"lat": "-18.95", "city": "Arbeidsloon", "lon": "18.9"}, {"lat": "-22.1", "city": "Bergquell", "lon": "16.9833333"}, {"lat": "-18.9333333", "city": "Boomplaas", "lon": "18.4333333"}, {"lat": "-18.8", "city": "Bulhoek", "lon": "18.4666667"}, {"lat": "-22.0", "city": "Bulskop", "lon": "17.1"}, {"lat": "-20.1", "city": "Coblenz", "lon": "18.1666667"}, {"lat": "-18.85", "city": "Denarius", "lon": "19.0333333"}, {"lat": "-18.9", "city": "Deo-Volente", "lon": "18.9166667"}, {"lat": "-18.9666667", "city": "De Start", "lon": "19.1"}, {"lat": "-18.8833333", "city": "Die End", "lon": "18.8"}, {"lat": "-18.8666667", "city": "Die Park", "lon": "18.35"}, {"lat": "-18.8666667", "city": "Driemaal", "lon": "18.2"}, {"lat": "-18.95", "city": "Duinekraal", "lon": "18.5333333"}, {"lat": "-22.2666667", "city": "Dusternbrook", "lon": "16.9"}, {"lat": "-18.9", "city": "Duwib", "lon": "18.2"}, {"lat": "-20.95", "city": "Ekwenye", "lon": "18.35"}, {"lat": "-19.95", "city": "Elandspan", "lon": "18.55"}, {"lat": "-18.9833333", "city": "Emmanuel", "lon": "18.1833333"}, {"lat": "-20.6", "city": "Epopo", "lon": "15.6333333"}, {"lat": "-20.6", "city": "Epupa", "lon": "15.6333333"}, {"lat": "-20.3", "city": "Erakarombi", "lon": "17.9666667"}, {"lat": "-20.3", "city": "Erakorambe", "lon": "17.9666667"}, {"lat": "-18.9333333", "city": "Fairview", "lon": "18.2666667"}, {"lat": "-20.2333333", "city": "Gam", "lon": "20.75"}, {"lat": "-21.9833333", "city": "Gkamboro Settlement", "lon": "17.0333333"}, {"lat": "-18.9666667", "city": "Goabis", "lon": "18.3166667"}, {"lat": "-19.5666667", "city": "Grootfontein", "lon": "18.1166667"}, {"lat": "-22.1", "city": "Gross Barmen", "lon": "16.75"}, {"lat": "-19.5666667", "city": "Groutfontein", "lon": "18.1166667"}, {"lat": "-19.7666667", "city": "Gunib", "lon": "18.7"}, {"lat": "-18.9666667", "city": "Hantam", "lon": "18.4166667"}, {"lat": "-18.9666667", "city": "Heidehof", "lon": "19.1666667"}, {"lat": "-18.95", "city": "Henta", "lon": "18.7333333"}, {"lat": "-21.5", "city": "Hochfeld", "lon": "17.85"}, {"lat": "-18.8666667", "city": "Horison", "lon": "18.55"}, {"lat": "-18.8833333", "city": "Hulde", "lon": "18.4333333"}, {"lat": "-21.2333333", "city": "Imkerhof", "lon": "17.7666667"}, {"lat": "-20.8833333", "city": "Kalkfeld", "lon": "16.1833333"}, {"lat": "-20.8833333", "city": "Kalkveld", "lon": "16.1833333"}, {"lat": "-18.9333333", "city": "Keibeb", "lon": "18.3333333"}, {"lat": "-22.0666667", "city": "Khorusepa", "lon": "17.2666667"}, {"lat": "-19.7166667", "city": "Kombat", "lon": "17.7166667"}, {"lat": "-18.9", "city": "Koukuas", "lon": "18.2833333"}, {"lat": "-18.8333333", "city": "Kyalami", "lon": "18.3666667"}, {"lat": "-19.5", "city": "Maria Bronn", "lon": "18.0333333"}, {"lat": "-19.2333333", "city": "Maroelaboom", "lon": "18.8"}, {"lat": "-19.2333333", "city": "Maroeloboom", "lon": "18.8"}, {"lat": "-20.5333333", "city": "Middelbult", "lon": "17.4166667"}, {"lat": "-18.7833333", "city": "Mooibome", "lon": "18.7166667"}, {"lat": "-18.75", "city": "Mylpaal", "lon": "18.2333333"}, {"lat": "-18.95", "city": "Non Dimenticar", "lon": "18.85"}, {"lat": "-18.95", "city": "Nora", "lon": "18.7833333"}, {"lat": "-18.95", "city": "Nore", "lon": "18.7833333"}, {"lat": "-20.5666667", "city": "Ohakane", "lon": "17.4166667"}, {"lat": "-20.7166667", "city": "Ohamuheke", "lon": "18.0166667"}, {"lat": "-20.5", "city": "Okaepe", "lon": "17.95"}, {"lat": "-21.9833333", "city": "Okahandja", "lon": "16.9166667"}, {"lat": "-21.9833333", "city": "Okahanja", "lon": "16.9166667"}, {"lat": "-20.9833333", "city": "Okahitanda", "lon": "18.2666667"}, {"lat": "-20.7166667", "city": "Okahitua", "lon": "17.65"}, {"lat": "-20.7166667", "city": "Okahitwa", "lon": "17.65"}, {"lat": "-19.75", "city": "Okahumba", "lon": "18.5"}, {"lat": "-20.5833333", "city": "Okakarara", "lon": "17.4333333"}, {"lat": "-20.4", "city": "Okamatapati", "lon": "18.2166667"}, {"lat": "-22.0166667", "city": "Okamboro", "lon": "17.0333333"}, {"lat": "-20.5166667", "city": "Okambukonde", "lon": "17.3666667"}, {"lat": "-19.8666667", "city": "Okamita", "lon": "18.4833333"}, {"lat": "-21.9666667", "city": "Okandjira Settlement", "lon": "17.2166667"}, {"lat": "-19.95", "city": "Okangeama", "lon": "18.45"}, {"lat": "-19.95", "city": "Okangeoma", "lon": "18.45"}, {"lat": "-20.3833333", "city": "Okangoho", "lon": "17.8666667"}, {"lat": "-20.3333333", "city": "Okangwindi", "lon": "18.0333333"}, {"lat": "-20.8833333", "city": "Okanungu", "lon": "18.0166667"}, {"lat": "-22.1333333", "city": "Okaokongwinya", "lon": "17.1666667"}, {"lat": "-20.9333333", "city": "Okatjaveva", "lon": "18.15"}, {"lat": "-19.7166667", "city": "Okatjiparanga", "lon": "18.5833333"}, {"lat": "-19.7166667", "city": "Okatjiparango", "lon": "18.5833333"}, {"lat": "-22.1166667", "city": "Okatj", "lon": "17.0666667"}, {"lat": "-22.0666667", "city": "Okatjongwa", "lon": "17.1833333"}, {"lat": "-19.6333333", "city": "Okatjoruu", "lon": "18.5833333"}, {"lat": "-22.1166667", "city": "Okatjsoroi", "lon": "17.0666667"}, {"lat": "-20.6833333", "city": "Okatoto", "lon": "18.2333333"}, {"lat": "-19.7", "city": "Okatumuama", "lon": "18.55"}, {"lat": "-19.7", "city": "Okatumwama", "lon": "18.55"}, {"lat": "-20.55", "city": "Okatuwo", "lon": "17.55"}, {"lat": "-20.2", "city": "Okatwakoverwa", "lon": "18.1166667"}, {"lat": "-22.1166667", "city": "Okaue", "lon": "17.25"}, {"lat": "-20.5", "city": "Okaundja", "lon": "17.9666667"}, {"lat": "-21.8833333", "city": "Okazize", "lon": "16.5"}, {"lat": "-20.8166667", "city": "Okeserahi Number 2", "lon": "18.1333333"}, {"lat": "-20.8166667", "city": "Okeserahi Number Two", "lon": "18.1333333"}, {"lat": "-20.8333333", "city": "Okeserahi", "lon": "18.0666667"}, {"lat": "-20.05", "city": "Okomuparara", "lon": "18.3666667"}, {"lat": "-20.9666667", "city": "Okondjatu", "lon": "18.2166667"}, {"lat": "-20.8166667", "city": "Okosonduju", "lon": "18.0333333"}, {"lat": "-20.8166667", "city": "Okosondusu", "lon": "18.0333333"}, {"lat": "-20.6333333", "city": "Okotjitundu", "lon": "18.1166667"}, {"lat": "-20.5", "city": "Okoutjove", "lon": "18.0666667"}, {"lat": "-20.8166667", "city": "Okozonduzu", "lon": "18.0333333"}, {"lat": "-20.8166667", "city": "Okumumbonde", "lon": "17.75"}, {"lat": "-20.65", "city": "Omaihi", "lon": "17.75"}, {"lat": "-20.3166667", "city": "Omakande", "lon": "18.1333333"}, {"lat": "-20.7166667", "city": "Omapumba", "lon": "18.1666667"}, {"lat": "-20.6333333", "city": "Omatanga", "lon": "17.7333333"}, {"lat": "-20.65", "city": "Omatjatjeva", "lon": "17.7"}, {"lat": "-20.8333333", "city": "Omazera", "lon": "18.2333333"}, {"lat": "-20.4333333", "city": "Ombinda", "lon": "17.7833333"}, {"lat": "-20.1666667", "city": "Omboora", "lon": "18.0833333"}, {"lat": "-19.6", "city": "Ombora", "lon": "18.75"}, {"lat": "-22.0833333", "city": "Ombungurur", "lon": "17.1833333"}, {"lat": "-20.5333333", "city": "Ombu Yomenye", "lon": "17.9"}, {"lat": "-20.45", "city": "Ombu Yomumbonde", "lon": "17.75"}, {"lat": "-20.6833333", "city": "Ombu Yovakuru", "lon": "17.5833333"}, {"lat": "-20.65", "city": "Omeihei", "lon": "17.75"}, {"lat": "-20.4333333", "city": "Omingondo", "lon": "17.85"}, {"lat": "-20.1666667", "city": "Omitjete", "lon": "18.3166667"}, {"lat": "-20.6", "city": "Omupanau", "lon": "17.4666667"}, {"lat": "-20.6", "city": "Omupanda", "lon": "17.4666667"}, {"lat": "-20.6", "city": "Omupandu", "lon": "17.4666667"}, {"lat": "-19.7166667", "city": "Omutima", "lon": "18.8333333"}, {"lat": "-20.65", "city": "Omutjatjewa", "lon": "17.7"}, {"lat": "-20.5666667", "city": "Onaombombonde", "lon": "17.5166667"}, {"lat": "-20.5666667", "city": "Ongombombonde", "lon": "17.5166667"}, {"lat": "-20.0666667", "city": "Ongongora", "lon": "18.2333333"}, {"lat": "-18.8", "city": "Onreg", "lon": "18.8833333"}, {"lat": "-20.35", "city": "Orauku", "lon": "17.8833333"}, {"lat": "-20.35", "city": "Oruaku", "lon": "17.8833333"}, {"lat": "-20.35", "city": "Oruauku", "lon": "17.8833333"}, {"lat": "-20.6833333", "city": "Orunahi", "lon": "17.7"}, {"lat": "-22.0833333", "city": "Oruuwa", "lon": "17.1"}, {"lat": "-22.2", "city": "Oruware", "lon": "16.55"}, {"lat": "-22.0666667", "city": "Osona", "lon": "16.8833333"}, {"lat": "-19.65", "city": "Otavi", "lon": "17.3333333"}, {"lat": "-19.65", "city": "Otawi", "lon": "17.3333333"}, {"lat": "-20.45", "city": "Otiwarongo", "lon": "16.65"}, {"lat": "-20.4666667", "city": "Otjatjingenge", "lon": "17.7333333"}, {"lat": "-19.6", "city": "Otjikango", "lon": "18.6666667"}, {"lat": "-22.0333333", "city": "Otjikoto", "lon": "17.2"}, {"lat": "-19.7333333", "city": "Otjimikambo", "lon": "18.5166667"}, {"lat": "-20.25", "city": "Otjisepa", "lon": "18.3166667"}, {"lat": "-22.15", "city": "Otjiserandu", "lon": "17.2"}, {"lat": "-20.45", "city": "Otjiwarongo", "lon": "16.65"}, {"lat": "-20.65", "city": "Otjomupanda", "lon": "18.0333333"}, {"lat": "-21.9833333", "city": "Otjongombe Settlement", "lon": "17.1833333"}, {"lat": "-20.5166667", "city": "Otumborombonga", "lon": "17.6666667"}, {"lat": "-20.5833333", "city": "Otuvinga", "lon": "17.8166667"}, {"lat": "-20.5833333", "city": "Otuvingo", "lon": "17.8166667"}, {"lat": "-22.1166667", "city": "Ovanduvongwe", "lon": "17.1666667"}, {"lat": "-19.75", "city": "Ozanjonga", "lon": "18.75"}, {"lat": "-20.8333333", "city": "Ozongarongombe", "lon": "17.8666667"}, {"lat": "-19.75", "city": "Ozonvanga", "lon": "18.75"}, {"lat": "-18.85", "city": "Paradys", "lon": "19.1"}, {"lat": "-19.7333333", "city": "Rietfontein", "lon": "17.8666667"}, {"lat": "-18.9333333", "city": "Shunem", "lon": "18.5833333"}, {"lat": "-22.05", "city": "Spitzkop", "lon": "17.05"}, {"lat": "-18.7833333", "city": "Stilte", "lon": "18.3333333"}, {"lat": "-18.8", "city": "Sukkelsoek", "lon": "18.5166667"}, {"lat": "-18.8333333", "city": "Tiervlei", "lon": "18.9833333"}, {"lat": "-18.8", "city": "Toevlug", "lon": "18.6"}, {"lat": "-18.95", "city": "Toggekry", "lon": "18.6333333"}, {"lat": "-18.8", "city": "Tranedal", "lon": "18.8"}, {"lat": "-19.6", "city": "Tsumkwa", "lon": "20.5"}, {"lat": "-19.6", "city": "Tsumkwe", "lon": "20.5"}, {"lat": "-18.8833333", "city": "Twyfelspoort", "lon": "18.7333333"}, {"lat": "-18.8333333", "city": "Uitsig", "lon": "18.6666667"}, {"lat": "-18.8666667", "city": "Uitspan", "lon": "18.6666667"}, {"lat": "-21.9666667", "city": "Veddersdal", "lon": "16.8"}, {"lat": "-18.9833333", "city": "Veldduin", "lon": "18.4666667"}, {"lat": "-18.8", "city": "Vooruit", "lon": "18.2833333"}, {"lat": "-18.8666667", "city": "Voorwaarts", "lon": "18.85"}, {"lat": "-18.9666667", "city": "Vorstershoop", "lon": "19.05"}, {"lat": "-18.8", "city": "Wag-'n-bietjie", "lon": "18.5833333"}, {"lat": "-20.5166667", "city": "Waterberg", "lon": "17.2333333"}, {"lat": "-20.5166667", "city": "Waterburg", "lon": "17.2333333"}, {"lat": "-18.85", "city": "Welkom", "lon": "18.5"}, {"lat": "-18.9166667", "city": "Wildacker", "lon": "19.1"}, {"lat": "-18.8333333", "city": "Wilmardi", "lon": "18.2833333"}], "38": [{"lat": "-18.3166667", "city": "Ambende", "lon": "16.2833333"}, {"lat": "-18.3833333", "city": "Amilema", "lon": "16.2666667"}, {"lat": "-18.3166667", "city": "Amukulungundju", "lon": "16.3666667"}, {"lat": "-18.0", "city": "Amuteya", "lon": "16.3666667"}, {"lat": "-18.8166667", "city": "Driehoek", "lon": "18.0833333"}, {"lat": "-17.75", "city": "Edilanghono", "lon": "16.9833333"}, {"lat": "-17.7833333", "city": "Ehongo", "lon": "16.5333333"}, {"lat": "-17.7666667", "city": "Ekoko", "lon": "17.0333333"}, {"lat": "-18.1833333", "city": "Epeke", "lon": "16.2166667"}, {"lat": "-18.2166667", "city": "Epumbu", "lon": "16.1"}, {"lat": "-18.1", "city": "Esheshete", "lon": "16.1"}, {"lat": "-18.0166667", "city": "Etambo", "lon": "16.4833333"}, {"lat": "-18.15", "city": "Etaneno", "lon": "16.4"}, {"lat": "-17.8166667", "city": "Etjapa", "lon": "16.5333333"}, {"lat": "-18.7666667", "city": "Fischfontein", "lon": "17.9666667"}, {"lat": "-18.8666667", "city": "Garooab West", "lon": "18.0"}, {"lat": "-18.85", "city": "Gorooab Ost", "lon": "18.0333333"}, {"lat": "-18.8666667", "city": "Gorooab West", "lon": "18.0"}, {"lat": "-18.05", "city": "Iihongo", "lon": "16.1666667"}, {"lat": "-17.8666667", "city": "Iikokla", "lon": "16.15"}, {"lat": "-18.05", "city": "Iipanda", "lon": "16.3"}, {"lat": "-18.1666667", "city": "Iipopo", "lon": "16.0833333"}, {"lat": "-17.75", "city": "Iithindi", "lon": "16.8"}, {"lat": "-18.9833333", "city": "Kliprand", "lon": "18.0166667"}, {"lat": "-18.0666667", "city": "Kreta", "lon": "16.2333333"}, {"lat": "-18.7833333", "city": "Last Hope", "lon": "18.0"}, {"lat": "-17.85", "city": "Lyakahani", "lon": "16.1"}, {"lat": "-18.8", "city": "Namutoni Gate", "lon": "17.0333333"}, {"lat": "-18.7833333", "city": "Oab", "lon": "18.1666667"}, {"lat": "-17.7666667", "city": "Odilayafyenota", "lon": "16.9333333"}, {"lat": "-17.9", "city": "Ohahati", "lon": "17.1166667"}, {"lat": "-17.7833333", "city": "Ohaihai", "lon": "16.7666667"}, {"lat": "-17.75", "city": "Ohaufiku-Renine", "lon": "16.5833333"}, {"lat": "-17.9166667", "city": "Ohumbula", "lon": "16.85"}, {"lat": "-17.9166667", "city": "Okadhiya", "lon": "16.9333333"}, {"lat": "-18.1166667", "city": "Okakololo", "lon": "16.2333333"}, {"lat": "-18.0166667", "city": "Okakunda", "lon": "16.3166667"}, {"lat": "-17.9", "city": "Okakwiyu", "lon": "16.1666667"}, {"lat": "-18.0166667", "city": "Okaloko", "lon": "16.0166667"}, {"lat": "-18.0166667", "city": "Okalolo", "lon": "16.4166667"}, {"lat": "-18.05", "city": "Okalumpa", "lon": "16.3833333"}, {"lat": "-18.2333333", "city": "Okamakaku", "lon": "16.2"}, {"lat": "-18.0666667", "city": "Okambogo", "lon": "16.3"}, {"lat": "-18.0333333", "city": "Okanaya", "lon": "16.3166667"}, {"lat": "-17.9666667", "city": "Okankolo", "lon": "16.4166667"}, {"lat": "-18.1166667", "city": "Okaonde", "lon": "16.15"}, {"lat": "-17.7666667", "city": "Okapuka", "lon": "16.8833333"}, {"lat": "-18.0833333", "city": "Okatope", "lon": "16.2666667"}, {"lat": "-18.0", "city": "Okatumbo", "lon": "16.3333333"}, {"lat": "-18.2", "city": "Okayala", "lon": "16.3166667"}, {"lat": "-17.9833333", "city": "Olukonda", "lon": "16.0166667"}, {"lat": "-17.8", "city": "Olukupa", "lon": "17.1166667"}, {"lat": "-17.7166667", "city": "Oluno", "lon": "16.8"}, {"lat": "-17.7166667", "city": "Olunos", "lon": "16.8"}, {"lat": "-18.1", "city": "Olyuulaye", "lon": "16.5166667"}, {"lat": "-17.95", "city": "Omadhiya", "lon": "16.1166667"}, {"lat": "-17.75", "city": "Omahai", "lon": "16.7166667"}, {"lat": "-17.8833333", "city": "Omako", "lon": "16.2"}, {"lat": "-17.7833333", "city": "Omalambo", "lon": "16.5833333"}, {"lat": "-18.0833333", "city": "Omangundu", "lon": "16.35"}, {"lat": "-17.7166667", "city": "Omatale", "lon": "16.9833333"}, {"lat": "-17.8166667", "city": "Omayi", "lon": "16.8666667"}, {"lat": "-17.7333333", "city": "Ombumbu", "lon": "17.1166667"}, {"lat": "-18.2666667", "city": "Ompanda", "lon": "16.25"}, {"lat": "-18.2166667", "city": "Ompangela", "lon": "16.1833333"}, {"lat": "-17.8", "city": "Omunduungio", "lon": "16.0666667"}, {"lat": "-17.7166667", "city": "Omunkayi", "lon": "17.2666667"}, {"lat": "-18.2333333", "city": "Omuntele", "lon": "16.2333333"}, {"lat": "-17.95", "city": "Omunyankwe", "lon": "16.5"}, {"lat": "-18.4333333", "city": "Omupanda", "lon": "16.7666667"}, {"lat": "-17.7666667", "city": "Omupumba", "lon": "16.0833333"}, {"lat": "-17.7166667", "city": "Omuthiya", "lon": "16.2166667"}, {"lat": "-18.0166667", "city": "Omutsegwombandje", "lon": "16.5"}, {"lat": "-17.8166667", "city": "Omutwrwomedi", "lon": "16.95"}, {"lat": "-18.1666667", "city": "Onahenene", "lon": "16.45"}, {"lat": "-17.75", "city": "Onahima", "lon": "16.0666667"}, {"lat": "-18.2666667", "city": "Onahi", "lon": "16.2833333"}, {"lat": "-18.3", "city": "Onakalunga", "lon": "16.3833333"}, {"lat": "-18.0833333", "city": "Onakandi", "lon": "16.1666667"}, {"lat": "-18.2", "city": "Onakandjangi", "lon": "16.2833333"}, {"lat": "-18.35", "city": "Onakasino", "lon": "16.3666667"}, {"lat": "-18.1166667", "city": "Onakiidhi", "lon": "16.05"}, {"lat": "-18.05", "city": "Onakuku", "lon": "16.45"}, {"lat": "-18.2333333", "city": "Onalunike", "lon": "16.4166667"}, {"lat": "-17.75", "city": "Onalusheshete", "lon": "17.05"}, {"lat": "-18.0333333", "city": "Onamagwena", "lon": "16.0666667"}, {"lat": "-17.8833333", "city": "Onamatende", "lon": "16.0333333"}, {"lat": "-18.2833333", "city": "Onamavo", "lon": "16.2666667"}, {"lat": "-18.0333333", "city": "Onambeke", "lon": "16.2"}, {"lat": "-17.7333333", "city": "Onamhombo", "lon": "16.8666667"}, {"lat": "-18.15", "city": "Onampengu", "lon": "16.4666667"}, {"lat": "-17.95", "city": "Onamungundo", "lon": "16.0166667"}, {"lat": "-17.8333333", "city": "Onamutene", "lon": "16.1666667"}, {"lat": "-17.8666667", "city": "Onamutenya", "lon": "16.2833333"}, {"lat": "-18.1166667", "city": "Onandi", "lon": "16.3166667"}, {"lat": "-18.0833333", "city": "Onandjamba", "lon": "16.3"}, {"lat": "-17.9", "city": "Onandjokwe", "lon": "16.0333333"}, {"lat": "-18.1166667", "city": "Onandomba", "lon": "16.2833333"}, {"lat": "-18.1666667", "city": "Onankali", "lon": "16.35"}, {"lat": "-17.75", "city": "Onanona", "lon": "16.1666667"}, {"lat": "-17.7833333", "city": "Onanyama", "lon": "16.65"}, {"lat": "-18.1", "city": "Onashikookaya", "lon": "16.3166667"}, {"lat": "-17.9833333", "city": "Onathinge", "lon": "16.15"}, {"lat": "-18.1", "city": "Ondaakula", "lon": "16.4"}, {"lat": "-17.9", "city": "Ondando", "lon": "16.0333333"}, {"lat": "-17.9166667", "city": "Ondjamba", "lon": "17.9833333"}, {"lat": "-18.2166667", "city": "Ondombeyoshaale", "lon": "16.3333333"}, {"lat": "-17.8", "city": "Onehongo", "lon": "16.9833333"}, {"lat": "-18.2", "city": "Onembenge", "lon": "16.4166667"}, {"lat": "-17.9833333", "city": "Onepandagulu", "lon": "16.1166667"}, {"lat": "-17.85", "city": "Oneputa", "lon": "16.05"}, {"lat": "-17.85", "city": "Ongala", "lon": "16.95"}, {"lat": "-18.3", "city": "Ongali", "lon": "16.3166667"}, {"lat": "-18.0", "city": "Ongenga", "lon": "16.4"}, {"lat": "-18.0666667", "city": "Ongombesa", "lon": "16.3166667"}, {"lat": "-17.8333333", "city": "Ongula Netanga", "lon": "16.1666667"}, {"lat": "-17.9", "city": "Onguma", "lon": "16.1166667"}, {"lat": "-17.7666667", "city": "Ongundi", "lon": "17.3"}, {"lat": "-17.9166667", "city": "Oniihandi", "lon": "16.0166667"}, {"lat": "-17.8833333", "city": "Oniihwa", "lon": "16.2166667"}, {"lat": "-17.9166667", "city": "Oniipa", "lon": "16.0333333"}, {"lat": "-17.9166667", "city": "Oniiwe", "lon": "16.2166667"}, {"lat": "-18.1833333", "city": "Onikila", "lon": "16.1166667"}, {"lat": "-17.9", "city": "Onkwinkwiti", "lon": "17.15"}, {"lat": "-18.0166667", "city": "Ontananga", "lon": "16.0666667"}, {"lat": "-17.75", "city": "Ontuli", "lon": "17.2166667"}, {"lat": "-18.1", "city": "Ontunda", "lon": "16.4333333"}, {"lat": "-18.0666667", "city": "Onyaanya", "lon": "16.2666667"}, {"lat": "-17.9666667", "city": "Onyati", "lon": "17.1333333"}, {"lat": "-17.75", "city": "Onyawanyawa", "lon": "16.6166667"}, {"lat": "-18.0333333", "city": "Onyuulaye", "lon": "16.4666667"}, {"lat": "-17.9", "city": "Oongodhi", "lon": "17.0166667"}, {"lat": "-17.95", "city": "Oshali", "lon": "16.0666667"}, {"lat": "-18.2833333", "city": "Oshalongo", "lon": "16.3666667"}, {"lat": "-17.7333333", "city": "Oshanyata", "lon": "16.9"}, {"lat": "-18.6166667", "city": "Oshawello", "lon": "17.1666667"}, {"lat": "-17.9", "city": "Oshidundumbe", "lon": "16.95"}, {"lat": "-17.7833333", "city": "Oshigambo", "lon": "16.0666667"}, {"lat": "-18.1", "city": "Oshikondiilongo", "lon": "16.3333333"}, {"lat": "-18.15", "city": "Oshikulu", "lon": "16.3"}, {"lat": "-18.15", "city": "Oshilungi", "lon": "16.3666667"}, {"lat": "-17.9", "city": "Oshitaye", "lon": "16.0166667"}, {"lat": "-17.9", "city": "Oshitayi", "lon": "16.0166667"}, {"lat": "-18.3333333", "city": "Oshiteni", "lon": "16.15"}, {"lat": "-17.7166667", "city": "Oshityoshikukutu", "lon": "17.15"}, {"lat": "-18.6166667", "city": "Oshivelo", "lon": "17.1666667"}, {"lat": "-18.2", "city": "Oshiya", "lon": "16.45"}, {"lat": "-18.2166667", "city": "Othile", "lon": "16.4"}, {"lat": "-18.1666667", "city": "Oyovu", "lon": "16.1666667"}, {"lat": "-18.75", "city": "Randeier", "lon": "18.1"}, {"lat": "-18.9333333", "city": "Stilhoek", "lon": "18.0333333"}, {"lat": "-18.7666667", "city": "Tsintsabis", "lon": "17.9666667"}, {"lat": "-19.2333333", "city": "Tsumeb", "lon": "17.7166667"}, {"lat": "-18.8666667", "city": "Tsutsab", "lon": "18.1"}, {"lat": "-17.8", "city": "Utilo", "lon": "16.6333333"}, {"lat": "-18.05", "city": "Uukwanambwa", "lon": "16.2833333"}, {"lat": "-18.2333333", "city": "Uuntyaye", "lon": "16.3166667"}, {"lat": "-18.8166667", "city": "Wildernis", "lon": "18.05"}], "21": [{"lat": "-22.57", "city": "Windhoek", "lon": "17.0836111"}, {"lat": "-22.57", "city": "Windhuk", "lon": "17.0836111"}], "33": [{"lat": "-17.4166667", "city": "Edundja", "lon": "16.0"}, {"lat": "-17.5", "city": "Eembidi", "lon": "16.0"}, {"lat": "-17.4666667", "city": "Eenana", "lon": "16.3333333"}, {"lat": "-17.2166667", "city": "Eendobe", "lon": "17.4333333"}, {"lat": "-17.4666667", "city": "Eenhana", "lon": "16.3333333"}, {"lat": "-17.7", "city": "Eenkombo", "lon": "17.2"}, {"lat": "-17.45", "city": "Eeshowa", "lon": "17.0666667"}, {"lat": "-17.45", "city": "Efinde", "lon": "16.9833333"}, {"lat": "-17.5666667", "city": "Efululula", "lon": "15.8166667"}, {"lat": "-17.4833333", "city": "Ehafo", "lon": "16.05"}, {"lat": "-17.55", "city": "Ekangolomuve", "lon": "17.3166667"}, {"lat": "-17.4333333", "city": "Ekapashna", "lon": "16.6166667"}, {"lat": "-17.6833333", "city": "Ekoka", "lon": "17.4"}, {"lat": "-17.65", "city": "Ekokalinini", "lon": "17.4"}, {"lat": "-17.4", "city": "Elakalapwa", "lon": "15.7"}, {"lat": "-17.5333333", "city": "Elao", "lon": "15.65"}, {"lat": "-17.7666667", "city": "Elombe", "lon": "16.2166667"}, {"lat": "-17.4", "city": "Emanya", "lon": "17.0"}, {"lat": "-17.4666667", "city": "Enana", "lon": "16.3333333"}, {"lat": "-17.6", "city": "Endola", "lon": "15.7166667"}, {"lat": "-17.4333333", "city": "Engela", "lon": "15.8666667"}, {"lat": "-17.55", "city": "Enghandja", "lon": "16.0166667"}, {"lat": "-17.5833333", "city": "Enyana", "lon": "17.4"}, {"lat": "-17.4666667", "city": "Epalalalinini", "lon": "17.0833333"}, {"lat": "-17.55", "city": "Epangwe", "lon": "17.2333333"}, {"lat": "-17.4666667", "city": "Epasha", "lon": "16.6166667"}, {"lat": "-17.4666667", "city": "Epashna", "lon": "16.6166667"}, {"lat": "-17.7666667", "city": "Epembe", "lon": "16.2"}, {"lat": "-17.4166667", "city": "Epinga", "lon": "16.4166667"}, {"lat": "-17.55", "city": "Epuku", "lon": "15.75"}, {"lat": "-17.5833333", "city": "Eshakeno", "lon": "17.1166667"}, {"lat": "-17.6666667", "city": "Eshosho", "lon": "16.8666667"}, {"lat": "-17.65", "city": "Etakaya", "lon": "16.8166667"}, {"lat": "-17.5333333", "city": "Etale", "lon": "15.95"}, {"lat": "-17.4333333", "city": "Etomba", "lon": "16.0666667"}, {"lat": "-17.6666667", "city": "Etudilondjaba", "lon": "16.8"}, {"lat": "-17.5833333", "city": "Hamakanga", "lon": "17.35"}, {"lat": "-17.6", "city": "Iiputu", "lon": "15.6166667"}, {"lat": "-17.4833333", "city": "Lamhedi", "lon": "16.2166667"}, {"lat": "-17.55", "city": "Odimbo", "lon": "15.9"}, {"lat": "-17.4166667", "city": "Ofaitumbo", "lon": "15.75"}, {"lat": "-17.45", "city": "Ohaibana", "lon": "16.3833333"}, {"lat": "-17.45", "city": "Ohaihana", "lon": "16.3833333"}, {"lat": "-17.4", "city": "Ohaikedi", "lon": "16.3666667"}, {"lat": "-17.6666667", "city": "Ohailinda", "lon": "16.8166667"}, {"lat": "-17.4666667", "city": "Ohainengena", "lon": "16.45"}, {"lat": "-17.4833333", "city": "Ohaingu", "lon": "15.8333333"}, {"lat": "-17.7", "city": "Ohaipetekwa", "lon": "16.8"}, {"lat": "-17.7", "city": "Ohakayale", "lon": "16.0166667"}, {"lat": "-17.4666667", "city": "Ohakuyela", "lon": "17.1833333"}, {"lat": "-17.6166667", "city": "Ohalushu", "lon": "15.8666667"}, {"lat": "-17.5833333", "city": "Ohamakanga", "lon": "17.35"}, {"lat": "-17.5666667", "city": "Ohamevainini", "lon": "17.0666667"}, {"lat": "-17.6666667", "city": "Ohamviimbi", "lon": "16.45"}, {"lat": "-17.4666667", "city": "Ohangwena", "lon": "15.8833333"}, {"lat": "-17.4166667", "city": "Ohauwangakukutu", "lon": "16.75"}, {"lat": "-17.3833333", "city": "Ohauwanga", "lon": "16.75"}, {"lat": "-17.5666667", "city": "Ohauyave Munini", "lon": "16.8"}, {"lat": "-17.5666667", "city": "Ohauyave", "lon": "16.8"}, {"lat": "-17.4", "city": "Ohehonge", "lon": "16.5"}, {"lat": "-17.5833333", "city": "Ohuukewo", "lon": "16.1"}, {"lat": "-17.4833333", "city": "Oidimba", "lon": "16.5"}, {"lat": "-17.6333333", "city": "Oidiva", "lon": "17.35"}, {"lat": "-17.4166667", "city": "Oikoto", "lon": "15.6833333"}, {"lat": "-17.5166667", "city": "Oikuku", "lon": "16.75"}, {"lat": "-17.5833333", "city": "Oininive", "lon": "16.6666667"}, {"lat": "-17.5333333", "city": "Okahahauyavwena", "lon": "16.8"}, {"lat": "-17.4166667", "city": "Okahauwangwena", "lon": "16.7166667"}, {"lat": "-17.5666667", "city": "Okakongwena", "lon": "17.1666667"}, {"lat": "-17.3833333", "city": "Okalondo", "lon": "15.6666667"}, {"lat": "-17.4833333", "city": "Okalunga", "lon": "17.1166667"}, {"lat": "-17.5166667", "city": "Okamanya", "lon": "17.2"}, {"lat": "-17.5", "city": "Okambabwena", "lon": "16.8833333"}, {"lat": "-17.6", "city": "Okanyanona", "lon": "17.3833333"}, {"lat": "-17.4333333", "city": "Okapashona", "lon": "16.6166667"}, {"lat": "-17.5166667", "city": "Okatope", "lon": "15.95"}, {"lat": "-17.5333333", "city": "Okauva", "lon": "17.0166667"}, {"lat": "-17.4666667", "city": "Okawe", "lon": "17.2"}, {"lat": "-17.5666667", "city": "Okongo", "lon": "17.2166667"}, {"lat": "-17.4", "city": "Okwatiwalunga", "lon": "17.0666667"}, {"lat": "-17.5833333", "city": "Oluhapa", "lon": "17.3"}, {"lat": "-17.45", "city": "Olukula", "lon": "17.4833333"}, {"lat": "-17.5333333", "city": "Olukumwa", "lon": "17.1"}, {"lat": "-17.4166667", "city": "Olunkono", "lon": "15.9"}, {"lat": "-17.4", "city": "Olupale", "lon": "17.4"}, {"lat": "-17.6666667", "city": "Olupundi", "lon": "17.3"}, {"lat": "-17.5333333", "city": "Oluwaya", "lon": "17.05"}, {"lat": "-17.4333333", "city": "Omadano", "lon": "16.7666667"}, {"lat": "-17.5666667", "city": "Omakondo", "lon": "16.2"}, {"lat": "-17.6333333", "city": "Omalundudu", "lon": "16.7666667"}, {"lat": "-17.4", "city": "Omatangela", "lon": "15.7333333"}, {"lat": "-17.5166667", "city": "Ombaba", "lon": "16.8666667"}, {"lat": "-17.3833333", "city": "Ombabi", "lon": "17.4666667"}, {"lat": "-17.7", "city": "Ombalayamumbwenge", "lon": "16.0666667"}, {"lat": "-17.4", "city": "Omboloka", "lon": "17.1333333"}, {"lat": "-17.6166667", "city": "Ombugayamupolo", "lon": "17.0166667"}, {"lat": "-17.4333333", "city": "Ombundiya", "lon": "17.3333333"}, {"lat": "-17.55", "city": "Omhangela", "lon": "15.7"}, {"lat": "-17.5", "city": "Omhedi", "lon": "15.85"}, {"lat": "-17.45", "city": "Omikwa", "lon": "15.7"}, {"lat": "-17.4333333", "city": "Omufiya", "lon": "16.8833333"}, {"lat": "-17.4833333", "city": "Omukukutu", "lon": "16.8833333"}, {"lat": "-17.5833333", "city": "Omulamba", "lon": "17.2"}, {"lat": "-17.4666667", "city": "Omulonga", "lon": "16.85"}, {"lat": "-17.4166667", "city": "Omundaungilo", "lon": "16.7"}, {"lat": "-17.55", "city": "Omundudu", "lon": "15.6833333"}, {"lat": "-17.4166667", "city": "Omungholyo", "lon": "16.15"}, {"lat": "-17.5", "city": "Omungwelume", "lon": "15.6333333"}, {"lat": "-17.4833333", "city": "Omunyekadi", "lon": "16.0666667"}, {"lat": "-17.5666667", "city": "Omupembe", "lon": "17.1333333"}, {"lat": "-17.6666667", "city": "Omupini", "lon": "17.4833333"}, {"lat": "-17.3833333", "city": "Omushakala", "lon": "17.25"}, {"lat": "-17.6833333", "city": "Omusheshe", "lon": "15.75"}, {"lat": "-17.65", "city": "Omushigo", "lon": "17.1333333"}, {"lat": "-17.6333333", "city": "Omushilawombadje", "lon": "16.8666667"}, {"lat": "-17.5333333", "city": "Omutuni", "lon": "17.45"}, {"lat": "-17.5666667", "city": "Omutwewomunhu", "lon": "16.8833333"}, {"lat": "-17.4", "city": "Omutwewondjaba", "lon": "16.3"}, {"lat": "-17.45", "city": "Omutwewonime", "lon": "16.75"}, {"lat": "-17.4833333", "city": "Omuulu", "lon": "16.1666667"}, {"lat": "-17.5666667", "city": "Omuwike", "lon": "17.2333333"}, {"lat": "-17.5333333", "city": "Omvil", "lon": "16.6333333"}, {"lat": "-17.5166667", "city": "Omwandi", "lon": "15.9333333"}, {"lat": "-17.4", "city": "Onaimbungu", "lon": "16.8666667"}, {"lat": "-17.4833333", "city": "Onakalunga", "lon": "16.45"}, {"lat": "-17.6666667", "city": "Onakankunzi", "lon": "17.1"}, {"lat": "-17.5833333", "city": "Onamahoka", "lon": "16.0"}, {"lat": "-17.6666667", "city": "Onamasila", "lon": "17.0833333"}, {"lat": "-17.45", "city": "Onamatadiva", "lon": "17.1166667"}, {"lat": "-17.5166667", "city": "Onamatandiva", "lon": "17.1"}, {"lat": "-17.7", "city": "Onambaladi", "lon": "16.7666667"}, {"lat": "-17.3833333", "city": "Onambutu", "lon": "16.2333333"}, {"lat": "-17.7", "city": "Onamhombo", "lon": "16.9"}, {"lat": "-17.55", "city": "Onamihonga", "lon": "17.0333333"}, {"lat": "-17.6833333", "city": "Onamtai", "lon": "15.8666667"}, {"lat": "-17.6833333", "city": "Onamtayi", "lon": "15.8666667"}, {"lat": "-17.5666667", "city": "Onamudime", "lon": "16.95"}, {"lat": "-17.6666667", "city": "Onamukulo", "lon": "16.05"}, {"lat": "-17.5333333", "city": "Onamundidi", "lon": "16.5666667"}, {"lat": "-17.45", "city": "Onamungodjo", "lon": "16.7833333"}, {"lat": "-17.3833333", "city": "Onamunhama", "lon": "16.1"}, {"lat": "-17.6833333", "city": "Onamutai", "lon": "15.8666667"}, {"lat": "-17.45", "city": "Onandjaba", "lon": "17.0"}, {"lat": "-17.5166667", "city": "Onandjushi", "lon": "17.2833333"}, {"lat": "-17.4166667", "city": "Onangama", "lon": "15.65"}, {"lat": "-17.65", "city": "Onangava", "lon": "17.2666667"}, {"lat": "-17.5666667", "city": "Onanghulo", "lon": "15.8166667"}, {"lat": "-17.5666667", "city": "Onangolo", "lon": "16.5166667"}, {"lat": "-17.5666667", "city": "Onangulo", "lon": "15.8166667"}, {"lat": "-17.5666667", "city": "Onangwe", "lon": "16.05"}, {"lat": "-17.5", "city": "Ondaanda", "lon": "16.25"}, {"lat": "-17.5", "city": "Ondanda", "lon": "16.25"}, {"lat": "-17.4666667", "city": "Ondema", "lon": "17.15"}, {"lat": "-17.5166667", "city": "Ondeshifiilwa", "lon": "15.6666667"}, {"lat": "-17.65", "city": "Ondiihaluka", "lon": "15.9333333"}, {"lat": "-17.55", "city": "Ondingwanyama", "lon": "16.3166667"}, {"lat": "-17.4", "city": "Ondjaba", "lon": "17.1833333"}, {"lat": "-17.5166667", "city": "Ondobe", "lon": "16.05"}, {"lat": "-17.3833333", "city": "Onduna", "lon": "17.0833333"}, {"lat": "-17.5", "city": "Ondwi", "lon": "16.6166667"}, {"lat": "-17.5666667", "city": "Onehanga", "lon": "17.4833333"}, {"lat": "-17.4", "city": "Onehova", "lon": "16.55"}, {"lat": "-17.4333333", "city": "Onekwaya", "lon": "15.9333333"}, {"lat": "-17.4", "city": "Onengali", "lon": "15.9333333"}, {"lat": "-17.65", "city": "Onepandaulo", "lon": "15.6833333"}, {"lat": "-17.65", "city": "Oneshiyo", "lon": "16.6833333"}, {"lat": "-17.4833333", "city": "Ongalangobe", "lon": "17.2666667"}, {"lat": "-17.5", "city": "Ongali", "lon": "15.7833333"}, {"lat": "-17.4333333", "city": "Ongenga", "lon": "15.6833333"}, {"lat": "-17.5333333", "city": "Onghwiyu", "lon": "16.85"}, {"lat": "-17.6166667", "city": "Ongolongela", "lon": "17.1833333"}, {"lat": "-17.4", "city": "Ongumi", "lon": "17.2666667"}, {"lat": "-17.6", "city": "Onheleiwa", "lon": "17.2666667"}, {"lat": "-17.4333333", "city": "Onheti", "lon": "16.2333333"}, {"lat": "-17.6166667", "city": "Onhumba", "lon": "17.1333333"}, {"lat": "-17.4166667", "city": "Onhunda", "lon": "16.5833333"}, {"lat": "-17.5833333", "city": "Oniimwandi", "lon": "16.7"}, {"lat": "-17.4166667", "city": "Opepela", "lon": "16.95"}, {"lat": "-17.55", "city": "Oshaangu", "lon": "17.0833333"}, {"lat": "-17.5", "city": "Oshakati", "lon": "17.3333333"}, {"lat": "-17.5", "city": "Oshali", "lon": "17.0333333"}, {"lat": "-17.6833333", "city": "Oshamambu", "lon": "17.3666667"}, {"lat": "-17.4", "city": "Oshambada", "lon": "16.4666667"}, {"lat": "-17.5", "city": "Oshanashiwa", "lon": "17.2333333"}, {"lat": "-17.45", "city": "Oshandi", "lon": "16.2"}, {"lat": "-17.6333333", "city": "Oshapwa", "lon": "15.65"}, {"lat": "-17.6333333", "city": "Oshatotwa", "lon": "17.3"}, {"lat": "-17.5666667", "city": "Oshidute", "lon": "17.2666667"}, {"lat": "-17.7", "city": "Oshifitu", "lon": "16.9666667"}, {"lat": "-17.4", "city": "Oshikango", "lon": "15.8833333"}, {"lat": "-17.55", "city": "Oshikunde", "lon": "16.75"}, {"lat": "-17.4833333", "city": "Oshikuni", "lon": "17.45"}, {"lat": "-17.4833333", "city": "Oshikwiyu", "lon": "15.6333333"}, {"lat": "-17.65", "city": "Oshilambwili", "lon": "16.9333333"}, {"lat": "-17.5", "city": "Oshimwaku", "lon": "15.7"}, {"lat": "-17.55", "city": "Oshinge", "lon": "15.9833333"}, {"lat": "-17.4333333", "city": "Oshipala", "lon": "16.65"}, {"lat": "-17.4", "city": "Oshishogolo", "lon": "17.3166667"}, {"lat": "-17.4166667", "city": "Oshitai", "lon": "17.0333333"}, {"lat": "-17.65", "city": "Oshombwa", "lon": "16.7666667"}, {"lat": "-17.4666667", "city": "Oshuli", "lon": "16.8833333"}, {"lat": "-17.5333333", "city": "Oshuudiya", "lon": "17.1666667"}, {"lat": "-17.4", "city": "Otofima", "lon": "16.8333333"}, {"lat": "-17.65", "city": "Otunganga", "lon": "16.1666667"}, {"lat": "-17.7", "city": "Otyaityava", "lon": "17.0333333"}, {"lat": "-17.5666667", "city": "Oukala", "lon": "16.6"}, {"lat": "-17.4666667", "city": "Oumbada", "lon": "16.0166667"}, {"lat": "-17.6", "city": "Oupili", "lon": "16.9666667"}, {"lat": "-17.4833333", "city": "Oupongo", "lon": "15.8333333"}, {"lat": "-17.6833333", "city": "Oupumako", "lon": "15.7833333"}, {"lat": "-17.5", "city": "Oushini", "lon": "16.7666667"}, {"lat": "-17.5166667", "city": "Outwilo", "lon": "16.05"}, {"lat": "-17.6", "city": "Sliputu", "lon": "15.6166667"}, {"lat": "-17.5833333", "city": "Tsamatse", "lon": "17.3333333"}, {"lat": "-17.6666667", "city": "Uukangowahamalwa", "lon": "17.0166667"}, {"lat": "-17.5666667", "city": "Yanghandja", "lon": "16.0166667"}], "32": [{"lat": "-18.1", "city": "Amakange", "lon": "14.3333333"}, {"lat": "-18.1833333", "city": "Anabib", "lon": "12.5166667"}, {"lat": "-20.9333333", "city": "Anixab", "lon": "14.85"}, {"lat": "-18.8333333", "city": "Antheap Milepost", "lon": "16.8"}, {"lat": "-18.4166667", "city": "Arona", "lon": "14.5166667"}, {"lat": "-20.3", "city": "Bam se Pos", "lon": "15.0333333"}, {"lat": "-17.4833333", "city": "Ehomba", "lon": "13.8166667"}, {"lat": "-17.9666667", "city": "Ekambo", "lon": "12.9333333"}, {"lat": "-18.65", "city": "Ekango", "lon": "14.25"}, {"lat": "-17.65", "city": "Embwende", "lon": "12.8"}, {"lat": "-17.85", "city": "Etanga", "lon": "13.0333333"}, {"lat": "-17.4833333", "city": "Etengua", "lon": "13.05"}, {"lat": "-17.4833333", "city": "Etengwa", "lon": "13.05"}, {"lat": "-17.6333333", "city": "Etoto", "lon": "14.1166667"}, {"lat": "-17.3833333", "city": "Etunda", "lon": "14.5166667"}, {"lat": "-20.2166667", "city": "Fransfontein", "lon": "15.0166667"}, {"lat": "-20.2166667", "city": "Franzfontein", "lon": "15.0166667"}, {"lat": "-20.2166667", "city": "Garrettes Pos", "lon": "14.9"}, {"lat": "-18.3", "city": "Gauko-Otavi", "lon": "13.7"}, {"lat": "-18.3", "city": "Gauko-Otawi", "lon": "13.7"}, {"lat": "-19.0333333", "city": "Halali", "lon": "16.4666667"}, {"lat": "-19.0333333", "city": "Halali Rest Camp", "lon": "16.4666667"}, {"lat": "-19.0333333", "city": "Halali Ruskamp", "lon": "16.4666667"}, {"lat": "-18.5", "city": "Hamutenja", "lon": "13.7833333"}, {"lat": "-19.9333333", "city": "Juriesdraai", "lon": "13.9"}, {"lat": "-19.7666667", "city": "Kakatswa Onguati", "lon": "14.6333333"}, {"lat": "-20.9", "city": "Kalkbron", "lon": "14.7666667"}, {"lat": "-19.6333333", "city": "Kamanjab", "lon": "14.8333333"}, {"lat": "-20.1666667", "city": "Kaneb Pos", "lon": "15.05"}, {"lat": "-18.3", "city": "Kaoko Otavi", "lon": "13.7"}, {"lat": "-20.3666667", "city": "Khorixas", "lon": "14.9666667"}, {"lat": "-19.2666667", "city": "Khowarib", "lon": "13.8666667"}, {"lat": "-20.95", "city": "Klein-Ais", "lon": "14.9666667"}, {"lat": "-19.0666667", "city": "Klein Kowares", "lon": "14.35"}, {"lat": "-20.1666667", "city": "Konob Pos", "lon": "14.95"}, {"lat": "-19.05", "city": "Kowares", "lon": "14.35"}, {"lat": "-20.25", "city": "Mopane Pos", "lon": "15.0666667"}, {"lat": "-19.3666667", "city": "M\u00f6webaai", "lon": "12.7"}, {"lat": "-20.1833333", "city": "Naachaams", "lon": "14.8333333"}, {"lat": "-18.8", "city": "Namutoni", "lon": "16.9833333"}, {"lat": "-20.1833333", "city": "Narachaams", "lon": "14.8333333"}, {"lat": "-20.1833333", "city": "Narachaams Pos", "lon": "14.8333333"}, {"lat": "-20.0333333", "city": "Nungubais Noord", "lon": "15.8333333"}, {"lat": "-20.0333333", "city": "Nungubais", "lon": "15.8333333"}, {"lat": "-18.6333333", "city": "Ohama", "lon": "14.3"}, {"lat": "-19.1333333", "city": "Ohamuheke", "lon": "13.6166667"}, {"lat": "-17.75", "city": "Ohandungu", "lon": "13.65"}, {"lat": "-18.4666667", "city": "Ohinakawe", "lon": "13.3333333"}, {"lat": "-18.6666667", "city": "Ohohorwa", "lon": "13.5"}, {"lat": "-17.3166667", "city": "Ohongondjanambari", "lon": "13.0333333"}, {"lat": "-18.0666667", "city": "Ohopoho", "lon": "13.85"}, {"lat": "-18.0666667", "city": "Ohopuho", "lon": "13.85"}, {"lat": "-18.6666667", "city": "Ohorua", "lon": "13.5"}, {"lat": "-18.0166667", "city": "Okaanga", "lon": "12.8166667"}, {"lat": "-18.7333333", "city": "Okaaruu", "lon": "13.7"}, {"lat": "-18.45", "city": "Okahodhu", "lon": "14.0666667"}, {"lat": "-18.1833333", "city": "Okaholo", "lon": "14.3833333"}, {"lat": "-18.8", "city": "Okahororwa", "lon": "14.2"}, {"lat": "-17.7333333", "city": "Okahosu", "lon": "13.8833333"}, {"lat": "-17.7333333", "city": "Okahozu", "lon": "13.8833333"}, {"lat": "-18.7333333", "city": "Okahwa", "lon": "13.8833333"}, {"lat": "-18.5666667", "city": "Okakuara", "lon": "13.55"}, {"lat": "-17.5", "city": "Okakuyu", "lon": "12.9666667"}, {"lat": "-18.6166667", "city": "Okalindi-Komutati", "lon": "14.05"}, {"lat": "-18.25", "city": "Okambaramba", "lon": "13.3333333"}, {"lat": "-19.0833333", "city": "Okambonde", "lon": "13.9666667"}, {"lat": "-18.8", "city": "Okamborombonga", "lon": "13.6666667"}, {"lat": "-18.2666667", "city": "Okambwarongo", "lon": "13.2333333"}, {"lat": "-18.6166667", "city": "Okanambundona", "lon": "14.3666667"}, {"lat": "-18.2666667", "city": "Okandjombo", "lon": "12.8833333"}, {"lat": "-17.4333333", "city": "Okangwati", "lon": "13.2666667"}, {"lat": "-17.3833333", "city": "Okaoraore", "lon": "13.1166667"}, {"lat": "-17.8", "city": "Okapawe", "lon": "12.9833333"}, {"lat": "-19.0833333", "city": "Okapunde", "lon": "13.9666667"}, {"lat": "-18.8666667", "city": "Okatjangee", "lon": "14.3666667"}, {"lat": "-18.8", "city": "Okatjovandu", "lon": "14.3"}, {"lat": "-17.5666667", "city": "Okauapehuri", "lon": "13.9333333"}, {"lat": "-19.1833333", "city": "Okaukuejo", "lon": "15.9333333"}, {"lat": "-19.1833333", "city": "Okaukueyo", "lon": "15.9333333"}, {"lat": "-18.7833333", "city": "Okauwa", "lon": "14.0333333"}, {"lat": "-20.5166667", "city": "Okavakwa", "lon": "15.35"}, {"lat": "-17.5833333", "city": "Okavandje", "lon": "13.75"}, {"lat": "-18.3666667", "city": "Okavare", "lon": "13.9"}, {"lat": "-17.5833333", "city": "Okawani", "lon": "13.75"}, {"lat": "-20.9166667", "city": "Okayepe", "lon": "14.9166667"}, {"lat": "-17.6666667", "city": "Okohonga", "lon": "13.4"}, {"lat": "-18.35", "city": "Okomaruru", "lon": "13.2166667"}, {"lat": "-17.25", "city": "Okombambi", "lon": "12.8166667"}, {"lat": "-18.6666667", "city": "Okomizema", "lon": "14.35"}, {"lat": "-18.25", "city": "Okomutati", "lon": "13.0833333"}, {"lat": "-17.9833333", "city": "Okongo", "lon": "13.8333333"}, {"lat": "-18.8833333", "city": "Okongutirwa", "lon": "14.2"}, {"lat": "-18.7833333", "city": "Okonjota", "lon": "14.3333333"}, {"lat": "-18.1666667", "city": "Okorosave", "lon": "13.8"}, {"lat": "-18.1666667", "city": "Okorosawe", "lon": "13.8"}, {"lat": "-17.6666667", "city": "Okovihona", "lon": "13.0833333"}, {"lat": "-17.7", "city": "Okozondsuwoine", "lon": "13.75"}, {"lat": "-18.2166667", "city": "Okozongoro", "lon": "13.5166667"}, {"lat": "-18.65", "city": "Okozongwehe", "lon": "14.2166667"}, {"lat": "-18.3333333", "city": "Okozoserandu", "lon": "14.1833333"}, {"lat": "-18.25", "city": "Okumutati", "lon": "13.0833333"}, {"lat": "-20.25", "city": "Olifantsput Pos", "lon": "14.95"}, {"lat": "-17.4333333", "city": "Olifa", "lon": "14.4166667"}, {"lat": "-17.8", "city": "Omabzu", "lon": "13.7833333"}, {"lat": "-18.7833333", "city": "Omanye", "lon": "13.0833333"}, {"lat": "-18.8833333", "city": "Omatapati", "lon": "14.1333333"}, {"lat": "-18.4166667", "city": "Ombahe-Yakako", "lon": "13.7166667"}, {"lat": "-17.55", "city": "Ombahu", "lon": "13.6666667"}, {"lat": "-17.5666667", "city": "Ombaravera", "lon": "12.4833333"}, {"lat": "-17.7833333", "city": "Ombawe", "lon": "12.6666667"}, {"lat": "-18.75", "city": "Ombepera", "lon": "13.5833333"}, {"lat": "-17.4833333", "city": "Ombivango", "lon": "12.45"}, {"lat": "-17.2333333", "city": "Ombuku", "lon": "13.3666667"}, {"lat": "-17.8333333", "city": "Omuhanguzi", "lon": "13.4333333"}, {"lat": "-18.4166667", "city": "Omuhiva", "lon": "13.4666667"}, {"lat": "-17.2833333", "city": "Omukurukaze", "lon": "12.7166667"}, {"lat": "-18.2333333", "city": "Omungunda", "lon": "13.4333333"}, {"lat": "-17.7833333", "city": "Omungwindi", "lon": "12.8833333"}, {"lat": "-18.5666667", "city": "Omunwandjai", "lon": "13.9333333"}, {"lat": "-17.2", "city": "Omuramba", "lon": "13.2166667"}, {"lat": "-18.0833333", "city": "Omwe", "lon": "13.7333333"}, {"lat": "-18.3", "city": "Onamatanga", "lon": "14.5166667"}, {"lat": "-17.9833333", "city": "Ondauka", "lon": "13.15"}, {"lat": "-17.9833333", "city": "Ondjombo", "lon": "12.6166667"}, {"lat": "-18.1666667", "city": "Ondole", "lon": "13.8666667"}, {"lat": "-17.25", "city": "Ondova", "lon": "13.1666667"}, {"lat": "-17.6", "city": "Ongonga", "lon": "13.1333333"}, {"lat": "-19.7666667", "city": "Onguati", "lon": "14.6333333"}, {"lat": "-17.75", "city": "Onhandungu", "lon": "13.65"}, {"lat": "-17.75", "city": "Oozonduwombe", "lon": "12.9666667"}, {"lat": "-18.0666667", "city": "Opuwa", "lon": "13.85"}, {"lat": "-18.0666667", "city": "Opuwo", "lon": "13.85"}, {"lat": "-17.15", "city": "Orjimbarombonga", "lon": "12.75"}, {"lat": "-17.5", "city": "Orokakaru", "lon": "13.8833333"}, {"lat": "-18.3", "city": "Orokatundu", "lon": "13.7833333"}, {"lat": "-17.45", "city": "Orokatuwo", "lon": "12.7"}, {"lat": "-18.1666667", "city": "Orongoto", "lon": "13.0166667"}, {"lat": "-18.0166667", "city": "Orontjitombo", "lon": "13.6666667"}, {"lat": "-17.9833333", "city": "Orotjitombo", "lon": "13.65"}, {"lat": "-17.4333333", "city": "Orue", "lon": "13.2"}, {"lat": "-20.8666667", "city": "Oruhito", "lon": "14.95"}, {"lat": "-17.6833333", "city": "Oruhona", "lon": "13.6"}, {"lat": "-18.1333333", "city": "Orukwapa", "lon": "13.3333333"}, {"lat": "-18.1833333", "city": "Orupemba", "lon": "12.5166667"}, {"lat": "-18.1833333", "city": "Orupembe", "lon": "12.5166667"}, {"lat": "-17.8333333", "city": "Orutanda", "lon": "12.7166667"}, {"lat": "-18.9166667", "city": "Oruvandjai", "lon": "14.1"}, {"lat": "-17.0833333", "city": "Oryeheke", "lon": "13.35"}, {"lat": "-17.4166667", "city": "Osongunde", "lon": "13.7166667"}, {"lat": "-17.5833333", "city": "Otengua", "lon": "13.0"}, {"lat": "-18.5833333", "city": "Othamutirika", "lon": "14.25"}, {"lat": "-18.5166667", "city": "Otjahorowara", "lon": "13.8"}, {"lat": "-17.8333333", "city": "Otjaparakaha", "lon": "13.1166667"}, {"lat": "-18.8666667", "city": "Otjapitjapi", "lon": "13.9"}, {"lat": "-18.7833333", "city": "Otjetjekwa", "lon": "14.3833333"}, {"lat": "-17.8833333", "city": "Otjiauena", "lon": "13.9333333"}, {"lat": "-17.6", "city": "Otjihende", "lon": "12.7666667"}, {"lat": "-17.4333333", "city": "Otjijandjasemo", "lon": "13.2666667"}, {"lat": "-18.75", "city": "Otjikondavirongo", "lon": "13.5333333"}, {"lat": "-19.85", "city": "Otjikondo", "lon": "15.4666667"}, {"lat": "-18.8833333", "city": "Otjikongoi", "lon": "14.05"}, {"lat": "-17.8833333", "city": "Otjikuina", "lon": "13.9333333"}, {"lat": "-18.6166667", "city": "Otjinanwa", "lon": "13.5333333"}, {"lat": "-17.2666667", "city": "Otjinhungwa", "lon": "12.4333333"}, {"lat": "-18.0833333", "city": "Otjipembahi", "lon": "13.5833333"}, {"lat": "-17.8833333", "city": "Otjiquena", "lon": "13.9333333"}, {"lat": "-18.6333333", "city": "Otjirareni", "lon": "13.35"}, {"lat": "-18.6333333", "city": "Otjiraroni", "lon": "13.35"}, {"lat": "-17.8166667", "city": "Otjirova", "lon": "13.25"}, {"lat": "-17.6166667", "city": "Otjitanda", "lon": "12.8666667"}, {"lat": "-17.4", "city": "Otjitanga", "lon": "13.4833333"}, {"lat": "-18.0166667", "city": "Otjitati", "lon": "12.6666667"}, {"lat": "-18.6166667", "city": "Otjitunduwa", "lon": "14.1333333"}, {"lat": "-17.95", "city": "Otjiunaune", "lon": "12.4666667"}, {"lat": "-18.25", "city": "Otjiu", "lon": "13.25"}, {"lat": "-17.1", "city": "Otjivakuanda", "lon": "13.2333333"}, {"lat": "-18.8333333", "city": "Otjivero", "lon": "14.3666667"}, {"lat": "-18.5", "city": "Otjivikango", "lon": "14.3666667"}, {"lat": "-18.0833333", "city": "Otjiwarongo", "lon": "13.0833333"}, {"lat": "-18.8666667", "city": "Otjomatemba", "lon": "13.75"}, {"lat": "-18.65", "city": "Otjomumbonde", "lon": "14.15"}, {"lat": "-18.6166667", "city": "Otjonana", "lon": "13.5333333"}, {"lat": "-18.6166667", "city": "Otjondeka", "lon": "14.2166667"}, {"lat": "-18.0", "city": "Otjongava", "lon": "13.8"}, {"lat": "-18.7666667", "city": "Otjorongwari", "lon": "13.3833333"}, {"lat": "-18.1833333", "city": "Otjouye", "lon": "13.9666667"}, {"lat": "-19.2333333", "city": "Otjovasando", "lon": "14.4833333"}, {"lat": "-19.2333333", "city": "Otjovasandu", "lon": "14.4833333"}, {"lat": "-19.2333333", "city": "Otjovasondu", "lon": "14.4833333"}, {"lat": "-19.2333333", "city": "Otjovazandu", "lon": "14.4833333"}, {"lat": "-18.8333333", "city": "Otjozongombe", "lon": "13.9666667"}, {"lat": "-18.25", "city": "Otju", "lon": "13.25"}, {"lat": "-17.85", "city": "Otuazuma", "lon": "13.3333333"}, {"lat": "-18.35", "city": "Otuvare", "lon": "13.5"}, {"lat": "-18.35", "city": "Otuware", "lon": "13.5"}, {"lat": "-18.5833333", "city": "Otwani", "lon": "13.6666667"}, {"lat": "-17.65", "city": "Otyoyononoka", "lon": "12.65"}, {"lat": "-17.9833333", "city": "Oukongo", "lon": "13.8333333"}, {"lat": "-20.1166667", "city": "Outjo", "lon": "16.15"}, {"lat": "-17.5666667", "city": "Owatjipaue", "lon": "13.3"}, {"lat": "-17.4833333", "city": "Owatupanda", "lon": "13.2833333"}, {"lat": "-18.9333333", "city": "Ozombari", "lon": "13.5"}, {"lat": "-18.5333333", "city": "Ozongunda", "lon": "14.25"}, {"lat": "-19.9166667", "city": "Palm", "lon": "13.9666667"}, {"lat": "-20.2166667", "city": "Petrusfontein Pos", "lon": "14.8666667"}, {"lat": "-17.4333333", "city": "Ruacana", "lon": "14.35"}, {"lat": "-19.1333333", "city": "Sesfontein", "lon": "13.6166667"}, {"lat": "-20.9833333", "city": "Sorris-Sorris", "lon": "14.7833333"}, {"lat": "-20.1666667", "city": "Spitskop Pos", "lon": "15.0166667"}, {"lat": "-18.9", "city": "Toakas", "lon": "13.2833333"}, {"lat": "-18.9", "city": "Tomakas", "lon": "13.2833333"}, {"lat": "-20.3166667", "city": "Torrabaai", "lon": "13.2333333"}, {"lat": "-20.8333333", "city": "Toscanini", "lon": "13.4166667"}, {"lat": "-20.3666667", "city": "Wallwitch", "lon": "14.9666667"}, {"lat": "-19.1666667", "city": "Warmquelle", "lon": "13.8166667"}, {"lat": "-20.3666667", "city": "Wellwitsch", "lon": "14.9666667"}, {"lat": "-20.3666667", "city": "Welwitschia", "lon": "14.9666667"}, {"lat": "-20.3666667", "city": "Welwitsch", "lon": "14.9666667"}, {"lat": "-19.1333333", "city": "Zesfontein", "lon": "13.6166667"}, {"lat": "-19.1333333", "city": "Zessfontein", "lon": "13.6166667"}], "31": [{"lat": "-28.0833333", "city": "Affenr\u00fccken", "lon": "15.8166667"}, {"lat": "-27.9166667", "city": "Ai-Ais", "lon": "17.4833333"}, {"lat": "-28.1833333", "city": "Ais", "lon": "19.5166667"}, {"lat": "-28.5333333", "city": "Aluriesfontein", "lon": "18.7"}, {"lat": "-28.5333333", "city": "Alurisfontein", "lon": "18.7"}, {"lat": "-27.65", "city": "Angra-Juntas", "lon": "15.55"}, {"lat": "-27.65", "city": "Angras Juntas", "lon": "15.55"}, {"lat": "-26.8", "city": "Araob", "lon": "19.65"}, {"lat": "-27.2833333", "city": "Ariamab", "lon": "17.4666667"}, {"lat": "-28.1166667", "city": "Ariamsvlei", "lon": "19.8166667"}, {"lat": "-28.1166667", "city": "Ariamsvley", "lon": "19.8166667"}, {"lat": "-26.8", "city": "Aroab", "lon": "19.65"}, {"lat": "-28.25", "city": "Aup\u00fctz", "lon": "18.0833333"}, {"lat": "-26.1166667", "city": "Aurus", "lon": "14.9833333"}, {"lat": "-26.6666667", "city": "Aus", "lon": "16.2666667"}, {"lat": "-28.2833333", "city": "Austerlitz", "lon": "19.25"}, {"lat": "-28.7", "city": "Beenbreek", "lon": "19.4166667"}, {"lat": "-25.9833333", "city": "Berseba", "lon": "17.7833333"}, {"lat": "-26.4833333", "city": "Bethanie", "lon": "17.15"}, {"lat": "-26.4833333", "city": "Bethanien", "lon": "17.15"}, {"lat": "-26.4833333", "city": "Bethany", "lon": "17.15"}, {"lat": "-26.1333333", "city": "Blau", "lon": "18.2666667"}, {"lat": "-26.1333333", "city": "Blaukehl", "lon": "18.2666667"}, {"lat": "-26.1333333", "city": "Blouwes", "lon": "18.2666667"}, {"lat": "-28.3", "city": "Blydeverwacht", "lon": "19.6"}, {"lat": "-28.3333333", "city": "Bokiesbank", "lon": "19.3333333"}, {"lat": "-28.3333333", "city": "Bokiesbank Oos", "lon": "19.3333333"}, {"lat": "-28.3333333", "city": "Bokiesbank Ost", "lon": "19.3333333"}, {"lat": "-28.4666667", "city": "Bruinheuvel", "lon": "18.1666667"}, {"lat": "-28.4666667", "city": "Bruinheuwel", "lon": "18.1666667"}, {"lat": "-28.0833333", "city": "Charliesputs", "lon": "19.6833333"}, {"lat": "-28.0833333", "city": "Charlys P\u00fctz", "lon": "19.6833333"}, {"lat": "-28.0833333", "city": "Chrisjansputs", "lon": "18.2666667"}, {"lat": "-28.0833333", "city": "Christians P\u00fctz", "lon": "18.2666667"}, {"lat": "-28.2666667", "city": "Dabegabis", "lon": "18.6166667"}, {"lat": "-27.5333333", "city": "Davignab", "lon": "19.8166667"}, {"lat": "-27.5333333", "city": "Davignab S\u00fcd", "lon": "19.8166667"}, {"lat": "-27.5333333", "city": "Davignab Suid", "lon": "19.8166667"}, {"lat": "-28.2666667", "city": "Dawegabis", "lon": "18.6166667"}, {"lat": "-27.5333333", "city": "Dawignab", "lon": "19.8166667"}, {"lat": "-28.2666667", "city": "Debegabis", "lon": "18.6166667"}, {"lat": "-28.0833333", "city": "Devillers P\u00fctz", "lon": "19.1833333"}, {"lat": "-28.0833333", "city": "De Villiersputs", "lon": "19.1833333"}, {"lat": "-28.0833333", "city": "De Villiers P\u00fctz", "lon": "19.1833333"}, {"lat": "-28.3", "city": "Dobegabis", "lon": "18.7"}, {"lat": "-28.1", "city": "Draaihoek", "lon": "18.6"}, {"lat": "-28.1", "city": "Dreihuk", "lon": "18.6"}, {"lat": "-28.15", "city": "Drei Kameelbaum", "lon": "19.0833333"}, {"lat": "-28.35", "city": "Duurdrift", "lon": "19.3666667"}, {"lat": "-28.35", "city": "Duurdrift S\u00fcd", "lon": "19.3666667"}, {"lat": "-28.1833333", "city": "Elandsdraai", "lon": "19.5166667"}, {"lat": "-26.9161111", "city": "Elizabeth Bay", "lon": "15.1838889"}, {"lat": "-26.9161111", "city": "Elizabeth", "lon": "15.1838889"}, {"lat": "-25.8333333", "city": "Enoch", "lon": "18.35"}, {"lat": "-28.75", "city": "Eselsruhe", "lon": "18.8666667"}, {"lat": "-28.75", "city": "Eselsruh", "lon": "18.8666667"}, {"lat": "-28.75", "city": "Eselsrus", "lon": "18.8666667"}, {"lat": "-28.0833333", "city": "Gaibes", "lon": "17.75"}, {"lat": "-27.0666667", "city": "Gaigoab", "lon": "17.2666667"}, {"lat": "-25.7666667", "city": "Gainachas", "lon": "17.7"}, {"lat": "-25.8333333", "city": "Ganigobes", "lon": "18.0"}, {"lat": "-28.7666667", "city": "Gaobis", "lon": "18.35"}, {"lat": "-25.9833333", "city": "Garep", "lon": "16.1833333"}, {"lat": "-27.0666667", "city": "Geigoab", "lon": "17.2666667"}, {"lat": "-28.2333333", "city": "Goeroegas", "lon": "18.3166667"}, {"lat": "-27.3666667", "city": "Granitberg", "lon": "15.4"}, {"lat": "-26.9833333", "city": "Grillenthal", "lon": "15.35"}, {"lat": "-28.1", "city": "Groendoring", "lon": "19.2833333"}, {"lat": "-28.1", "city": "Groendorn", "lon": "19.2833333"}, {"lat": "-28.7666667", "city": "Groot Gaobis", "lon": "18.35"}, {"lat": "-28.3833333", "city": "Groot Kais", "lon": "18.85"}, {"lat": "-27.9833333", "city": "Grootplaas", "lon": "18.1666667"}, {"lat": "-28.0333333", "city": "Grootplaats", "lon": "18.2333333"}, {"lat": "-26.6333333", "city": "Groot Schwarzkuppe", "lon": "17.0333333"}, {"lat": "-27.7333333", "city": "Gr\u00fcnau", "lon": "18.3833333"}, {"lat": "-28.1", "city": "Gr\u00fcndorn", "lon": "19.2833333"}, {"lat": "-28.0333333", "city": "Guichabis", "lon": "18.45"}, {"lat": "-28.2333333", "city": "Guruchas", "lon": "18.3166667"}, {"lat": "-28.8833333", "city": "Haakiesdoorn", "lon": "18.2166667"}, {"lat": "-28.8833333", "city": "Hackiesdorn", "lon": "18.2166667"}, {"lat": "-28.2", "city": "Haib", "lon": "18.35"}, {"lat": "-28.2", "city": "Haib Rhenish Mission", "lon": "18.3333333"}, {"lat": "-28.8833333", "city": "Hakiesdoorn", "lon": "18.2166667"}, {"lat": "-28.4", "city": "Haldenwang", "lon": "18.5833333"}, {"lat": "-28.1", "city": "Hamab", "lon": "19.2833333"}, {"lat": "-25.8833333", "city": "Helmeringhausen", "lon": "16.8166667"}, {"lat": "-26.2", "city": "Hoapegas", "lon": "17.6666667"}, {"lat": "-28.6833333", "city": "Hochfeld", "lon": "18.8"}, {"lat": "-28.4833333", "city": "Hochland", "lon": "18.3833333"}, {"lat": "-28.3", "city": "Hogeis", "lon": "19.2666667"}, {"lat": "-28.5", "city": "Hohenfels", "lon": "16.6"}, {"lat": "-27.4", "city": "Holoog", "lon": "17.95"}, {"lat": "-26.1333333", "city": "Hottentoten Bay", "lon": "14.9333333"}, {"lat": "-26.1333333", "city": "Huitsib", "lon": "17.6833333"}, {"lat": "-28.2833333", "city": "Hunam Ost", "lon": "19.0333333"}, {"lat": "-28.3166667", "city": "Huniam", "lon": "18.85"}, {"lat": "-28.2833333", "city": "Huniam Ost", "lon": "19.0333333"}, {"lat": "-28.2833333", "city": "Huniams Oos", "lon": "19.0333333"}, {"lat": "-28.3166667", "city": "Huniams Wes", "lon": "18.85"}, {"lat": "-28.3166667", "city": "Huniam West", "lon": "18.85"}, {"lat": "-25.9333333", "city": "Huns", "lon": "18.2666667"}, {"lat": "-25.8333333", "city": "Jakkalsvlei", "lon": "18.4666667"}, {"lat": "-28.3833333", "city": "Kais Noord", "lon": "18.85"}, {"lat": "-28.3833333", "city": "Kais Nord", "lon": "18.85"}, {"lat": "-28.4333333", "city": "Kais Suid", "lon": "18.9"}, {"lat": "-28.4333333", "city": "Kais Zuid", "lon": "18.9"}, {"lat": "-28.0166667", "city": "Kalkfontein", "lon": "18.75"}, {"lat": "-28.0166667", "city": "Kalkfontein South", "lon": "18.75"}, {"lat": "-27.8", "city": "Kanebis", "lon": "17.8666667"}, {"lat": "-27.8", "city": "Kanibes", "lon": "17.8666667"}, {"lat": "-28.0166667", "city": "Karasburg", "lon": "18.75"}, {"lat": "-28.2333333", "city": "Karuchas", "lon": "18.3166667"}, {"lat": "-26.5833333", "city": "Keetmanshoop", "lon": "18.1333333"}, {"lat": "-28.7666667", "city": "Keimas", "lon": "19.1166667"}, {"lat": "-28.2333333", "city": "Kentucky", "lon": "19.4"}, {"lat": "-28.6666667", "city": "Khaais", "lon": "19.3166667"}, {"lat": "-26.1333333", "city": "Khoexas", "lon": "18.65"}, {"lat": "-27.9166667", "city": "Klein Aiais", "lon": "17.4833333"}, {"lat": "-28.8", "city": "Klein Hakiesdoorn", "lon": "18.1333333"}, {"lat": "-28.4333333", "city": "Klein Kais", "lon": "18.9"}, {"lat": "-26.05", "city": "Kleinvaalgras", "lon": "18.5166667"}, {"lat": "-28.15", "city": "Klepheuvel", "lon": "17.2"}, {"lat": "-27.1", "city": "Klipdam", "lon": "19.8833333"}, {"lat": "-28.4", "city": "Klipfontein", "lon": "19.45"}, {"lat": "-28.15", "city": "Klipheuvel", "lon": "17.2"}, {"lat": "-28.15", "city": "Klipheuwel", "lon": "17.2"}, {"lat": "-28.2666667", "city": "Kliprant", "lon": "19.4833333"}, {"lat": "-25.95", "city": "Ko\u00ebs", "lon": "19.1166667"}, {"lat": "-26.7038889", "city": "Kolmanskop", "lon": "15.2327778"}, {"lat": "-25.9833333", "city": "Komnarib", "lon": "18.4"}, {"lat": "-28.5", "city": "Korabib", "lon": "17.8833333"}, {"lat": "-28.2833333", "city": "Korhaan", "lon": "18.0666667"}, {"lat": "-28.5", "city": "Korrebub", "lon": "17.8833333"}, {"lat": "-26.7", "city": "Kosis", "lon": "17.3"}, {"lat": "-26.5833333", "city": "Kr\u00f6nlein", "lon": "18.15"}, {"lat": "-26.1333333", "city": "Kuitsib", "lon": "17.6833333"}, {"lat": "-28.1", "city": "Kums", "lon": "19.6"}, {"lat": "-28.3333333", "city": "La Gratia", "lon": "18.9166667"}, {"lat": "-28.0166667", "city": "Langfontein", "lon": "17.8666667"}, {"lat": "-28.0333333", "city": "Lekkerwater", "lon": "19.4833333"}, {"lat": "-26.6480556", "city": "L\u00fcderitz", "lon": "15.1594444"}, {"lat": "-28.35", "city": "Luginsland", "lon": "18.45"}, {"lat": "-28.25", "city": "L\u00fctzelh\u00f6he", "lon": "18.75"}, {"lat": "-28.1166667", "city": "Middelpos", "lon": "18.8833333"}, {"lat": "-28.35", "city": "Mittag", "lon": "16.1333333"}, {"lat": "-28.7", "city": "Modderdrift", "lon": "17.5333333"}, {"lat": "-27.9166667", "city": "Nabas", "lon": "19.65"}, {"lat": "-26.0666667", "city": "Naherob", "lon": "17.55"}, {"lat": "-25.9666667", "city": "Namtib", "lon": "16.2"}, {"lat": "-26.9", "city": "Narubis", "lon": "18.6"}, {"lat": "-28.1166667", "city": "Naruchas", "lon": "18.75"}, {"lat": "-28.1166667", "city": "Neikop", "lon": "19.6333333"}, {"lat": "-25.9833333", "city": "Neu-Puts", "lon": "18.4666667"}, {"lat": "-28.4833333", "city": "Nicos Hoek", "lon": "18.4"}, {"lat": "-28.0166667", "city": "Nieuwefontein", "lon": "19.0666667"}, {"lat": "-28.0833333", "city": "Nieuwefontein Ost", "lon": "19.1833333"}, {"lat": "-28.3333333", "city": "Nieuwefontein West", "lon": "18.3833333"}, {"lat": "-28.75", "city": "Noordoewer", "lon": "17.6166667"}, {"lat": "-28.3333333", "city": "Nuwefontein Wes", "lon": "18.3833333"}, {"lat": "-28.7", "city": "Nuwe Modderdrif", "lon": "17.5333333"}, {"lat": "-28.0333333", "city": "Oab", "lon": "19.2333333"}, {"lat": "-28.4", "city": "Ondermaitje", "lon": "19.4333333"}, {"lat": "-28.4", "city": "Ondermatje", "lon": "19.4333333"}, {"lat": "-28.4", "city": "Ondermatjie", "lon": "19.4333333"}, {"lat": "-28.55", "city": "Orange Mouth", "lon": "16.4333333"}, {"lat": "-28.55", "city": "Orangemund", "lon": "16.4333333"}, {"lat": "-28.55", "city": "Oranjemond", "lon": "16.4333333"}, {"lat": "-28.55", "city": "Oranjemund", "lon": "16.4333333"}, {"lat": "-28.2833333", "city": "Ortmansbaum Oos", "lon": "18.7666667"}, {"lat": "-28.3", "city": "Ortmansbaum", "lon": "18.7"}, {"lat": "-28.85", "city": "Pelgrimsrus", "lon": "19.0833333"}, {"lat": "-28.85", "city": "Pelgrimsrust", "lon": "19.0833333"}, {"lat": "-28.85", "city": "Pilgrimsrust", "lon": "19.0833333"}, {"lat": "-28.7166667", "city": "Pionier", "lon": "18.9333333"}, {"lat": "-28.3333333", "city": "Pockiesbank-Ost", "lon": "19.3333333"}, {"lat": "-28.3666667", "city": "Pollox", "lon": "18.25"}, {"lat": "-28.3666667", "city": "Pollux", "lon": "18.25"}, {"lat": "-27.2", "city": "Pomona", "lon": "15.2833333"}, {"lat": "-28.05", "city": "Poortjie", "lon": "18.9833333"}, {"lat": "-28.4666667", "city": "Rooi Veldskoea", "lon": "19.8333333"}, {"lat": "-28.4666667", "city": "Rooi Veldskoen", "lon": "19.8333333"}, {"lat": "-28.65", "city": "Rus-en-Vrede", "lon": "18.7666667"}, {"lat": "-25.8", "city": "Saddle Hill North", "lon": "14.8833333"}, {"lat": "-25.9333333", "city": "Saddle Hill", "lon": "14.9333333"}, {"lat": "-28.7", "city": "Sandfontein", "lon": "18.55"}, {"lat": "-28.3833333", "city": "Sch\u00f6nau", "lon": "18.4666667"}, {"lat": "-26.8166667", "city": "Seeheim", "lon": "17.7833333"}, {"lat": "-28.1666667", "city": "Sendelingsdrif", "lon": "16.8833333"}, {"lat": "-28.1666667", "city": "Sendelings Drift", "lon": "16.8833333"}, {"lat": "-28.1666667", "city": "Sendlingsdrif", "lon": "16.8833333"}, {"lat": "-28.1666667", "city": "Sendlings Drift", "lon": "16.8833333"}, {"lat": "-28.8833333", "city": "Silverstroom", "lon": "18.2666667"}, {"lat": "-28.8833333", "city": "Silwerstroom", "lon": "18.2666667"}, {"lat": "-26.8", "city": "Simplon", "lon": "17.35"}, {"lat": "-28.45", "city": "Skilpad", "lon": "16.6833333"}, {"lat": "-28.5166667", "city": "Skuit Drift Cattle Post", "lon": "19.7"}, {"lat": "-28.5166667", "city": "Skuit Drift", "lon": "19.7"}, {"lat": "-26.45", "city": "Snyfontein", "lon": "17.8166667"}, {"lat": "-28.2833333", "city": "Sonderwater", "lon": "18.9333333"}, {"lat": "-28.45", "city": "Sonop", "lon": "18.9666667"}, {"lat": "-25.7333333", "city": "Spencer Bay", "lon": "14.8333333"}, {"lat": "-28.6833333", "city": "Sperlingputs", "lon": "18.2166667"}, {"lat": "-28.6833333", "city": "Sperlingsputs", "lon": "18.2166667"}, {"lat": "-27.4", "city": "Stamprivier", "lon": "17.8666667"}, {"lat": "-27.25", "city": "Stauch Lager", "lon": "15.3166667"}, {"lat": "-27.25", "city": "Stauchs Lager", "lon": "15.3166667"}, {"lat": "-28.7333333", "city": "Sterlingsp\u00fcts", "lon": "18.2"}, {"lat": "-28.45", "city": "Suiderkruis", "lon": "19.1666667"}, {"lat": "-28.7333333", "city": "Superlingsp\u00fctz", "lon": "18.2"}, {"lat": "-28.1833333", "city": "Swartberg", "lon": "19.15"}, {"lat": "-28.7166667", "city": "Tantalite Valley", "lon": "18.8"}, {"lat": "-28.05", "city": "Toekoms", "lon": "19.1166667"}, {"lat": "-28.05", "city": "Tolkoms", "lon": "19.1166667"}, {"lat": "-27.1166667", "city": "Totem", "lon": "17.4166667"}, {"lat": "-28.1333333", "city": "Tsamab", "lon": "19.2333333"}, {"lat": "-28.1333333", "city": "Tsamub", "lon": "19.2333333"}, {"lat": "-26.0666667", "city": "Tsaraxa-aibes", "lon": "17.95"}, {"lat": "-25.8833333", "city": "Tses", "lon": "18.0"}, {"lat": "-28.1333333", "city": "Tzamab", "lon": "19.2333333"}, {"lat": "-28.5", "city": "Uhabis", "lon": "17.7166667"}, {"lat": "-28.0333333", "city": "Ukamas", "lon": "19.7333333"}, {"lat": "-28.45", "city": "Uubvlei", "lon": "16.2333333"}, {"lat": "-28.35", "city": "Van Zylsrus", "lon": "18.9833333"}, {"lat": "-28.8833333", "city": "Vasvat", "lon": "18.5"}, {"lat": "-28.4666667", "city": "Veldschoen", "lon": "19.8333333"}, {"lat": "-28.75", "city": "Velloor Drift", "lon": "19.25"}, {"lat": "-28.75", "city": "Velloorsdrift", "lon": "19.25"}, {"lat": "-28.5666667", "city": "Velloor", "lon": "19.1833333"}, {"lat": "-28.75", "city": "Vellorsdrift", "lon": "19.25"}, {"lat": "-28.1166667", "city": "Vliessengen", "lon": "19.3"}, {"lat": "-28.0666667", "city": "Vlissingen Noord", "lon": "19.35"}, {"lat": "-28.1166667", "city": "Vlissingen Suid", "lon": "19.3"}, {"lat": "-28.0666667", "city": "Vlissingen", "lon": "19.35"}, {"lat": "-28.7666667", "city": "Vredendal Gaobis", "lon": "18.35"}, {"lat": "-28.7666667", "city": "Vredendal", "lon": "18.35"}, {"lat": "-28.6333333", "city": "Vrede", "lon": "18.9166667"}, {"lat": "-28.45", "city": "Warmbad", "lon": "18.7333333"}, {"lat": "-25.8666667", "city": "Waterval", "lon": "18.0"}, {"lat": "-28.25", "city": "Wegkruip", "lon": "19.05"}, {"lat": "-28.2166667", "city": "Witkop", "lon": "19.8"}, {"lat": "-27.6166667", "city": "Witputs", "lon": "16.7333333"}, {"lat": "-28.6666667", "city": "Witsand", "lon": "18.8833333"}, {"lat": "-27.6166667", "city": "Wittp\u00fctz", "lon": "16.7333333"}, {"lat": "-27.2", "city": "Wolfbeen", "lon": "16.85"}, {"lat": "-27.9666667", "city": "Wortel", "lon": "18.6333333"}, {"lat": "-28.25", "city": "Ysterputs", "lon": "18.0833333"}], "30": [{"lat": "-23.9666667", "city": "Abbabis", "lon": "16.0833333"}, {"lat": "-25.25", "city": "Alt Duwisib", "lon": "16.5166667"}, {"lat": "-24.1333333", "city": "Aranos", "lon": "19.1166667"}, {"lat": "-22.9333333", "city": "Aub", "lon": "17.1833333"}, {"lat": "-23.9333333", "city": "Blokwater", "lon": "17.5333333"}, {"lat": "-22.95", "city": "Bloukrans", "lon": "17.5"}, {"lat": "-23.8166667", "city": "Cambells Aub", "lon": "16.7666667"}, {"lat": "-23.65", "city": "Derm", "lon": "18.2"}, {"lat": "-25.25", "city": "Duwisib", "lon": "16.5166667"}, {"lat": "-24.2166667", "city": "Eirup", "lon": "18.4"}, {"lat": "-25.1333333", "city": "Gibeon", "lon": "17.7666667"}, {"lat": "-24.7833333", "city": "Gochas", "lon": "18.8166667"}, {"lat": "-23.7333333", "city": "Groendraai", "lon": "16.9833333"}, {"lat": "-22.9333333", "city": "Groot Aub", "lon": "17.1833333"}, {"lat": "-25.0166667", "city": "Grootfontein", "lon": "16.75"}, {"lat": "-24.8666667", "city": "Hammerstein", "lon": "16.1666667"}, {"lat": "-24.5333333", "city": "Hardap", "lon": "17.9333333"}, {"lat": "-24.6333333", "city": "Haribes", "lon": "17.5666667"}, {"lat": "-22.9166667", "city": "Hatsamas", "lon": "17.6"}, {"lat": "-23.9166667", "city": "Hoachanas", "lon": "18.05"}, {"lat": "-23.4333333", "city": "Isabis", "lon": "16.5166667"}, {"lat": "-24.0666667", "city": "Kalkrand", "lon": "17.5833333"}, {"lat": "-23.5833333", "city": "Kamkam", "lon": "17.0166667"}, {"lat": "-23.15", "city": "Kanubeb", "lon": "17.2"}, {"lat": "-23.8333333", "city": "Karanas", "lon": "16.8833333"}, {"lat": "-22.9666667", "city": "Keibeb", "lon": "17.2833333"}, {"lat": "-24.0666667", "city": "Khalkrand", "lon": "17.5833333"}, {"lat": "-23.7833333", "city": "Klein Aub", "lon": "16.6333333"}, {"lat": "-22.95", "city": "Klein Onnaams", "lon": "17.2833333"}, {"lat": "-23.5833333", "city": "Kobos", "lon": "16.6666667"}, {"lat": "-24.2333333", "city": "Kub", "lon": "17.5"}, {"lat": "-23.2", "city": "Kwakwas", "lon": "16.9166667"}, {"lat": "-23.9166667", "city": "Lammerwater", "lon": "17.0333333"}, {"lat": "-24.8333333", "city": "Maltah\u00f6he", "lon": "16.9833333"}, {"lat": "-24.6333333", "city": "Mariental", "lon": "17.9666667"}, {"lat": "-23.7", "city": "Naris", "lon": "17.1333333"}, {"lat": "-24.4333333", "city": "Nomtsas", "lon": "16.8333333"}, {"lat": "-23.7833333", "city": "Nuwedam", "lon": "16.5666667"}, {"lat": "-24.0833333", "city": "Oamseb", "lon": "18.55"}, {"lat": "-24.0833333", "city": "Oamsib", "lon": "18.55"}, {"lat": "-24.0833333", "city": "Omaseb", "lon": "18.55"}, {"lat": "-23.7166667", "city": "Petrusdal", "lon": "17.4333333"}, {"lat": "-23.3166667", "city": "Rehoboth", "lon": "17.0833333"}, {"lat": "-23.9666667", "city": "Rietoog", "lon": "16.55"}, {"lat": "-24.0333333", "city": "Schlip", "lon": "17.1666667"}, {"lat": "-23.7666667", "city": "Slaaipoort", "lon": "16.75"}, {"lat": "-24.3333333", "city": "Stampried", "lon": "18.4"}, {"lat": "-24.3333333", "city": "Stamprietfontein", "lon": "18.4"}, {"lat": "-24.3333333", "city": "Stampriet", "lon": "18.4"}, {"lat": "-22.8666667", "city": "Stinkwater", "lon": "17.5666667"}, {"lat": "-23.7333333", "city": "Tsumis", "lon": "17.1833333"}, {"lat": "-22.9666667", "city": "Tweekoppies", "lon": "17.4"}, {"lat": "-23.6666667", "city": "Uhlenhorst", "lon": "17.9166667"}, {"lat": "-23.2", "city": "Uisib", "lon": "17.1833333"}, {"lat": "-22.8833333", "city": "Verdruk", "lon": "17.1833333"}, {"lat": "-23.3", "city": "Vogelpan", "lon": "17.1833333"}, {"lat": "-24.8166667", "city": "Voigtsgrund", "lon": "17.4333333"}, {"lat": "-23.7833333", "city": "Witkop", "lon": "17.0833333"}, {"lat": "-24.0166667", "city": "Zais", "lon": "16.1333333"}], "37": [{"lat": "-17.85", "city": "Akweenyanga", "lon": "15.7833333"}, {"lat": "-17.7", "city": "Amutanga", "lon": "15.6833333"}, {"lat": "-18.0666667", "city": "Amweepele", "lon": "15.9166667"}, {"lat": "-17.9666667", "city": "Arabia", "lon": "15.9666667"}, {"lat": "-17.7833333", "city": "Ehangano", "lon": "15.6166667"}, {"lat": "-17.7333333", "city": "Emonso", "lon": "15.65"}, {"lat": "-17.7166667", "city": "Epyalyiipundu", "lon": "15.9333333"}, {"lat": "-18.0166667", "city": "Esati", "lon": "15.7833333"}, {"lat": "-18.0166667", "city": "Etale Lyeenguwa", "lon": "15.7"}, {"lat": "-17.7", "city": "Iikelo", "lon": "15.7166667"}, {"lat": "-17.7833333", "city": "Iindangungu", "lon": "15.9666667"}, {"lat": "-18.0666667", "city": "Limbandalunga", "lon": "15.8333333"}, {"lat": "-17.7833333", "city": "Lindangungu", "lon": "15.9666667"}, {"lat": "-18.0166667", "city": "Nakamwandi", "lon": "15.8"}, {"lat": "-17.7333333", "city": "Ohambungu", "lon": "15.8166667"}, {"lat": "-18.0166667", "city": "Ohaziwa", "lon": "15.8166667"}, {"lat": "-17.8", "city": "Okaku", "lon": "15.85"}, {"lat": "-18.0333333", "city": "Okalimbo", "lon": "15.8"}, {"lat": "-17.7333333", "city": "Okatana", "lon": "15.7166667"}, {"lat": "-18.05", "city": "Okatyali", "lon": "15.95"}, {"lat": "-17.8333333", "city": "Omaalala", "lon": "15.85"}, {"lat": "-17.7", "city": "Omahahi", "lon": "15.7666667"}, {"lat": "-17.8333333", "city": "Omahini", "lon": "15.8666667"}, {"lat": "-17.8833333", "city": "Omashaka", "lon": "15.9666667"}, {"lat": "-17.8333333", "city": "Omege", "lon": "15.7166667"}, {"lat": "-18.0", "city": "Ompandakani", "lon": "15.8333333"}, {"lat": "-18.0333333", "city": "Ompunda", "lon": "15.8833333"}, {"lat": "-17.9", "city": "Ompundja", "lon": "15.7"}, {"lat": "-18.0333333", "city": "Omukundagwana", "lon": "15.8333333"}, {"lat": "-17.7", "city": "Omupanda", "lon": "15.8"}, {"lat": "-17.9", "city": "Omusimboti", "lon": "15.75"}, {"lat": "-18.05", "city": "Omutala", "lon": "15.85"}, {"lat": "-18.0", "city": "Onamayo", "lon": "15.7166667"}, {"lat": "-17.7333333", "city": "Onamutai", "lon": "15.85"}, {"lat": "-17.9166667", "city": "Ondangua", "lon": "15.95"}, {"lat": "-17.9166667", "city": "Ondangwa", "lon": "15.95"}, {"lat": "-17.9", "city": "Ondjondjo", "lon": "15.9833333"}, {"lat": "-17.9166667", "city": "Ondonga", "lon": "15.95"}, {"lat": "-17.7833333", "city": "Onguedira", "lon": "15.7666667"}, {"lat": "-17.7833333", "city": "Onguediva", "lon": "15.7666667"}, {"lat": "-17.7833333", "city": "Ongwediva", "lon": "15.7666667"}, {"lat": "-17.7833333", "city": "Oniimwandi", "lon": "15.6333333"}, {"lat": "-17.9", "city": "Onimuandi", "lon": "15.7"}, {"lat": "-17.9", "city": "Onimwandi", "lon": "15.7"}, {"lat": "-18.0333333", "city": "Onkumbwiimbwi", "lon": "16.0"}, {"lat": "-17.7", "city": "Onyeka", "lon": "15.9833333"}, {"lat": "-17.7666667", "city": "Onzinzi", "lon": "16.0"}, {"lat": "-17.9166667", "city": "Oshaakondwa", "lon": "16.0"}, {"lat": "-17.7833333", "city": "Oshakati", "lon": "15.6833333"}, {"lat": "-17.7", "city": "Oshekasheka", "lon": "15.9166667"}, {"lat": "-17.7333333", "city": "Oshikondiilongo", "lon": "15.9166667"}, {"lat": "-18.0333333", "city": "Oshipumbu", "lon": "15.7333333"}, {"lat": "-17.85", "city": "Oshitayi", "lon": "15.9833333"}, {"lat": "-17.85", "city": "Oskitayi", "lon": "15.9833333"}, {"lat": "-17.8666667", "city": "Uukwiwongue", "lon": "15.6333333"}, {"lat": "-17.8666667", "city": "Uukwiwongwe", "lon": "15.6333333"}, {"lat": "-18.0166667", "city": "Uukwiyu", "lon": "15.9166667"}, {"lat": "-18.0666667", "city": "Uulungawaanayaangolo", "lon": "15.85"}], "36": [{"lat": "-18.1166667", "city": "Akutsima", "lon": "14.8"}, {"lat": "-17.8833333", "city": "Amaadhala", "lon": "15.4166667"}, {"lat": "-18.35", "city": "Amarika", "lon": "15.1833333"}, {"lat": "-18.0", "city": "Amwaanda", "lon": "15.0333333"}, {"lat": "-17.4833333", "city": "Anamulenge", "lon": "15.0166667"}, {"lat": "-17.3833333", "city": "Eehama", "lon": "15.0166667"}, {"lat": "-17.7", "city": "Eendombe", "lon": "15.0666667"}, {"lat": "-17.6", "city": "Eengolo", "lon": "15.0833333"}, {"lat": "-17.8333333", "city": "Eheke", "lon": "14.8666667"}, {"lat": "-18.3333333", "city": "Eholongo", "lon": "15.0166667"}, {"lat": "-17.7833333", "city": "Ekamba", "lon": "15.55"}, {"lat": "-18.05", "city": "Ekwili", "lon": "15.15"}, {"lat": "-17.6", "city": "Elalangali", "lon": "15.4166667"}, {"lat": "-17.7166667", "city": "Elim", "lon": "15.4833333"}, {"lat": "-17.7166667", "city": "Elondo", "lon": "15.0166667"}, {"lat": "-17.5833333", "city": "Enkundi", "lon": "15.4"}, {"lat": "-17.5166667", "city": "Enoleu", "lon": "15.55"}, {"lat": "-17.9166667", "city": "Enongo", "lon": "15.2333333"}, {"lat": "-17.8666667", "city": "Epato", "lon": "15.1833333"}, {"lat": "-17.4666667", "city": "Epoko", "lon": "15.2"}, {"lat": "-18.0666667", "city": "Esheshete", "lon": "15.3333333"}, {"lat": "-17.55", "city": "Etayi", "lon": "15.5166667"}, {"lat": "-17.9666667", "city": "Etiliasa", "lon": "15.15"}, {"lat": "-17.9666667", "city": "Etilyasa", "lon": "15.15"}, {"lat": "-17.55", "city": "Etshinga", "lon": "14.7666667"}, {"lat": "-17.9", "city": "Etunda", "lon": "15.1"}, {"lat": "-17.5166667", "city": "Eunda", "lon": "14.6333333"}, {"lat": "-17.9", "city": "Iihamyongwe", "lon": "15.2166667"}, {"lat": "-17.7333333", "city": "Iihanguti", "lon": "15.4833333"}, {"lat": "-17.85", "city": "Iikango", "lon": "15.2"}, {"lat": "-17.9666667", "city": "Iilambo", "lon": "15.0333333"}, {"lat": "-17.6833333", "city": "Iipanda", "lon": "15.15"}, {"lat": "-18.1666667", "city": "Iitapa", "lon": "15.0"}, {"lat": "-18.4666667", "city": "Ingururu", "lon": "14.7333333"}, {"lat": "-17.5666667", "city": "Nakayale", "lon": "15.0"}, {"lat": "-17.4666667", "city": "Odimbwa", "lon": "15.5"}, {"lat": "-17.5", "city": "Oembalantoe", "lon": "14.9666667"}, {"lat": "-17.6666667", "city": "Ogongo", "lon": "15.2833333"}, {"lat": "-17.8833333", "city": "Okahao", "lon": "15.1"}, {"lat": "-17.8833333", "city": "Okahau", "lon": "15.1"}, {"lat": "-17.5", "city": "Okakekete", "lon": "15.1333333"}, {"lat": "-18.4666667", "city": "Okakewa", "lon": "15.1833333"}, {"lat": "-17.95", "city": "Okalili", "lon": "15.0166667"}, {"lat": "-18.0166667", "city": "Okalondo", "lon": "15.1333333"}, {"lat": "-17.4333333", "city": "Okalongo", "lon": "15.3333333"}, {"lat": "-17.4666667", "city": "Okambebe", "lon": "15.5833333"}, {"lat": "-17.8833333", "city": "Okandjera", "lon": "15.0666667"}, {"lat": "-17.55", "city": "Okando", "lon": "15.3666667"}, {"lat": "-17.65", "city": "Okapya", "lon": "15.4666667"}, {"lat": "-17.9833333", "city": "Okashidi", "lon": "14.7166667"}, {"lat": "-17.5666667", "city": "Okathima", "lon": "15.3833333"}, {"lat": "-17.4166667", "city": "Okathitu", "lon": "14.9333333"}, {"lat": "-17.65", "city": "Okathutu", "lon": "15.0"}, {"lat": "-17.5166667", "city": "Okatitu", "lon": "15.3166667"}, {"lat": "-18.2333333", "city": "Okazimba", "lon": "14.95"}, {"lat": "-18.2666667", "city": "Okeholongo", "lon": "14.95"}, {"lat": "-17.8333333", "city": "Olukonda", "lon": "15.5166667"}, {"lat": "-18.4333333", "city": "Olumelengwa", "lon": "14.9166667"}, {"lat": "-17.5666667", "city": "Olupandu", "lon": "15.5833333"}, {"lat": "-17.7333333", "city": "Olupumbu", "lon": "15.4"}, {"lat": "-17.8166667", "city": "Oluteyi", "lon": "15.1666667"}, {"lat": "-17.4333333", "city": "Oluvango", "lon": "15.0666667"}, {"lat": "-17.4333333", "city": "Oluvongo", "lon": "15.0666667"}, {"lat": "-17.7666667", "city": "Olwani", "lon": "15.4833333"}, {"lat": "-17.45", "city": "Olyavahenge", "lon": "15.4166667"}, {"lat": "-17.4333333", "city": "Omambuumbuu", "lon": "15.1833333"}, {"lat": "-17.6166667", "city": "Omateleklelo", "lon": "15.1333333"}, {"lat": "-17.4", "city": "Omatwadiva", "lon": "15.2333333"}, {"lat": "-18.2", "city": "Omayulu", "lon": "14.95"}, {"lat": "-18.1", "city": "Ombako", "lon": "14.95"}, {"lat": "-17.5", "city": "Ombalantu", "lon": "14.9666667"}, {"lat": "-18.45", "city": "Ombonde", "lon": "14.6166667"}, {"lat": "-17.5333333", "city": "Ombulantu", "lon": "15.0"}, {"lat": "-17.5666667", "city": "Ombwana", "lon": "15.2666667"}, {"lat": "-17.4166667", "city": "Omindamba", "lon": "14.6666667"}, {"lat": "-17.7", "city": "Omkwa", "lon": "15.4833333"}, {"lat": "-17.5", "city": "Omuditu", "lon": "15.1"}, {"lat": "-17.9666667", "city": "Omukonda", "lon": "15.0833333"}, {"lat": "-17.9666667", "city": "Omukondo", "lon": "15.0833333"}, {"lat": "-18.0833333", "city": "Omuthima", "lon": "15.1"}, {"lat": "-17.5166667", "city": "Omuthitugwonyama", "lon": "15.2666667"}, {"lat": "-17.8333333", "city": "Omuthitu", "lon": "15.1"}, {"lat": "-17.4833333", "city": "Omutundungu", "lon": "15.4166667"}, {"lat": "-17.9", "city": "Onaanda", "lon": "15.3333333"}, {"lat": "-17.5666667", "city": "Onakayale", "lon": "15.0"}, {"lat": "-17.6833333", "city": "Onambashu", "lon": "15.4666667"}, {"lat": "-17.4666667", "city": "Onamhindi", "lon": "15.4333333"}, {"lat": "-17.7666667", "city": "Onamundindi", "lon": "15.25"}, {"lat": "-17.9333333", "city": "Onandjo", "lon": "15.25"}, {"lat": "-17.8", "city": "Onangalo", "lon": "14.9166667"}, {"lat": "-17.7166667", "city": "Onangombe", "lon": "15.5666667"}, {"lat": "-17.6166667", "city": "Onanguwo", "lon": "15.5333333"}, {"lat": "-18.0666667", "city": "Onanyalala", "lon": "15.3166667"}, {"lat": "-18.1166667", "city": "Ondjungurume", "lon": "15.4166667"}, {"lat": "-17.4", "city": "Ondudu", "lon": "15.2833333"}, {"lat": "-17.6", "city": "Oneeya", "lon": "15.2333333"}, {"lat": "-17.4333333", "city": "Oneheke", "lon": "15.3666667"}, {"lat": "-17.45", "city": "Onekukumo", "lon": "15.1333333"}, {"lat": "-17.45", "city": "Onelago", "lon": "15.1333333"}, {"lat": "-17.4166667", "city": "Onembaba", "lon": "15.2"}, {"lat": "-17.5833333", "city": "Onesi", "lon": "14.6833333"}, {"lat": "-17.8833333", "city": "Ongandjera", "lon": "15.0666667"}, {"lat": "-17.5833333", "city": "Ongolo", "lon": "15.0166667"}, {"lat": "-17.4166667", "city": "Onheleiwa", "lon": "15.45"}, {"lat": "-18.1666667", "city": "Oniihati", "lon": "14.9333333"}, {"lat": "-17.7833333", "city": "Oniimwandi", "lon": "15.0333333"}, {"lat": "-17.4166667", "city": "Oshali", "lon": "15.6"}, {"lat": "-17.55", "city": "Oshikiyu", "lon": "15.1333333"}, {"lat": "-17.65", "city": "Oshikuku", "lon": "15.4666667"}, {"lat": "-17.6", "city": "Oshikushashipya", "lon": "15.5166667"}, {"lat": "-17.6166667", "city": "Oshikushomunkete", "lon": "15.4666667"}, {"lat": "-18.0166667", "city": "Oshilulu", "lon": "15.0666667"}, {"lat": "-17.9166667", "city": "Oshimanya", "lon": "15.0333333"}, {"lat": "-17.4666667", "city": "Oshipaya", "lon": "15.0333333"}, {"lat": "-17.6333333", "city": "Oshitalamesho", "lon": "15.2833333"}, {"lat": "-17.4666667", "city": "Oshiteyatemo", "lon": "15.3333333"}, {"lat": "-17.9333333", "city": "Oshukwa", "lon": "15.05"}, {"lat": "-17.7666667", "city": "Oshuuli", "lon": "15.3333333"}, {"lat": "-17.6833333", "city": "Oshuungu", "lon": "15.5333333"}, {"lat": "-17.9833333", "city": "Otamanzi", "lon": "15.25"}, {"lat": "-18.0333333", "city": "Otapatapa", "lon": "15.3166667"}, {"lat": "-17.8", "city": "Othika", "lon": "15.4333333"}, {"lat": "-18.0333333", "city": "Otsalindi", "lon": "15.2666667"}, {"lat": "-17.8833333", "city": "Rehoboth", "lon": "15.0666667"}, {"lat": "-17.75", "city": "Tsandi", "lon": "14.8833333"}, {"lat": "-17.75", "city": "Tshandi", "lon": "14.8833333"}, {"lat": "-17.9166667", "city": "Ushimanya", "lon": "15.0333333"}, {"lat": "-17.5833333", "city": "Uukwanatshikale", "lon": "15.5833333"}, {"lat": "-17.4", "city": "Uukwandongo", "lon": "14.8666667"}, {"lat": "-17.7833333", "city": "Uukwangula", "lon": "15.5833333"}, {"lat": "-18.1333333", "city": "Uuningu", "lon": "14.8833333"}, {"lat": "-17.5", "city": "Uutapi", "lon": "14.9833333"}, {"lat": "-18.45", "city": "Uutsathima", "lon": "14.8333333"}, {"lat": "-17.8666667", "city": "Uutsima", "lon": "15.3666667"}, {"lat": "-18.1333333", "city": "Uuvudhiya", "lon": "15.4833333"}, {"lat": "-17.3833333", "city": "Wakashamane", "lon": "15.25"}], "40": [{"lat": "-22.6102778", "city": "Academia", "lon": "17.0672222"}, {"lat": "-23.9666667", "city": "Achab", "lon": "16.2833333"}, {"lat": "-22.8666667", "city": "Aida", "lon": "18.0"}, {"lat": "-22.5", "city": "Alt-Seeis", "lon": "17.6833333"}, {"lat": "-22.6833333", "city": "Arbeidsgenot", "lon": "16.65"}, {"lat": "-22.75", "city": "Aris", "lon": "17.1333333"}, {"lat": "-23.2", "city": "Arizona", "lon": "16.0333333"}, {"lat": "-22.5413889", "city": "Augustinium", "lon": "17.0466667"}, {"lat": "-22.5791667", "city": "Avis", "lon": "17.1197222"}, {"lat": "-22.6833333", "city": "Behr", "lon": "17.1166667"}, {"lat": "-23.35", "city": "Berghof", "lon": "16.0"}, {"lat": "-22.9833333", "city": "Bergveld", "lon": "16.5"}, {"lat": "-22.7666667", "city": "Bethlehem", "lon": "17.3"}, {"lat": "-22.7833333", "city": "Binsenheim", "lon": "17.3833333"}, {"lat": "-22.8833333", "city": "Blouputz", "lon": "16.5166667"}, {"lat": "-22.3333333", "city": "Bodenhausen", "lon": "17.6166667"}, {"lat": "-23.15", "city": "Bonna", "lon": "16.1166667"}, {"lat": "-22.7833333", "city": "Brack", "lon": "17.4666667"}, {"lat": "-22.9833333", "city": "Brigadoon", "lon": "16.8666667"}, {"lat": "-23.1833333", "city": "Chaibis", "lon": "16.2"}, {"lat": "-23.6166667", "city": "Cha-re", "lon": "15.8666667"}, {"lat": "-23.2833333", "city": "Chausib", "lon": "16.1"}, {"lat": "-22.8", "city": "Claratal", "lon": "16.8333333"}, {"lat": "-22.85", "city": "Coas", "lon": "17.5833333"}, {"lat": "-23.9166667", "city": "Constantia", "lon": "15.9166667"}, {"lat": "-23.3833333", "city": "Corona", "lon": "16.15"}, {"lat": "-23.4833333", "city": "Dagbreek", "lon": "15.9166667"}, {"lat": "-23.05", "city": "Diepkuil", "lon": "16.1333333"}, {"lat": "-22.9833333", "city": "Diepputz", "lon": "16.6166667"}, {"lat": "-22.75", "city": "Direlis", "lon": "17.3166667"}, {"lat": "-22.3333333", "city": "D\u00f6bra", "lon": "17.1"}, {"lat": "-23.6333333", "city": "Donkerhoek", "lon": "15.9666667"}, {"lat": "-23.05", "city": "Donkersan", "lon": "15.9833333"}, {"lat": "-22.95", "city": "Dordabis", "lon": "17.6"}, {"lat": "-22.75", "city": "Dornbaum", "lon": "17.3"}, {"lat": "-23.0166667", "city": "Eisgaubib", "lon": "16.35"}, {"lat": "-23.8666667", "city": "Elim", "lon": "15.8333333"}, {"lat": "-22.5152778", "city": "Elisenheim", "lon": "17.0808333"}, {"lat": "-22.8166667", "city": "Elizenh\u00f6he", "lon": "17.5333333"}, {"lat": "-22.2333333", "city": "Eorondemba", "lon": "17.6"}, {"lat": "-22.5475", "city": "Eros", "lon": "17.0977778"}, {"lat": "-22.5413889", "city": "Erospark", "lon": "17.0975"}, {"lat": "-22.7666667", "city": "Falena", "lon": "17.3166667"}, {"lat": "-23.1666667", "city": "Friedental", "lon": "16.6"}, {"lat": "-23.3333333", "city": "Gamsberg", "lon": "16.3333333"}, {"lat": "-23.1166667", "city": "Garib Ost", "lon": "17.6333333"}, {"lat": "-22.8", "city": "Gocheganas", "lon": "17.1333333"}, {"lat": "-23.2833333", "city": "G\u00f6llschau", "lon": "16.5333333"}, {"lat": "-23.7666667", "city": "Guisis", "lon": "16.2833333"}, {"lat": "-23.2166667", "city": "Hakos", "lon": "16.35"}, {"lat": "-22.5013889", "city": "Halali", "lon": "17.0530556"}, {"lat": "-22.7833333", "city": "Haris", "lon": "16.8666667"}, {"lat": "-23.0166667", "city": "Hartelust", "lon": "16.4833333"}, {"lat": "-23.0833333", "city": "Hefner", "lon": "16.6833333"}, {"lat": "-22.9166667", "city": "Heimat", "lon": "17.9833333"}, {"lat": "-22.1", "city": "Helen", "lon": "17.4833333"}, {"lat": "-23.0333333", "city": "Hilton", "lon": "16.7666667"}, {"lat": "-23.3", "city": "Hohenheim", "lon": "16.3833333"}, {"lat": "-23.3166667", "city": "Hopefield", "lon": "16.2666667"}, {"lat": "-22.6333333", "city": "Karanab", "lon": "16.5666667"}, {"lat": "-22.5230556", "city": "Katutura", "lon": "17.0602778"}, {"lat": "-22.7166667", "city": "Kelpie", "lon": "16.7166667"}, {"lat": "-22.5411111", "city": "Khomasdal", "lon": "17.0583333"}, {"lat": "-22.7166667", "city": "Kleepforte", "lon": "17.8833333"}, {"lat": "-22.6605556", "city": "Klein Aub", "lon": "17.0033333"}, {"lat": "-22.9666667", "city": "Klein Bergveld", "lon": "16.5"}, {"lat": "-23.2666667", "city": "Klein Chausib", "lon": "16.0"}, {"lat": "-23.3166667", "city": "Klein Nauas", "lon": "17.8333333"}, {"lat": "-22.5788889", "city": "Klein Windhoek", "lon": "17.1008333"}, {"lat": "-22.0", "city": "Klipdrift", "lon": "17.6833333"}, {"lat": "-23.0", "city": "Koam", "lon": "16.2333333"}, {"lat": "-22.6666667", "city": "Koanus", "lon": "17.5333333"}, {"lat": "-23.8", "city": "Koireb", "lon": "15.9833333"}, {"lat": "-23.8", "city": "Koireb Wes", "lon": "15.9833333"}, {"lat": "-22.5883333", "city": "Korlia", "lon": "17.1444444"}, {"lat": "-23.2166667", "city": "Kos", "lon": "16.1666667"}, {"lat": "-23.5333333", "city": "Kromhoek", "lon": "15.95"}, {"lat": "-22.75", "city": "Kuisebpos", "lon": "16.65"}, {"lat": "-22.5025", "city": "Lafrenz Township", "lon": "17.0694444"}, {"lat": "-22.7833333", "city": "Lichtenstein Mitte", "lon": "16.9666667"}, {"lat": "-22.5647222", "city": "Ludwigsdorf", "lon": "17.1152778"}, {"lat": "-23.0333333", "city": "Mahonda", "lon": "16.5833333"}, {"lat": "-22.5666667", "city": "Malabar", "lon": "16.9166667"}, {"lat": "-22.1666667", "city": "Mecklenburg", "lon": "17.65"}, {"lat": "-22.9333333", "city": "Melkpos", "lon": "16.65"}, {"lat": "-22.7386111", "city": "Middelhof", "lon": "17.1461111"}, {"lat": "-22.7833333", "city": "Middelpos", "lon": "16.6333333"}, {"lat": "-22.6447222", "city": "M\u00f4rester", "lon": "17.0341667"}, {"lat": "-23.2", "city": "Naos", "lon": "16.7666667"}, {"lat": "-23.6333333", "city": "Nauchas", "lon": "16.2833333"}, {"lat": "-23.6333333", "city": "Naukhas", "lon": "16.2833333"}, {"lat": "-22.5047222", "city": "Neudam", "lon": "17.3691667"}, {"lat": "-23.0833333", "city": "Niedersachsen", "lon": "15.95"}, {"lat": "-22.9666667", "city": "Nina", "lon": "18.25"}, {"lat": "-22.9166667", "city": "Oamities", "lon": "17.1833333"}, {"lat": "-23.4666667", "city": "Oase", "lon": "15.7833333"}, {"lat": "-22.1666667", "city": "Okanjanga", "lon": "17.2833333"}, {"lat": "-22.5833333", "city": "Okapanje", "lon": "17.9666667"}, {"lat": "-22.1666667", "city": "Okarjanga", "lon": "17.2833333"}, {"lat": "-22.2333333", "city": "Okuje", "lon": "17.5333333"}, {"lat": "-22.6025", "city": "Olympia", "lon": "17.105"}, {"lat": "-22.3333333", "city": "Omunjereke", "lon": "17.5833333"}, {"lat": "-22.0833333", "city": "Ondahaka", "lon": "17.8"}, {"lat": "-22.1", "city": "Onganja", "lon": "17.4666667"}, {"lat": "-22.0833333", "city": "Ongord Gotjari", "lon": "17.65"}, {"lat": "-22.2833333", "city": "Otjihaenena", "lon": "17.75"}, {"lat": "-22.3855556", "city": "Otjihase", "lon": "17.24"}, {"lat": "-22.0333333", "city": "Otjikundua", "lon": "17.6"}, {"lat": "-22.6833333", "city": "Otjimukona", "lon": "17.6333333"}, {"lat": "-22.3", "city": "Otjivera Sud", "lon": "17.9333333"}, {"lat": "-22.9166667", "city": "Parkland", "lon": "17.1833333"}, {"lat": "-22.8", "city": "Perahomp", "lon": "17.1333333"}, {"lat": "-22.7666667", "city": "Philadelphia", "lon": "17.3"}, {"lat": "-23.35", "city": "Picadilly", "lon": "16.1333333"}, {"lat": "-22.6", "city": "Pionierspark", "lon": "17.0641667"}, {"lat": "-23.1", "city": "Portsmut", "lon": "16.4166667"}, {"lat": "-22.9166667", "city": "Prospect", "lon": "16.85"}, {"lat": "-22.5727778", "city": "Protea", "lon": "17.0563889"}, {"lat": "-22.5333333", "city": "Richthofen", "lon": "17.75"}, {"lat": "-22.5333333", "city": "Richthoten", "lon": "17.75"}, {"lat": "-23.4", "city": "Rooiklip", "lon": "16.1"}, {"lat": "-23.4166667", "city": "Rostock", "lon": "15.9166667"}, {"lat": "-23.7833333", "city": "Samara", "lon": "15.9"}, {"lat": "-23.3166667", "city": "Schlesien", "lon": "15.9"}, {"lat": "-22.45", "city": "Seeis", "lon": "17.5833333"}, {"lat": "-23.8833333", "city": "Solitaire", "lon": "16.0"}, {"lat": "-23.6833333", "city": "Spaarwater", "lon": "15.9833333"}, {"lat": "-22.1", "city": "Stanley", "lon": "17.4666667"}, {"lat": "-22.7833333", "city": "Straussfeld", "lon": "17.65"}, {"lat": "-22.5908333", "city": "Suider Hof", "lon": "17.0961111"}, {"lat": "-23.1666667", "city": "Tantus", "lon": "16.2333333"}, {"lat": "-22.9666667", "city": "Tara", "lon": "16.7"}, {"lat": "-23.5", "city": "Tinkeringheib", "lon": "15.8666667"}, {"lat": "-23.7166667", "city": "Tinkie", "lon": "15.8666667"}, {"lat": "-23.05", "city": "Usambara", "lon": "16.1833333"}, {"lat": "-23.1333333", "city": "Valencia", "lon": "16.4666667"}, {"lat": "-22.7069444", "city": "Valhala", "lon": "17.0888889"}, {"lat": "-22.7069444", "city": "Valhalla", "lon": "17.0888889"}, {"lat": "-22.9666667", "city": "Van Wyk", "lon": "16.7"}, {"lat": "-23.1333333", "city": "Verdwaal", "lon": "16.55"}, {"lat": "-22.5777778", "city": "Voigtland", "lon": "17.3316667"}, {"lat": "-22.6666667", "city": "Volmoed", "lon": "17.85"}, {"lat": "-23.3833333", "city": "Weenen", "lon": "16.2833333"}, {"lat": "-23.1", "city": "Welgemoed", "lon": "16.7666667"}, {"lat": "-22.7075", "city": "Willemshof", "lon": "17.0805556"}, {"lat": "-22.5486111", "city": "Windhoek Noord", "lon": "17.0730556"}, {"lat": "-23.5166667", "city": "Witberg", "lon": "16.0666667"}], "29": [{"lat": "-21.1166667", "city": "Amasbank", "lon": "15.0666667"}, {"lat": "-23.35", "city": "Anichab", "lon": "14.5166667"}, {"lat": "-23.35", "city": "Anigab", "lon": "14.5166667"}, {"lat": "-22.4166667", "city": "Arandis", "lon": "14.9666667"}, {"lat": "-21.1833333", "city": "Arixa Ams", "lon": "14.7833333"}, {"lat": "-21.4166667", "city": "Aubinhonis", "lon": "15.1333333"}, {"lat": "-21.4166667", "city": "Aubinhorus", "lon": "15.1333333"}, {"lat": "-22.5666667", "city": "Bethal", "lon": "15.8666667"}, {"lat": "-22.6333333", "city": "Birkenfels", "lon": "14.7333333"}, {"lat": "-21.7666667", "city": "Cape Cross", "lon": "13.9666667"}, {"lat": "-21.0", "city": "Daweb", "lon": "14.8833333"}, {"lat": "-22.6333333", "city": "Douglas", "lon": "14.6666667"}, {"lat": "-22.6333333", "city": "Ebenhaezer", "lon": "14.65"}, {"lat": "-23.2666667", "city": "Edoseb", "lon": "14.75"}, {"lat": "-23.0", "city": "Emeritus", "lon": "15.7166667"}, {"lat": "-22.6666667", "city": "Goanikontes", "lon": "14.8333333"}, {"lat": "-23.55", "city": "Gobabeb", "lon": "15.0333333"}, {"lat": "-22.6333333", "city": "Grieserau", "lon": "14.6166667"}, {"lat": "-21.2166667", "city": "Groot Uis", "lon": "14.85"}, {"lat": "-21.3833333", "city": "Hadi-Aus", "lon": "15.2833333"}, {"lat": "-22.7", "city": "Haigamchab", "lon": "14.9"}, {"lat": "-22.7", "city": "Haigamkab", "lon": "14.9"}, {"lat": "-22.1166667", "city": "Hentiesbaai", "lon": "14.2833333"}, {"lat": "-22.1166667", "city": "Henties Bay", "lon": "14.2833333"}, {"lat": "-22.7", "city": "Hildenhaf", "lon": "14.8333333"}, {"lat": "-22.7", "city": "Hildenhof", "lon": "14.8333333"}, {"lat": "-23.6333333", "city": "Homeb", "lon": "15.1833333"}, {"lat": "-21.7666667", "city": "Kaap Kruis", "lon": "13.9666667"}, {"lat": "-22.5333333", "city": "Kaltenhausen", "lon": "15.8833333"}, {"lat": "-21.9333333", "city": "Karibib", "lon": "15.8333333"}, {"lat": "-22.55", "city": "Khan Mine", "lon": "15.0"}, {"lat": "-21.1166667", "city": "Klein Amasbank", "lon": "15.0666667"}, {"lat": "-23.4", "city": "Klein Klipneus", "lon": "14.9166667"}, {"lat": "-23.1166667", "city": "Kraaipoort", "lon": "15.8166667"}, {"lat": "-22.6666667", "city": "Kramersdorf", "lon": "14.5166667"}, {"lat": "-22.9363889", "city": "Kuisebmond", "lon": "14.5263889"}, {"lat": "-20.7666667", "city": "Kwaggaspan", "lon": "15.2666667"}, {"lat": "-22.9833333", "city": "Meersig", "lon": "14.4833333"}, {"lat": "-22.65", "city": "Mondesa", "lon": "14.5333333"}, {"lat": "-21.45", "city": "Nainais", "lon": "15.0666667"}, {"lat": "-23.2666667", "city": "Nanibecheb", "lon": "14.75"}, {"lat": "-22.9516667", "city": "Narraville", "lon": "14.5372222"}, {"lat": "-23.6", "city": "Natab", "lon": "15.0833333"}, {"lat": "-23.6", "city": "Natap", "lon": "15.0833333"}, {"lat": "-21.45", "city": "Neineis", "lon": "15.0666667"}, {"lat": "-21.45", "city": "Neneis", "lon": "15.0666667"}, {"lat": "-23.3333333", "city": "Nuhoab", "lon": "14.85"}, {"lat": "-23.3333333", "city": "Nuhoas", "lon": "14.85"}, {"lat": "-21.35", "city": "Nuniab", "lon": "15.0333333"}, {"lat": "-21.2333333", "city": "Nu-Uis", "lon": "15.4"}, {"lat": "-20.95", "city": "Okajape", "lon": "15.5333333"}, {"lat": "-20.8333333", "city": "Okamaere", "lon": "15.4666667"}, {"lat": "-20.8", "city": "Okambe-Odombo", "lon": "15.0333333"}, {"lat": "-20.9666667", "city": "Okaperre", "lon": "15.6666667"}, {"lat": "-20.55", "city": "Okaserawe", "lon": "15.45"}, {"lat": "-21.1833333", "city": "Okatjiho", "lon": "15.2333333"}, {"lat": "-20.95", "city": "Okawarongo", "lon": "15.5166667"}, {"lat": "-21.1", "city": "Okomapuku", "lon": "15.45"}, {"lat": "-20.9833333", "city": "Okombaha", "lon": "15.3333333"}, {"lat": "-21.3666667", "city": "Okombahe", "lon": "15.3833333"}, {"lat": "-21.0166667", "city": "Okomize", "lon": "15.3166667"}, {"lat": "-20.95", "city": "Okondomba", "lon": "15.1666667"}, {"lat": "-20.6666667", "city": "Okongwe", "lon": "15.3666667"}, {"lat": "-20.6", "city": "Okotjandjoura", "lon": "15.4833333"}, {"lat": "-20.6666667", "city": "Okotjize", "lon": "15.2833333"}, {"lat": "-20.9833333", "city": "Okotjoto", "lon": "15.1833333"}, {"lat": "-20.9", "city": "Omangambo", "lon": "15.15"}, {"lat": "-21.4333333", "city": "Omaruru", "lon": "15.9333333"}, {"lat": "-21.05", "city": "Omatjete", "lon": "15.5"}, {"lat": "-20.8333333", "city": "Omauzongaka", "lon": "15.2166667"}, {"lat": "-20.8333333", "city": "Omauzongoka", "lon": "15.2166667"}, {"lat": "-21.0833333", "city": "Omitjira", "lon": "15.3333333"}, {"lat": "-20.8", "city": "Omizema", "lon": "15.1666667"}, {"lat": "-20.8", "city": "Omutiwanduka", "lon": "15.4833333"}, {"lat": "-21.05", "city": "Omutjenya", "lon": "15.6333333"}, {"lat": "-20.75", "city": "Ondundo", "lon": "15.45"}, {"lat": "-20.7166667", "city": "Ondundotjiuapa", "lon": "15.45"}, {"lat": "-20.7166667", "city": "Ondundotjivapa", "lon": "15.45"}, {"lat": "-21.0666667", "city": "Orumwe", "lon": "15.15"}, {"lat": "-20.8166667", "city": "Osonhaui", "lon": "15.0166667"}, {"lat": "-23.6166667", "city": "Oswater", "lon": "15.1666667"}, {"lat": "-22.35", "city": "Otjimbingue", "lon": "16.1333333"}, {"lat": "-22.35", "city": "Otjimbingwe", "lon": "16.1333333"}, {"lat": "-20.8333333", "city": "Otjiperongo", "lon": "15.5833333"}, {"lat": "-20.8666667", "city": "Otjivero", "lon": "15.35"}, {"lat": "-20.8333333", "city": "Otjiwapeke", "lon": "15.1833333"}, {"lat": "-20.9", "city": "Otjohorongo", "lon": "15.55"}, {"lat": "-21.1833333", "city": "Otjongeama", "lon": "15.3166667"}, {"lat": "-20.8", "city": "Otjongundu", "lon": "15.2166667"}, {"lat": "-20.75", "city": "Otjotopero", "lon": "15.5166667"}, {"lat": "-20.9166667", "city": "Otjozondjou", "lon": "15.4666667"}, {"lat": "-20.8666667", "city": "Otupopero", "lon": "15.45"}, {"lat": "-20.9833333", "city": "Ovehotua", "lon": "15.6333333"}, {"lat": "-20.9666667", "city": "Ozondati", "lon": "15.2666667"}, {"lat": "-20.15", "city": "Ozongaka", "lon": "15.5333333"}, {"lat": "-22.7", "city": "Palmenhorst", "lon": "14.9"}, {"lat": "-22.8283333", "city": "Rand Rifles", "lon": "14.5427778"}, {"lat": "-22.6333333", "city": "Richthofen", "lon": "14.7333333"}, {"lat": "-23.1833333", "city": "Rooibank", "lon": "14.65"}, {"lat": "-22.6333333", "city": "R\u00f6ssing Village", "lon": "14.65"}, {"lat": "-22.6333333", "city": "Ruhleben", "lon": "14.65"}, {"lat": "-23.0666667", "city": "Ruimte", "lon": "15.7166667"}, {"lat": "-22.6833333", "city": "Salem", "lon": "15.4333333"}, {"lat": "-22.65", "city": "Santa", "lon": "14.6333333"}, {"lat": "-23.1833333", "city": "Schlesien Noord", "lon": "15.8"}, {"lat": "-23.5833333", "city": "Soutrivier", "lon": "15.0166667"}, {"lat": "-22.6833333", "city": "Swakopmund", "lon": "14.5333333"}, {"lat": "-23.3333333", "city": "Swartbank", "lon": "14.85"}, {"lat": "-22.65", "city": "Tamariskia", "lon": "14.5333333"}, {"lat": "-22.65", "city": "Three Sisters", "lon": "14.6833333"}, {"lat": "-22.5166667", "city": "Tsaobis", "lon": "15.85"}, {"lat": "-21.5166667", "city": "Uigaran", "lon": "15.45"}, {"lat": "-21.2166667", "city": "Uis Mine", "lon": "14.85"}, {"lat": "-21.2166667", "city": "Uis Myn", "lon": "14.85"}, {"lat": "-21.2166667", "city": "Uis", "lon": "14.85"}, {"lat": "-22.6333333", "city": "Uitkoms", "lon": "14.6333333"}, {"lat": "-23.2333333", "city": "Ururas", "lon": "14.7333333"}, {"lat": "-22.0", "city": "Usakos", "lon": "15.6"}, {"lat": "-22.65", "city": "Vineta", "lon": "14.5166667"}, {"lat": "-22.9575", "city": "Walfisch-Bucht-Niederland", "lon": "14.5052778"}, {"lat": "-22.9575", "city": "Walvisbaai", "lon": "14.5052778"}, {"lat": "-22.9575", "city": "Walvis Bay", "lon": "14.5052778"}, {"lat": "-21.2833333", "city": "Welverdien", "lon": "15.3"}, {"lat": "-22.5166667", "city": "Wilhelmsfeste", "lon": "15.85"}, {"lat": "-21.9", "city": "Wilhelmstal", "lon": "16.3166667"}, {"lat": "-22.4166667", "city": "Wlotzkasbaken", "lon": "14.45"}, {"lat": "-21.4166667", "city": "Xaubehunis", "lon": "15.1333333"}, {"lat": "-21.3166667", "city": "Zebedeus", "lon": "14.8"}, {"lat": "-23.5833333", "city": "Zoutriver", "lon": "15.0166667"}, {"lat": "-23.5833333", "city": "Zoutrivier", "lon": "15.0166667"}, {"lat": "-23.3333333", "city": "Zwartbank", "lon": "14.85"}], "35": [{"lat": "-23.6333333", "city": "Aminuis", "lon": "19.3666667"}, {"lat": "-23.05", "city": "Aroams", "lon": "19.5333333"}, {"lat": "-23.05", "city": "Aroams Oos", "lon": "19.65"}, {"lat": "-21.0333333", "city": "Blignaut", "lon": "18.5333333"}, {"lat": "-22.2666667", "city": "Buitepos", "lon": "19.9833333"}, {"lat": "-22.0833333", "city": "Drimiopsis", "lon": "19.05"}, {"lat": "-22.4333333", "city": "Epako", "lon": "18.9833333"}, {"lat": "-21.05", "city": "Epata", "lon": "18.8666667"}, {"lat": "-21.7", "city": "Epukiro", "lon": "19.1166667"}, {"lat": "-21.1166667", "city": "Erindinoukambe", "lon": "19.1166667"}, {"lat": "-21.9", "city": "Fort Rietfontein", "lon": "20.9166667"}, {"lat": "-22.45", "city": "Gobabis", "lon": "18.9666667"}, {"lat": "-21.0", "city": "Goroseb", "lon": "18.6333333"}, {"lat": "-23.7333333", "city": "Gunkas", "lon": "19.65"}, {"lat": "-20.85", "city": "Harmse", "lon": "19.1166667"}, {"lat": "-21.1166667", "city": "Holm", "lon": "18.6166667"}, {"lat": "-23.7833333", "city": "Hugus", "lon": "19.35"}, {"lat": "-22.7333333", "city": "Kirschberg", "lon": "18.8833333"}, {"lat": "-23.5", "city": "Korridor Pos 13", "lon": "19.8833333"}, {"lat": "-23.5", "city": "Korridor Pos Dertien", "lon": "19.8833333"}, {"lat": "-22.0333333", "city": "Kroonster", "lon": "19.5"}, {"lat": "-23.7666667", "city": "Kumu", "lon": "19.7666667"}, {"lat": "-23.5", "city": "Leonardville", "lon": "18.8"}, {"lat": "-21.0", "city": "Mc Intyre", "lon": "18.7666667"}, {"lat": "-22.45", "city": "Nossobville", "lon": "18.9833333"}, {"lat": "-23.55", "city": "Oahava", "lon": "19.3333333"}, {"lat": "-23.2166667", "city": "Okahiokaapa", "lon": "19.35"}, {"lat": "-23.5333333", "city": "Okahumandu", "lon": "19.65"}, {"lat": "-23.5", "city": "Okakuvisa", "lon": "19.5333333"}, {"lat": "-23.1166667", "city": "Okaseta", "lon": "19.55"}, {"lat": "-21.4666667", "city": "Okatuuo", "lon": "19.7666667"}, {"lat": "-21.4666667", "city": "Okatuwo", "lon": "19.7666667"}, {"lat": "-20.9833333", "city": "Okawangwa", "lon": "18.9833333"}, {"lat": "-23.7666667", "city": "Okeriko", "lon": "19.5333333"}, {"lat": "-23.65", "city": "Okeruru", "lon": "19.5"}, {"lat": "-23.4166667", "city": "Okombepera", "lon": "19.4166667"}, {"lat": "-23.05", "city": "Okomboha", "lon": "19.7833333"}, {"lat": "-20.95", "city": "Okomumbonde", "lon": "18.9166667"}, {"lat": "-23.2833333", "city": "Okomungondo", "lon": "19.7333333"}, {"lat": "-23.6333333", "city": "Okongowa", "lon": "19.7"}, {"lat": "-23.4", "city": "Okonyama", "lon": "19.65"}, {"lat": "-23.4833333", "city": "Okonyoka", "lon": "19.7333333"}, {"lat": "-23.2", "city": "Okoukambe", "lon": "19.7666667"}, {"lat": "-21.5166667", "city": "Okovimburu", "lon": "19.4666667"}, {"lat": "-21.6", "city": "Omauozonjanda", "lon": "19.4166667"}, {"lat": "-21.6", "city": "Omawewozonyanda", "lon": "19.4166667"}, {"lat": "-22.2833333", "city": "Omitara", "lon": "18.0166667"}, {"lat": "-23.3333333", "city": "Omitivine", "lon": "19.35"}, {"lat": "-23.25", "city": "Omutumbondudu", "lon": "19.6"}, {"lat": "-23.1833333", "city": "Onderombapa", "lon": "19.55"}, {"lat": "-23.55", "city": "Ondjiripumwa", "lon": "19.4166667"},