{"NE": {"02": [{"lat": "13.6333333", "city": "Abadam", "lon": "13.25"}, {"lat": "14.4833333", "city": "Abranga", "lon": "13.3833333"}, {"lat": "13.75", "city": "Addia", "lon": "11.1333333"}, {"lat": "13.3194444", "city": "Ad\u00e9bour", "lon": "11.8730556"}, {"lat": "13.3194444", "city": "Adebur", "lon": "11.8730556"}, {"lat": "14.05", "city": "Adjiri", "lon": "13.0"}, {"lat": "16.8333333", "city": "Agadem", "lon": "13.2833333"}, {"lat": "13.4127778", "city": "Akkamari", "lon": "11.1161111"}, {"lat": "13.4127778", "city": "Alkamari", "lon": "11.1161111"}, {"lat": "14.0", "city": "Arijon", "lon": "13.05"}, {"lat": "13.9333333", "city": "Arikoukouri", "lon": "13.1166667"}, {"lat": "13.6166667", "city": "Bag\u00e9", "lon": "13.05"}, {"lat": "13.6166667", "city": "Bagu\u00e9", "lon": "13.05"}, {"lat": "14.4833333", "city": "Bala B\u00e9rim", "lon": "13.2166667"}, {"lat": "14.4275", "city": "Balabirim", "lon": "13.4175"}, {"lat": "13.5333333", "city": "Band\u00e9", "lon": "12.9333333"}, {"lat": "13.9666667", "city": "Bangoa", "lon": "13.0833333"}, {"lat": "13.8808333", "city": "Baroa", "lon": "13.1719444"}, {"lat": "13.8808333", "city": "Baroua", "lon": "13.1719444"}, {"lat": "13.8808333", "city": "Barwa", "lon": "13.1719444"}, {"lat": "15.75", "city": "B\u00e9douaram", "lon": "13.15"}, {"lat": "15.75", "city": "B\u00e9duaram", "lon": "13.15"}, {"lat": "15.9833333", "city": "B\u00e9la B\u00e9rim", "lon": "13.2"}, {"lat": "15.9833333", "city": "Belabiram", "lon": "13.2"}, {"lat": "14.4275", "city": "B\u00e9labirim", "lon": "13.4175"}, {"lat": "14.4275", "city": "B\u00e9la Birim", "lon": "13.4175"}, {"lat": "15.9833333", "city": "Belabirim", "lon": "13.2"}, {"lat": "14.4275", "city": "B\u00e9labirin", "lon": "13.4175"}, {"lat": "14.1166667", "city": "B\u00e9ladol\u00e9", "lon": "11.1833333"}, {"lat": "13.6833333", "city": "Belagana", "lon": "13.3"}, {"lat": "15.55", "city": "Belaiala", "lon": "12.2"}, {"lat": "15.55", "city": "B\u00e9la Yala", "lon": "12.2"}, {"lat": "14.1166667", "city": "B\u00e9lla Dol\u00e9", "lon": "11.1833333"}, {"lat": "13.8833333", "city": "Benga", "lon": "11.8333333"}, {"lat": "15.9833333", "city": "Bilab\u00e9rim", "lon": "13.2"}, {"lat": "13.9833333", "city": "Bilisando", "lon": "11.8"}, {"lat": "13.9666667", "city": "Bongoua", "lon": "13.0833333"}, {"lat": "14.4166667", "city": "Borkolo", "lon": "13.4333333"}, {"lat": "13.6972222", "city": "Boso", "lon": "13.3102778"}, {"lat": "13.4", "city": "Bosomari", "lon": "12.05"}, {"lat": "13.6972222", "city": "Bosso", "lon": "13.3102778"}, {"lat": "13.4", "city": "Bossomari", "lon": "12.05"}, {"lat": "13.1666667", "city": "Boudoum", "lon": "12.25"}, {"lat": "13.6833333", "city": "Boulagana", "lon": "13.3"}, {"lat": "13.5", "city": "Boumbougoua", "lon": "11.2666667"}, {"lat": "13.5", "city": "Boumboukoua", "lon": "11.2666667"}, {"lat": "13.9166667", "city": "Bouori", "lon": "13.1333333"}, {"lat": "13.9861111", "city": "Bouti", "lon": "11.3363889"}, {"lat": "13.1666667", "city": "Budum", "lon": "12.25"}, {"lat": "13.5", "city": "Bumbukoa", "lon": "11.2666667"}, {"lat": "13.4255556", "city": "Ch\u00e9ri", "lon": "11.385"}, {"lat": "13.185", "city": "Ch\u00e9timari", "lon": "12.4252778"}, {"lat": "13.4", "city": "Dabalia", "lon": "10.95"}, {"lat": "13.4", "city": "Daballa", "lon": "10.95"}, {"lat": "13.55", "city": "Dagaya", "lon": "13.0666667"}, {"lat": "14.3833333", "city": "Dandaloa", "lon": "13.3333333"}, {"lat": "13.9", "city": "Dedd\u00e9r\u00e9", "lon": "11.4"}, {"lat": "13.9", "city": "Dedere", "lon": "11.4"}, {"lat": "13.2333333", "city": "De\u00efssa", "lon": "12.4666667"}, {"lat": "13.4166667", "city": "D\u00e9oua", "lon": "12.8166667"}, {"lat": "13.4166667", "city": "Dewa", "lon": "12.8166667"}, {"lat": "13.75", "city": "Diabala", "lon": "13.3166667"}, {"lat": "14.4", "city": "Diakim\u00e9", "lon": "13.45"}, {"lat": "13.3666667", "city": "Dietkorom", "lon": "11.6333333"}, {"lat": "13.3155556", "city": "Diffa", "lon": "12.6088889"}, {"lat": "14.05", "city": "Digu\u00e9oua", "lon": "11.2333333"}, {"lat": "14.05", "city": "Diguia", "lon": "11.2333333"}, {"lat": "15.2666667", "city": "Dilia Tehfidinga", "lon": "12.1"}, {"lat": "15.2666667", "city": "Dillia T\u00e9fidinga", "lon": "12.1"}, {"lat": "15.2666667", "city": "Dillia Tehfidinga", "lon": "12.1"}, {"lat": "14.0833333", "city": "Ditchimba", "lon": "13.0"}, {"lat": "13.5333333", "city": "Djaboulam", "lon": "13.0833333"}, {"lat": "14.0333333", "city": "Djibouloua", "lon": "13.0166667"}, {"lat": "13.9833333", "city": "Djibri", "lon": "13.0666667"}, {"lat": "13.55", "city": "Djoukoutouri", "lon": "13.15"}, {"lat": "13.9", "city": "Douri", "lon": "13.15"}, {"lat": "13.1", "city": "Douro", "lon": "12.4166667"}, {"lat": "13.1", "city": "Duro", "lon": "12.4166667"}, {"lat": "13.6", "city": "Dzituma", "lon": "12.1833333"}, {"lat": "13.6", "city": "Dzitumma", "lon": "12.1833333"}, {"lat": "14.45", "city": "Faya Abdalla", "lon": "13.4"}, {"lat": "14.45", "city": "Faya Abdallah", "lon": "13.4"}, {"lat": "14.45", "city": "Faya", "lon": "13.4"}, {"lat": "13.8333333", "city": "Fi\u00e9bouloua", "lon": "13.2"}, {"lat": "13.55", "city": "Fi\u00e8daga", "lon": "13.05"}, {"lat": "14.4666667", "city": "Fi\u00e9nouna", "lon": "13.2666667"}, {"lat": "13.55", "city": "Fouaram", "lon": "13.0833333"}, {"lat": "13.5516667", "city": "Foulatari", "lon": "12.0586111"}, {"lat": "14.3666667", "city": "Fourdirom", "lon": "13.3"}, {"lat": "14.3333333", "city": "Gala\u00efdi", "lon": "13.1666667"}, {"lat": "13.5641667", "city": "Galjia", "lon": "12.9052778"}, {"lat": "13.9333333", "city": "Gallaoua", "lon": "11.25"}, {"lat": "13.9333333", "city": "Gallawa", "lon": "11.25"}, {"lat": "13.9333333", "city": "Galloua", "lon": "11.25"}, {"lat": "13.65", "city": "Gamgara", "lon": "13.3"}, {"lat": "13.3", "city": "Ganga", "lon": "11.8166667"}, {"lat": "13.65", "city": "Gangara", "lon": "13.3"}, {"lat": "13.3977778", "city": "Garawa", "lon": "12.0491667"}, {"lat": "13.3977778", "city": "Garoua", "lon": "12.0491667"}, {"lat": "13.6666667", "city": "Garoumaji", "lon": "11.2333333"}, {"lat": "14.1166667", "city": "Garoumal\u00e9", "lon": "12.9666667"}, {"lat": "14.1166667", "city": "Garoum\u00e9l\u00e9", "lon": "12.9666667"}, {"lat": "13.6666667", "city": "Garoumiga", "lon": "11.2333333"}, {"lat": "13.6666667", "city": "Garumagi", "lon": "11.2333333"}, {"lat": "13.9166667", "city": "Goudaboulam", "lon": "13.15"}, {"lat": "13.7111111", "city": "Goudomaria", "lon": "11.1902778"}, {"lat": "13.7111111", "city": "Goudoumaria", "lon": "11.1902778"}, {"lat": "13.6", "city": "Goulay", "lon": "13.2666667"}, {"lat": "13.7111111", "city": "Gudumaria", "lon": "11.1902778"}, {"lat": "13.4844444", "city": "Guesk\u00e9rou", "lon": "12.8447222"}, {"lat": "13.5333333", "city": "Irara", "lon": "12.2333333"}, {"lat": "13.5908333", "city": "Jajiri", "lon": "11.5122222"}, {"lat": "14.0833333", "city": "Jitkouka", "lon": "11.2"}, {"lat": "13.9", "city": "Kaadjia", "lon": "12.8"}, {"lat": "13.9758333", "city": "Kab\u00e9laoua", "lon": "12.975"}, {"lat": "13.9758333", "city": "Kab\u00e9lawa", "lon": "12.975"}, {"lat": "13.2886111", "city": "Kabi", "lon": "12.4519444"}, {"lat": "13.7247222", "city": "Kad\u00e9laboua", "lon": "10.9138889"}, {"lat": "13.8", "city": "Kagniouakoura", "lon": "11.2"}, {"lat": "14.1333333", "city": "Kakarahil", "lon": "11.4333333"}, {"lat": "14.1333333", "city": "Kakara", "lon": "11.4333333"}, {"lat": "14.1333333", "city": "Kakarawa", "lon": "11.4333333"}, {"lat": "14.0", "city": "Kand\u00e9loua", "lon": "11.1333333"}, {"lat": "14.3833333", "city": "Kangouri", "lon": "13.3166667"}, {"lat": "13.8", "city": "Kanioua", "lon": "11.2"}, {"lat": "13.8", "city": "Kaniua", "lon": "11.2"}, {"lat": "13.7166667", "city": "Kankouri", "lon": "13.35"}, {"lat": "13.7833333", "city": "Kantanawa", "lon": "13.2333333"}, {"lat": "13.5141667", "city": "Karagoua", "lon": "10.9802778"}, {"lat": "13.5141667", "city": "Karagou", "lon": "10.9802778"}, {"lat": "13.5141667", "city": "Karagu", "lon": "10.9802778"}, {"lat": "13.5141667", "city": "Karamgaoua", "lon": "10.9802778"}, {"lat": "13.9666667", "city": "Kasatia", "lon": "13.0666667"}, {"lat": "13.4827778", "city": "Kassatchia", "lon": "11.2002778"}, {"lat": "13.9666667", "city": "Kassatia", "lon": "13.0666667"}, {"lat": "13.9333333", "city": "Katchellari", "lon": "11.6333333"}, {"lat": "13.5333333", "city": "Kazakoura", "lon": "13.0333333"}, {"lat": "13.5591667", "city": "K\u00e9lakam", "lon": "11.7394444"}, {"lat": "13.55", "city": "Kiari Kagar", "lon": "13.2"}, {"lat": "13.6333333", "city": "Kingoua", "lon": "13.0333333"}, {"lat": "13.5333333", "city": "Kirala", "lon": "13.15"}, {"lat": "13.9", "city": "Kokouta", "lon": "11.1333333"}, {"lat": "13.9", "city": "Kolomanga", "lon": "13.0666667"}, {"lat": "14.3833333", "city": "Kongouri", "lon": "13.3166667"}, {"lat": "14.3", "city": "Kotou", "lon": "13.1833333"}, {"lat": "13.8", "city": "Kotou Ouango", "lon": "13.2333333"}, {"lat": "13.9", "city": "Koukoutoua", "lon": "11.1333333"}, {"lat": "13.8452778", "city": "Koulakoula", "lon": "11.4338889"}, {"lat": "15.2833333", "city": "Koul\u00e9l\u00e9", "lon": "13.4"}, {"lat": "14.0666667", "city": "Koulgoulerom", "lon": "13.3166667"}, {"lat": "15.2833333", "city": "Koullei\u00e9", "lon": "13.4"}, {"lat": "15.2833333", "city": "Koull\u00e9l\u00e9", "lon": "13.4"}, {"lat": "13.9072222", "city": "Koulombardo", "lon": "11.1413889"}, {"lat": "16.1511111", "city": "Koussa Arma", "lon": "13.2102778"}, {"lat": "14.3", "city": "Koutou", "lon": "13.1833333"}, {"lat": "14.4166667", "city": "Kriram", "lon": "13.5"}, {"lat": "13.9", "city": "Kukutua", "lon": "11.1333333"}, {"lat": "14.35", "city": "Lari", "lon": "13.1666667"}, {"lat": "13.6666667", "city": "Lataram", "lon": "11.35"}, {"lat": "13.1333333", "city": "L\u00e9kariri", "lon": "12.1166667"}, {"lat": "14.3666667", "city": "Limia", "lon": "13.25"}, {"lat": "13.35", "city": "Ma\u00efn\u00e9 Gora", "lon": "12.1333333"}, {"lat": "13.2177778", "city": "Ma\u00efn\u00e9-Soroa", "lon": "12.0266667"}, {"lat": "14.4", "city": "Maliari", "lon": "13.3833333"}, {"lat": "15.25", "city": "Mama Kassa", "lon": "12.3"}, {"lat": "13.7333333", "city": "Mamouri", "lon": "13.35"}, {"lat": "14.3666667", "city": "Mandara", "lon": "13.25"}, {"lat": "14.4166667", "city": "Maoli", "lon": "13.1666667"}, {"lat": "13.8666667", "city": "Maoutchandari", "lon": "11.6"}, {"lat": "14.1333333", "city": "Mara", "lon": "13.0166667"}, {"lat": "13.5666667", "city": "Maria Kirgari", "lon": "13.2333333"}, {"lat": "15.05", "city": "Maul", "lon": "13.3"}, {"lat": "15.05", "city": "Maut", "lon": "13.3"}, {"lat": "14.2666667", "city": "May Kour\u00e9", "lon": "7.3333333"}, {"lat": "14.4166667", "city": "M\u00e9l\u00e9ram", "lon": "13.3166667"}, {"lat": "14.4166667", "city": "M\u00e9l\u00e9rom", "lon": "13.3166667"}, {"lat": "13.6166667", "city": "Midellaram", "lon": "12.3"}, {"lat": "13.7333333", "city": "Minya", "lon": "13.3166667"}, {"lat": "14.0833333", "city": "Mir", "lon": "11.9833333"}, {"lat": "15.05", "city": "Moull", "lon": "13.3"}, {"lat": "15.05", "city": "Moul", "lon": "13.3"}, {"lat": "13.6461111", "city": "Mounouk", "lon": "12.1213889"}, {"lat": "13.95", "city": "Mourtchati", "lon": "13.0833333"}, {"lat": "13.6", "city": "Nakin Tawingo", "lon": "13.25"}, {"lat": "13.7613889", "city": "Nartia", "lon": "12.6022222"}, {"lat": "13.5641667", "city": "Ngalaoua", "lon": "12.9052778"}, {"lat": "14.0166667", "city": "N'Galewa", "lon": "13.0333333"}, {"lat": "13.5641667", "city": "Ngaloua", "lon": "12.9052778"}, {"lat": "13.5641667", "city": "Ngalwa", "lon": "12.9052778"}, {"lat": "14.0166667", "city": "Ng\u00e9l\u00e9wa", "lon": "13.0333333"}, {"lat": "14.2527778", "city": "Ngigmi", "lon": "13.1108333"}, {"lat": "15.3308333", "city": "Ngourti", "lon": "13.2005556"}, {"lat": "15.3308333", "city": "N'Gourty", "lon": "13.2005556"}, {"lat": "14.0166667", "city": "Ngu\u00e9l\u00e9wa", "lon": "13.0333333"}, {"lat": "14.0666667", "city": "Ngu\u00e8l Garamiram", "lon": "11.1"}, {"lat": "14.0333333", "city": "N'Guibouloa", "lon": "13.0166667"}, {"lat": "14.2527778", "city": "Nguigmi", "lon": "13.1108333"}, {"lat": "14.0666667", "city": "Ouanganga", "lon": "11.1166667"}, {"lat": "15.3333333", "city": "Ouedda", "lon": "12.0"}, {"lat": "14.1166667", "city": "Ouidi", "lon": "12.9833333"}, {"lat": "14.4", "city": "Ouiy\u00e9", "lon": "13.3833333"}, {"lat": "14.0666667", "city": "Oumaraoua", "lon": "11.1833333"}, {"lat": "14.0666667", "city": "Oumarawa", "lon": "11.1833333"}, {"lat": "14.1166667", "city": "Ouondi", "lon": "12.9833333"}, {"lat": "13.7666667", "city": "Ouorio", "lon": "13.25"}, {"lat": "13.55", "city": "Ouwaou", "lon": "13.0166667"}, {"lat": "16.4819444", "city": "Oyou Bezz\u00e9 Denga", "lon": "13.2844444"}, {"lat": "13.5333333", "city": "Ril\u00e9", "lon": "13.1666667"}, {"lat": "13.65", "city": "Sagam", "lon": "12.5333333"}, {"lat": "14.0", "city": "Samaldi", "lon": "11.0333333"}, {"lat": "13.65", "city": "Sayam", "lon": "12.5333333"}, {"lat": "14.4333333", "city": "S\u00e9dig\u00e9", "lon": "13.2"}, {"lat": "14.4333333", "city": "S\u00e9digu\u00e9", "lon": "13.2"}, {"lat": "15.75", "city": "Sedouaram", "lon": "13.15"}, {"lat": "14.0333333", "city": "S\u00e9ram", "lon": "11.1166667"}, {"lat": "13.4255556", "city": "Sheri", "lon": "11.385"}, {"lat": "14.45", "city": "Soum Soum", "lon": "13.2166667"}, {"lat": "13.1333333", "city": "Tam", "lon": "12.1333333"}, {"lat": "13.9", "city": "Tcharingab\u00e9ri", "lon": "13.15"}, {"lat": "13.9166667", "city": "Tchougoundi", "lon": "13.15"}, {"lat": "13.85", "city": "Tchoukoutjany", "lon": "13.2"}, {"lat": "13.7833333", "city": "Toubaram", "lon": "13.2333333"}, {"lat": "13.9833333", "city": "Toubori", "lon": "12.3"}, {"lat": "13.6694444", "city": "Toumour", "lon": "13.12"}, {"lat": "13.2833333", "city": "Tourbanguida", "lon": "12.5833333"}, {"lat": "13.2833333", "city": "Turbangida", "lon": "12.5833333"}, {"lat": "14.1166667", "city": "Waudi", "lon": "12.9833333"}, {"lat": "14.1166667", "city": "Wondi", "lon": "12.9833333"}, {"lat": "14.1166667", "city": "Woudi", "lon": "12.9833333"}, {"lat": "14.4", "city": "Wyi\u00e9", "lon": "13.3833333"}, {"lat": "13.9833333", "city": "Yari", "lon": "12.3"}, {"lat": "13.8166667", "city": "Yaroua Koura", "lon": "13.2333333"}, {"lat": "13.7333333", "city": "Y\u00e9bi Kindjia", "lon": "13.3"}, {"lat": "13.7333333", "city": "Y\u00e9bi Kinjab\u00e9", "lon": "13.3"}, {"lat": "13.6666667", "city": "Zangari", "lon": "11.45"}, {"lat": "13.8333333", "city": "Zaroua", "lon": "13.2"}, {"lat": "13.4333333", "city": "Zoumba", "lon": "11.2833333"}, {"lat": "13.4333333", "city": "Zumba", "lon": "11.2833333"}], "03": [{"lat": "13.05", "city": "Abdou-Koara", "lon": "3.5666667"}, {"lat": "13.05", "city": "Abdou Kwara", "lon": "3.5666667"}, {"lat": "12.7666667", "city": "Abdouladji", "lon": "3.6666667"}, {"lat": "13.0166667", "city": "Aboni-Koara", "lon": "3.5333333"}, {"lat": "13.0166667", "city": "Aboni Kwara", "lon": "3.5333333"}, {"lat": "12.5333333", "city": "Abouko Koara", "lon": "2.9166667"}, {"lat": "12.5333333", "city": "Abouko Kwara", "lon": "2.9166667"}, {"lat": "13.7833333", "city": "Adabay", "lon": "3.5833333"}, {"lat": "13.7833333", "city": "Adabaye", "lon": "3.5833333"}, {"lat": "14.2", "city": "Adaoua", "lon": "4.6166667"}, {"lat": "12.25", "city": "Adiga Kaboy", "lon": "3.3666667"}, {"lat": "12.25", "city": "Adiga-Kaboye", "lon": "3.3666667"}, {"lat": "12.2333333", "city": "Adiga L\u00e9l\u00e9", "lon": "3.35"}, {"lat": "12.2833333", "city": "Adiga Zanguina", "lon": "3.3166667"}, {"lat": "13.1666667", "city": "Adoua", "lon": "3.95"}, {"lat": "14.2", "city": "Adwa K\u00e9sa", "lon": "3.85"}, {"lat": "14.2", "city": "Adwa K\u00e9ssa", "lon": "3.85"}, {"lat": "12.6166667", "city": "A\u00e9ni-Koye-Koara", "lon": "3.25"}, {"lat": "12.6166667", "city": "A\u00e9ni Koy Kwara", "lon": "3.25"}, {"lat": "12.5666667", "city": "Afodamata", "lon": "2.95"}, {"lat": "13.1333333", "city": "Afol\u00e9", "lon": "3.9833333"}, {"lat": "12.9491667", "city": "Agali", "lon": "3.1825"}, {"lat": "13.7333333", "city": "Agnari", "lon": "3.95"}, {"lat": "12.75", "city": "Agonga", "lon": "3.6666667"}, {"lat": "13.25", "city": "Agouaoua", "lon": "4.0666667"}, {"lat": "13.25", "city": "Agouawa", "lon": "4.0666667"}, {"lat": "13.8333333", "city": "Agouliza", "lon": "3.7666667"}, {"lat": "13.2166667", "city": "A\u00efdara-Koara", "lon": "3.65"}, {"lat": "13.3666667", "city": "Aikaouel", "lon": "2.95"}, {"lat": "13.6333333", "city": "Alakey", "lon": "3.9666667"}, {"lat": "12.8", "city": "Alassane Dey", "lon": "3.4"}, {"lat": "12.8", "city": "Alassane-D\u00e8ye", "lon": "3.4"}, {"lat": "12.0833333", "city": "Albarkais\u00e9", "lon": "3.2333333"}, {"lat": "12.0833333", "city": "Albarka\u00efz\u00e9", "lon": "3.2333333"}, {"lat": "12.35", "city": "Albarka Koara", "lon": "3.5666667"}, {"lat": "12.35", "city": "Albarka Kwara", "lon": "3.5666667"}, {"lat": "12.2166667", "city": "Albora-Koara", "lon": "3.0666667"}, {"lat": "12.2166667", "city": "Albora Kwara", "lon": "3.0666667"}, {"lat": "12.5833333", "city": "Alenguel", "lon": "2.9"}, {"lat": "12.5666667", "city": "Alfad\u00e9mata", "lon": "2.95"}, {"lat": "13.1666667", "city": "Alfa\u00efz\u00e9-Koara", "lon": "3.65"}, {"lat": "13.1666667", "city": "Alfa\u00efz\u00e9 Kwara", "lon": "3.65"}, {"lat": "12.1666667", "city": "Alfa-Koara", "lon": "3.4333333"}, {"lat": "12.6166667", "city": "Alfakoara", "lon": "2.9"}, {"lat": "13.1", "city": "Alfa-Koara", "lon": "3.5666667"}, {"lat": "12.2833333", "city": "Alfa Koura-Koara", "lon": "3.1333333"}, {"lat": "12.2833333", "city": "Alfa Koura Kwara", "lon": "3.1333333"}, {"lat": "12.1666667", "city": "Alfa Kwara", "lon": "3.4333333"}, {"lat": "13.4666667", "city": "Alfari", "lon": "3.25"}, {"lat": "13.2666667", "city": "Alfarib\u00e9", "lon": "2.8666667"}, {"lat": "13.3333333", "city": "Alidou-Koara", "lon": "3.65"}, {"lat": "13.3333333", "city": "Alidou Kwara", "lon": "3.65"}, {"lat": "13.3666667", "city": "Alkaouel", "lon": "2.95"}, {"lat": "12.5833333", "city": "Allanguel", "lon": "2.9"}, {"lat": "13.2666667", "city": "Almou-Koara", "lon": "3.55"}, {"lat": "13.2666667", "city": "Almou Kwara", "lon": "3.55"}, {"lat": "12.5833333", "city": "Aloug\u00e8l", "lon": "2.9"}, {"lat": "12.5833333", "city": "Alougu\u00e8l", "lon": "2.9"}, {"lat": "13.2", "city": "Alzana Fandou", "lon": "2.9166667"}, {"lat": "12.5666667", "city": "Amamara Toudou", "lon": "3.5833333"}, {"lat": "12.2166667", "city": "Amao", "lon": "3.1666667"}, {"lat": "12.1166667", "city": "Ambotch\u00e9", "lon": "3.5166667"}, {"lat": "14.05", "city": "Anboksa", "lon": "3.8333333"}, {"lat": "12.8333333", "city": "Anga Bandawaki", "lon": "3.7666667"}, {"lat": "13.0833333", "city": "Anga Mazouga", "lon": "3.9333333"}, {"lat": "13.0333333", "city": "Angoa Angao", "lon": "3.9333333"}, {"lat": "12.25", "city": "Angoa Ango", "lon": "3.45"}, {"lat": "13.1", "city": "Angoa Ansandi", "lon": "3.9166667"}, {"lat": "12.8166667", "city": "Angoa Aouta", "lon": "3.8166667"}, {"lat": "13.35", "city": "Angoa-Bandawaki", "lon": "4.0"}, {"lat": "12.7333333", "city": "Angoa-Bawak\u00e9", "lon": "3.6833333"}, {"lat": "12.8166667", "city": "Angoa Bossari", "lon": "3.8333333"}, {"lat": "12.9", "city": "Angoa Bourama", "lon": "3.8666667"}, {"lat": "12.7", "city": "Angoa Dagne", "lon": "3.6333333"}, {"lat": "12.7333333", "city": "Angoa Damagani", "lon": "3.65"}, {"lat": "13.25", "city": "Angoa Damban\u00e9", "lon": "3.9166667"}, {"lat": "13.1833333", "city": "Angoa Dangaladima", "lon": "3.95"}, {"lat": "12.7166667", "city": "Angoa Danha\u00efni", "lon": "3.7166667"}, {"lat": "12.4666667", "city": "Angoa Daoura", "lon": "3.55"}, {"lat": "12.7333333", "city": "Angoa Dembo", "lon": "3.7166667"}, {"lat": "12.9666667", "city": "Angoa Dobi", "lon": "3.9"}, {"lat": "12.5", "city": "Angoa Doka Baba", "lon": "3.5333333"}, {"lat": "12.4833333", "city": "Angoa Doka Karama", "lon": "3.5333333"}, {"lat": "12.7833333", "city": "Angoa Doua", "lon": "3.6"}, {"lat": "12.95", "city": "Angoa Doubou", "lon": "3.9"}, {"lat": "12.7166667", "city": "Angoa Gao", "lon": "3.7333333"}, {"lat": "13.0166667", "city": "Angoa Gorka", "lon": "3.9333333"}, {"lat": "12.6666667", "city": "Angoa Gouaka", "lon": "3.7833333"}, {"lat": "12.7666667", "city": "Angoa Gouaya", "lon": "3.7333333"}, {"lat": "12.8", "city": "Angoa Guessa", "lon": "3.7166667"}, {"lat": "12.7333333", "city": "Angoa Kad\u00e9", "lon": "3.6833333"}, {"lat": "12.8666667", "city": "Angoa Kadey", "lon": "3.85"}, {"lat": "12.8666667", "city": "Angoa-Kadeye", "lon": "3.85"}, {"lat": "13.6666667", "city": "Angoa Kouatche", "lon": "3.9666667"}, {"lat": "12.5333333", "city": "Angoa Koundou", "lon": "3.5166667"}, {"lat": "12.7166667", "city": "Angoa Laboa", "lon": "3.6333333"}, {"lat": "12.9666667", "city": "Angoal Doutchi", "lon": "4.0"}, {"lat": "12.7666667", "city": "Angoa L\u00e9laba", "lon": "3.6166667"}, {"lat": "13.1833333", "city": "Angoal Ibrahim", "lon": "4.0166667"}, {"lat": "12.6333333", "city": "Angoa Liman\u00e9", "lon": "3.4666667"}, {"lat": "13.7166667", "city": "Angoal Kara", "lon": "4.0666667"}, {"lat": "12.9", "city": "Angoal Magazi", "lon": "4.05"}, {"lat": "13.1666667", "city": "Angoal Marafa", "lon": "4.0166667"}, {"lat": "13.1833333", "city": "Angoal Mayaki", "lon": "4.0666667"}, {"lat": "13.2666667", "city": "Angoal May Dogon", "lon": "4.0666667"}, {"lat": "13.5166667", "city": "Angoal Nana", "lon": "4.0666667"}, {"lat": "13.6666667", "city": "Angoal Saoulo", "lon": "3.9666667"}, {"lat": "12.5833333", "city": "Angoal Zanoa", "lon": "3.6833333"}, {"lat": "12.8666667", "city": "Angoa Maba", "lon": "3.8333333"}, {"lat": "13.1166667", "city": "Angoa Magagui", "lon": "3.95"}, {"lat": "12.9333333", "city": "Angoa Mali", "lon": "3.6666667"}, {"lat": "13.0666667", "city": "Angoa Marafa", "lon": "3.7333333"}, {"lat": "12.9166667", "city": "Angoa Marata", "lon": "3.9166667"}, {"lat": "12.8166667", "city": "Angoa Mayo", "lon": "3.6"}, {"lat": "12.7166667", "city": "Angoa Modakini", "lon": "3.6833333"}, {"lat": "13.5166667", "city": "Angoa Nama", "lon": "4.0666667"}, {"lat": "12.9333333", "city": "Angoa Nassara", "lon": "3.9166667"}, {"lat": "12.95", "city": "Angoa Noberni", "lon": "3.9"}, {"lat": "13.0833333", "city": "Angoa Nomagandal\u00e9", "lon": "3.95"}, {"lat": "12.9333333", "city": "Angoa Noma\u00efwa", "lon": "3.9"}, {"lat": "12.55", "city": "Angoa R\u00e9rey", "lon": "3.5333333"}, {"lat": "12.55", "city": "Angoa-R\u00e9r\u00e8ye", "lon": "3.5333333"}, {"lat": "12.65", "city": "Angoa Sama", "lon": "3.6"}, {"lat": "13.6666667", "city": "Angoa Saoulo", "lon": "3.9666667"}, {"lat": "12.95", "city": "Angoa Serki Toudou", "lon": "3.9166667"}, {"lat": "13.1", "city": "Angoa Soala", "lon": "3.9666667"}, {"lat": "12.5", "city": "Angoa Tamou", "lon": "3.5833333"}, {"lat": "12.7833333", "city": "Angoa Tchadi", "lon": "3.8166667"}, {"lat": "12.9666667", "city": "Angoa Yaro", "lon": "3.8666667"}, {"lat": "12.5666667", "city": "Angoa Yaya", "lon": "3.5666667"}, {"lat": "12.5833333", "city": "Angoa Zanoa", "lon": "3.6833333"}, {"lat": "12.8166667", "city": "Ango Nama\u00efwa", "lon": "3.7666667"}, {"lat": "12.6", "city": "Angou-Kourawa", "lon": "3.5333333"}, {"lat": "13.35", "city": "Angwa Bandawaki", "lon": "4.0"}, {"lat": "12.7333333", "city": "Angwa Bawak\u00e9", "lon": "3.6833333"}, {"lat": "12.6", "city": "Angwa Kourawa", "lon": "3.5333333"}, {"lat": "13.6666667", "city": "Angwa Kwatch\u00e9", "lon": "3.9666667"}, {"lat": "12.0333333", "city": "Ankoura", "lon": "3.65"}, {"lat": "13.7333333", "city": "Anyari", "lon": "3.95"}, {"lat": "11.8666667", "city": "Aoudou Tounga", "lon": "3.55"}, {"lat": "12.9666667", "city": "Aoulaol", "lon": "2.95"}, {"lat": "12.9", "city": "Aouli-Koara", "lon": "3.5"}, {"lat": "12.9", "city": "Aouli Kwara", "lon": "3.5"}, {"lat": "12.55", "city": "Aoulondokoara", "lon": "2.95"}, {"lat": "12.55", "city": "Aoulondo Kwara", "lon": "2.95"}, {"lat": "13.45", "city": "Arangi\u00e9", "lon": "4.0666667"}, {"lat": "13.45", "city": "Arangui\u00e9", "lon": "4.0666667"}, {"lat": "13.3166667", "city": "Ar\u00e9-Koara", "lon": "3.65"}, {"lat": "13.3166667", "city": "Ar\u00e9 Kwara", "lon": "3.65"}, {"lat": "13.2608333", "city": "Arikanassou", "lon": "2.8408333"}, {"lat": "12.4833333", "city": "Arisouna", "lon": "2.9166667"}, {"lat": "12.4833333", "city": "Arissouna", "lon": "2.9166667"}, {"lat": "12.4833333", "city": "Arizouma", "lon": "2.9166667"}, {"lat": "13.7833333", "city": "Askia", "lon": "4.2833333"}, {"lat": "13.7833333", "city": "Askya", "lon": "4.2833333"}, {"lat": "12.6166667", "city": "Assiri", "lon": "3.5666667"}, {"lat": "12.4813889", "city": "Atara Oubanda Waki Koara", "lon": "3.4527778"}, {"lat": "12.4813889", "city": "Atara Oubandawaki Kwara", "lon": "3.4527778"}, {"lat": "12.4813889", "city": "Attara-Oubanda-Waki-Koara", "lon": "3.4527778"}, {"lat": "12.2333333", "city": "Auguste-Koara", "lon": "3.0666667"}, {"lat": "12.2333333", "city": "Auguste Kwara", "lon": "3.0666667"}, {"lat": "14.0666667", "city": "Awa Data", "lon": "3.95"}, {"lat": "12.1833333", "city": "Awaye-Yara", "lon": "3.3333333"}, {"lat": "12.1833333", "city": "Away Yara", "lon": "3.3333333"}, {"lat": "13.2166667", "city": "Aydara Koara", "lon": "3.65"}, {"lat": "13.2166667", "city": "Aydara Kwara", "lon": "3.65"}, {"lat": "12.3166667", "city": "Az\u00e9mouraba", "lon": "3.45"}, {"lat": "13.7833333", "city": "Azkia", "lon": "4.2833333"}, {"lat": "13.5666667", "city": "Babadaignan", "lon": "3.9166667"}, {"lat": "13.5666667", "city": "Babadainyan", "lon": "3.9166667"}, {"lat": "12.8", "city": "Baba Dey", "lon": "3.5"}, {"lat": "12.8", "city": "Baba-D\u00e8ye", "lon": "3.5"}, {"lat": "12.6666667", "city": "Baba-Koara", "lon": "3.3"}, {"lat": "12.3333333", "city": "Baba-Koatcha", "lon": "3.2833333"}, {"lat": "12.6666667", "city": "Baba Kwara", "lon": "3.3"}, {"lat": "12.3333333", "city": "Baba Kwatcha", "lon": "3.2833333"}, {"lat": "13.2", "city": "Babiadey", "lon": "3.25"}, {"lat": "13.2", "city": "Babiad\u00e8ye", "lon": "3.25"}, {"lat": "11.85", "city": "Babou el Aya", "lon": "3.6166667"}, {"lat": "13.5833333", "city": "Badara Dey", "lon": "3.2833333"}, {"lat": "13.5833333", "city": "Badarad\u00e8ye", "lon": "3.2833333"}, {"lat": "13.2", "city": "Badefa", "lon": "3.7833333"}, {"lat": "13.2", "city": "Badifa", "lon": "3.7833333"}, {"lat": "12.8833333", "city": "Badingui-Koara", "lon": "3.4166667"}, {"lat": "12.8833333", "city": "Badingui Kwara", "lon": "3.4166667"}, {"lat": "13.45", "city": "Bado", "lon": "4.05"}, {"lat": "12.75", "city": "Badochi", "lon": "3.9333333"}, {"lat": "13.6666667", "city": "Badoko", "lon": "3.3333333"}, {"lat": "13.55", "city": "Bagadi\u00e9 Koara", "lon": "3.7166667"}, {"lat": "13.55", "city": "Bagadi\u00e9 Kwara", "lon": "3.7166667"}, {"lat": "13.85", "city": "Bagadji", "lon": "4.05"}, {"lat": "13.85", "city": "Bagaji", "lon": "4.05"}, {"lat": "13.4833333", "city": "Bagnagondi Koara", "lon": "3.7333333"}, {"lat": "12.8833333", "city": "Bagouma-Koara", "lon": "3.5"}, {"lat": "12.8833333", "city": "Bagouma Kwara", "lon": "3.5"}, {"lat": "13.2666667", "city": "Bahanidey", "lon": "3.5166667"}, {"lat": "13.2666667", "city": "Bahanid\u00e8ye", "lon": "3.5166667"}, {"lat": "13.4333333", "city": "Bakarkasa", "lon": "4.0666667"}, {"lat": "13.4333333", "city": "Bakarkassa", "lon": "4.0666667"}, {"lat": "13.3333333", "city": "Bakine-Tombo", "lon": "3.7166667"}, {"lat": "13.3333333", "city": "Bakin Tombo", "lon": "3.7166667"}, {"lat": "13.3", "city": "Bakirikou", "lon": "3.6833333"}, {"lat": "13.65", "city": "Bakitombo", "lon": "3.35"}, {"lat": "13.6666667", "city": "Bakitombo Gorou", "lon": "3.35"}, {"lat": "13.15", "city": "Bakodey", "lon": "3.35"}, {"lat": "13.15", "city": "Bakod\u00e8ye", "lon": "3.35"}, {"lat": "12.7666667", "city": "Bakoub\u00e9", "lon": "3.3666667"}, {"lat": "12.65", "city": "Bal\u00e9", "lon": "3.65"}, {"lat": "12.1166667", "city": "Bal\u00e9goudjo", "lon": "3.2333333"}, {"lat": "12.7333333", "city": "Balgari", "lon": "3.9"}, {"lat": "12.95", "city": "Balibal", "lon": "2.8833333"}, {"lat": "12.7833333", "city": "Balibali", "lon": "2.9"}, {"lat": "13.6666667", "city": "Balidey", "lon": "3.2333333"}, {"lat": "13.6666667", "city": "Balideye", "lon": "3.2333333"}, {"lat": "12.5166667", "city": "Bali-Fatou", "lon": "3.65"}, {"lat": "12.5166667", "city": "Balifolo", "lon": "3.65"}, {"lat": "12.8666667", "city": "Ballam", "lon": "3.9833333"}, {"lat": "12.8666667", "city": "Ballem", "lon": "3.9833333"}, {"lat": "13.4666667", "city": "Bamey", "lon": "3.15"}, {"lat": "13.65", "city": "Bamideni", "lon": "3.2333333"}, {"lat": "12.0505556", "city": "Bana", "lon": "3.5530556"}, {"lat": "12.2666667", "city": "Bangaga", "lon": "3.05"}, {"lat": "12.9833333", "city": "Bangana", "lon": "3.7833333"}, {"lat": "13.1833333", "city": "Bangarasa", "lon": "4.0666667"}, {"lat": "13.1833333", "city": "Bangarassa", "lon": "4.0666667"}, {"lat": "13.35", "city": "Bangaria Moussa", "lon": "2.9333333"}, {"lat": "13.35", "city": "Bangaria Zou", "lon": "2.9666667"}, {"lat": "13.35", "city": "Bangario Baba", "lon": "2.9166667"}, {"lat": "13.35", "city": "Bangario", "lon": "2.9666667"}, {"lat": "12.2666667", "city": "Bangnaga", "lon": "3.05"}, {"lat": "13.5666667", "city": "Bangou", "lon": "4.0666667"}, {"lat": "13.3333333", "city": "Bangoubi", "lon": "2.9333333"}, {"lat": "13.2833333", "city": "Bangoufada Rouzou", "lon": "3.55"}, {"lat": "13.2833333", "city": "Bangoufada Tata", "lon": "3.55"}, {"lat": "12.9166667", "city": "Bangourwal", "lon": "2.9166667"}, {"lat": "12.9", "city": "Bangoutir\u00e9", "lon": "2.9666667"}, {"lat": "12.4833333", "city": "Bangoutisa", "lon": "2.8666667"}, {"lat": "12.4833333", "city": "Bangoutissa", "lon": "2.8666667"}, {"lat": "12.9", "city": "Bangou Tyir\u00e9", "lon": "2.9666667"}, {"lat": "13.35", "city": "Banguiro", "lon": "3.8833333"}, {"lat": "13.5333333", "city": "Bani Dey", "lon": "3.2"}, {"lat": "13.5333333", "city": "Banideye", "lon": "3.2"}, {"lat": "13.75", "city": "Banideye Tougaye", "lon": "3.45"}, {"lat": "13.75", "city": "Bani Dey Tougay", "lon": "3.45"}, {"lat": "13.2", "city": "Banifa", "lon": "3.7833333"}, {"lat": "12.25", "city": "Banigorou", "lon": "3.0666667"}, {"lat": "13.1666667", "city": "Banikadey", "lon": "3.1333333"}, {"lat": "13.1666667", "city": "Banikad\u00e8ye", "lon": "3.1333333"}, {"lat": "12.4666667", "city": "Banikane", "lon": "3.05"}, {"lat": "13.3833333", "city": "Banikan\u00e9 Bomb\u00e9ri", "lon": "3.05"}, {"lat": "12.7833333", "city": "Banikan\u00e9 Moussa", "lon": "3.5333333"}, {"lat": "13.1166667", "city": "Banikane Tiali", "lon": "3.1833333"}, {"lat": "12.1833333", "city": "Banikoubey", "lon": "3.5333333"}, {"lat": "12.1833333", "city": "Banikoub\u00e8ye", "lon": "3.5333333"}, {"lat": "12.6666667", "city": "Bani Loua", "lon": "3.4833333"}, {"lat": "13.3833333", "city": "Banizoumbo", "lon": "3.1166667"}, {"lat": "11.7666667", "city": "Bani Zoumbou", "lon": "3.6"}, {"lat": "12.35", "city": "Banizoumbou", "lon": "3.55"}, {"lat": "12.4666667", "city": "Banizoumbou Guess\u00e9", "lon": "3.1833333"}, {"lat": "12.0666667", "city": "Banizoumbou Guidan Baba", "lon": "3.4666667"}, {"lat": "12.0666667", "city": "Banizoumbou-Guidane-Baba", "lon": "3.4666667"}, {"lat": "12.1833333", "city": "Banizoumbou Moumouni", "lon": "3.2"}, {"lat": "12.9166667", "city": "Banizoumbou Rambi", "lon": "3.0333333"}, {"lat": "12.9166667", "city": "Banizoumbou Ranbi", "lon": "3.0333333"}, {"lat": "12.6333333", "city": "Banizoumbou Sido", "lon": "3.3166667"}, {"lat": "13.1666667", "city": "Bankoula", "lon": "3.9833333"}, {"lat": "12.2666667", "city": "Banyaga", "lon": "3.05"}, {"lat": "13.4833333", "city": "Banyagondi Kwara", "lon": "3.7333333"}, {"lat": "12.7833333", "city": "Baouada", "lon": "3.8333333"}, {"lat": "12.3833333", "city": "Bara", "lon": "3.4333333"}, {"lat": "13.4666667", "city": "Bara-Koara", "lon": "3.8"}, {"lat": "13.4666667", "city": "Bara Kwara", "lon": "3.8"}, {"lat": "14.1333333", "city": "Baraya", "lon": "3.9666667"}, {"lat": "13.15", "city": "Baraya Daohi", "lon": "3.9833333"}, {"lat": "12.6666667", "city": "Baraz\u00e9 Gorou", "lon": "3.3166667"}, {"lat": "12.2666667", "city": "Barba", "lon": "3.4666667"}, {"lat": "13.1833333", "city": "Barb\u00e9 Peul", "lon": "2.8666667"}, {"lat": "13.2333333", "city": "Bargoumawa", "lon": "4.0166667"}, {"lat": "13.15", "city": "Bariguiko", "lon": "3.4166667"}, {"lat": "13.45", "city": "Bark\u00e9-Koara", "lon": "2.9666667"}, {"lat": "13.45", "city": "Bark\u00e9 Kwara", "lon": "2.9666667"}, {"lat": "12.5166667", "city": "Bark\u00e8ldaba", "lon": "2.9333333"}, {"lat": "12.5666667", "city": "Barkir\u00e9koara", "lon": "2.9"}, {"lat": "12.5666667", "city": "Barkir\u00e9 Kwara", "lon": "2.9"}, {"lat": "13.25", "city": "Barma", "lon": "3.1666667"}, {"lat": "13.35", "city": "Baro-Koara", "lon": "3.7166667"}, {"lat": "13.35", "city": "Baro Kwara", "lon": "3.7166667"}, {"lat": "13.2666667", "city": "Barwadey", "lon": "3.5"}, {"lat": "13.2666667", "city": "Barwadeye", "lon": "3.5"}, {"lat": "12.8166667", "city": "Baschi", "lon": "2.8666667"}, {"lat": "12.8166667", "city": "Bashi", "lon": "2.8666667"}, {"lat": "12.8166667", "city": "Basi Dy\u00e8rma", "lon": "2.8666667"}, {"lat": "12.8", "city": "Basi Peul", "lon": "2.8666667"}, {"lat": "12.8166667", "city": "Bassi Dyerma", "lon": "2.8666667"}, {"lat": "12.8", "city": "Bassi Peul", "lon": "2.8666667"}, {"lat": "13.4833333", "city": "Batako", "lon": "3.3333333"}, {"lat": "13.1166667", "city": "Batamab\u00e9ri", "lon": "2.8833333"}, {"lat": "13.6166667", "city": "Batamb\u00e9ri", "lon": "3.7333333"}, {"lat": "12.4666667", "city": "Bataouri Koara", "lon": "3.25"}, {"lat": "12.4666667", "city": "Bataouri Kwara", "lon": "3.25"}, {"lat": "12.3666667", "city": "Batawa", "lon": "3.4166667"}, {"lat": "13.2", "city": "Bawa B\u00e9ri", "lon": "3.5"}, {"lat": "12.9333333", "city": "Bayawa", "lon": "3.7"}, {"lat": "13.5833333", "city": "Baziagorou", "lon": "3.1666667"}, {"lat": "13.55", "city": "Baziga", "lon": "3.2"}, {"lat": "13.05", "city": "B\u00e9ch\u00e9m\u00e9", "lon": "4.0166667"}, {"lat": "12.8877778", "city": "Be\u00ef-Be\u00ef", "lon": "3.9241667"}, {"lat": "12.4", "city": "B\u00e9la", "lon": "3.3833333"}, {"lat": "13.4", "city": "B\u00e9la Koara", "lon": "2.9166667"}, {"lat": "13.4", "city": "B\u00e9la Kwara", "lon": "2.9166667"}, {"lat": "12.75", "city": "Beland\u00e9", "lon": "2.8666667"}, {"lat": "13.4166667", "city": "B\u00e9l\u00e9", "lon": "2.9333333"}, {"lat": "13.5", "city": "B\u00e9l\u00e9-B\u00e9ri-Koara", "lon": "3.6166667"}, {"lat": "13.5", "city": "B\u00e9l\u00e9 B\u00e9ri Kwara", "lon": "3.6166667"}, {"lat": "11.9833333", "city": "Bengou", "lon": "3.5833333"}, {"lat": "11.9833333", "city": "Bengu", "lon": "3.5833333"}, {"lat": "12.2666667", "city": "Berba", "lon": "3.4666667"}, {"lat": "12.8833333", "city": "B\u00e9ri B\u00e9ri", "lon": "3.7166667"}, {"lat": "12.5166667", "city": "Berkierdaba", "lon": "2.9333333"}, {"lat": "12.35", "city": "B\u00e9tawa", "lon": "3.5833333"}, {"lat": "12.8877778", "city": "Bey Bey", "lon": "3.9241667"}, {"lat": "12.8877778", "city": "Beybeye", "lon": "3.9241667"}, {"lat": "12.8877778", "city": "B\u00e8ye-B\u00e8ye", "lon": "3.9241667"}, {"lat": "12.75", "city": "Beyland\u00e9", "lon": "2.8666667"}, {"lat": "12.75", "city": "Beyland\u00e9 Zarma", "lon": "2.8666667"}, {"lat": "13.1333333", "city": "Bin\u00e9guel", "lon": "3.9333333"}, {"lat": "13.5", "city": "Birey", "lon": "3.9833333"}, {"lat": "12.8833333", "city": "Biringol", "lon": "2.9"}, {"lat": "13.0833333", "city": "Birni-Ka\u00efna", "lon": "2.9"}, {"lat": "13.0833333", "city": "Birni Keyna", "lon": "2.9"}, {"lat": "12.9833333", "city": "Birnin Fala", "lon": "4.0833333"}, {"lat": "12.9833333", "city": "Birnin Falla", "lon": "4.0833333"}, {"lat": "13.0877778", "city": "Birnin Gaour\u00e9", "lon": "2.9169444"}, {"lat": "13.0877778", "city": "Birni Ngaour\u00e9", "lon": "2.9169444"}, {"lat": "13.0877778", "city": "Birni Ngaure", "lon": "2.9169444"}, {"lat": "13.0166667", "city": "Birni Nwala", "lon": "4.0833333"}, {"lat": "13.0666667", "city": "Birni Silank\u00e9", "lon": "2.9166667"}, {"lat": "12.5333333", "city": "Birni Tombo", "lon": "3.2166667"}, {"lat": "11.7666667", "city": "Birni-Zoumbou", "lon": "3.6"}, {"lat": "12.5666667", "city": "Bobalombo", "lon": "2.9333333"}, {"lat": "12.5666667", "city": "Bobalonmbo", "lon": "2.9333333"}, {"lat": "12.9333333", "city": "Bobi\u00e9l", "lon": "2.9666667"}, {"lat": "12.9577778", "city": "Boblol", "lon": "3.5802778"}, {"lat": "12.65", "city": "Bodari", "lon": "3.5833333"}, {"lat": "12.8833333", "city": "Bodinnga", "lon": "3.25"}, {"lat": "13.2833333", "city": "Bogol Hima", "lon": "2.85"}, {"lat": "13.3", "city": "Bogol Mahamar", "lon": "2.85"}, {"lat": "13.3", "city": "Bogol Mamar", "lon": "2.85"}, {"lat": "12.3666667", "city": "Bo\u00efz\u00e9", "lon": "2.9166667"}, {"lat": "12.9577778", "city": "Bolbo", "lon": "3.5802778"}, {"lat": "12.9577778", "city": "Bolbol", "lon": "3.5802778"}, {"lat": "12.9577778", "city": "Bolbol Goumandey", "lon": "3.5802778"}, {"lat": "12.9166667", "city": "Bolbol Kodi", "lon": "3.5333333"}, {"lat": "12.9333333", "city": "Bolbol-Manga-Koara", "lon": "3.5333333"}, {"lat": "12.9333333", "city": "Bolbol Manga Kwara", "lon": "3.5333333"}, {"lat": "12.9333333", "city": "Bolbol Marafa", "lon": "3.55"}, {"lat": "12.35", "city": "Bombodji", "lon": "2.95"}, {"lat": "13.3", "city": "Bomboko", "lon": "13.2166667"}, {"lat": "12.6833333", "city": "Bomboro", "lon": "3.6166667"}, {"lat": "12.35", "city": "Bonbodji", "lon": "2.95"}, {"lat": "13.05", "city": "Bondiolo", "lon": "3.3333333"}, {"lat": "12.7666667", "city": "Bonkoukou", "lon": "2.9666667"}, {"lat": "13.6", "city": "Bonoubonko", "lon": "3.35"}, {"lat": "13.2666667", "city": "Boreizade\u00ef", "lon": "3.4666667"}, {"lat": "13.2666667", "city": "Boreyzadey", "lon": "3.4666667"}, {"lat": "13.2666667", "city": "Bor\u00e9zad\u00e8ye", "lon": "3.4666667"}, {"lat": "13.2333333", "city": "Borogo", "lon": "3.65"}, {"lat": "12.5166667", "city": "Bos\u00e8y", "lon": "2.9333333"}, {"lat": "12.9666667", "city": "Bosey Zougou", "lon": "2.9"}, {"lat": "12.55", "city": "Bosia", "lon": "2.7333333"}, {"lat": "13.0833333", "city": "Bossadji", "lon": "2.75"}, {"lat": "12.5166667", "city": "Bosse\u00ef", "lon": "2.9333333"}, {"lat": "12.5166667", "city": "Bossey", "lon": "2.9333333"}, {"lat": "13.3166667", "city": "Boss\u00e9ye", "lon": "3.4666667"}, {"lat": "12.9666667", "city": "Bossey Zougou", "lon": "2.9"}, {"lat": "12.55", "city": "Bossia", "lon": "2.7333333"}, {"lat": "13.2666667", "city": "Boubawa", "lon": "4.0166667"}, {"lat": "13.4333333", "city": "Boud\u00e9fandou", "lon": "3.1"}, {"lat": "12.8", "city": "Boudounga", "lon": "2.6833333"}, {"lat": "13.65", "city": "Bouhoum", "lon": "3.3166667"}, {"lat": "12.7", "city": "Boukagorou", "lon": "3.1833333"}, {"lat": "12.2333333", "city": "Boukata", "lon": "3.2166667"}, {"lat": "13.7", "city": "Bouki", "lon": "3.2166667"}, {"lat": "13.5833333", "city": "Boulaga", "lon": "3.0666667"}, {"lat": "12.7833333", "city": "Boula-Koara", "lon": "3.1666667"}, {"lat": "13.2333333", "city": "Boulakordji", "lon": "2.8333333"}, {"lat": "12.7833333", "city": "Boula Kwara", "lon": "3.1666667"}, {"lat": "12.3666667", "city": "Boulboul", "lon": "3.55"}, {"lat": "12.6833333", "city": "Boulel", "lon": "3.5"}, {"lat": "13.15", "city": "Boul\u00e9l Gaori", "lon": "2.9"}, {"lat": "13.15", "city": "Boulelgaori Ka\u00efna", "lon": "2.8833333"}, {"lat": "13.15", "city": "Boul\u00e9l Gaori Keyna", "lon": "2.8833333"}, {"lat": "13.2333333", "city": "Boulokordi", "lon": "2.8333333"}, {"lat": "13.3166667", "city": "Bouloukoutou", "lon": "3.2"}, {"lat": "12.5333333", "city": "Bouloung\u00e9y", "lon": "2.8666667"}, {"lat": "12.5333333", "city": "Boulounguey", "lon": "2.8666667"}, {"lat": "12.65", "city": "Bouma", "lon": "3.5833333"}, {"lat": "12.4166667", "city": "Boumba", "lon": "2.85"}, {"lat": "12.35", "city": "Boumbodji", "lon": "2.95"}, {"lat": "12.55", "city": "Boundou Doki", "lon": "3.2833333"}, {"lat": "12.8", "city": "Boundouga", "lon": "2.6833333"}, {"lat": "12.8666667", "city": "Boundou Goumy\u00e9", "lon": "2.9333333"}, {"lat": "11.8166667", "city": "Boun\u00e9 Boun\u00e9", "lon": "3.55"}, {"lat": "12.65", "city": "Bounoukoara", "lon": "2.9333333"}, {"lat": "12.65", "city": "Bounou Kwara", "lon": "2.9333333"}, {"lat": "13.7666667", "city": "Bountou", "lon": "4.3666667"}, {"lat": "13.7333333", "city": "Bounzo-Koara", "lon": "3.1666667"}, {"lat": "13.7333333", "city": "Bounzo Kwara", "lon": "3.1666667"}, {"lat": "13.9", "city": "Bourdami", "lon": "3.95"}, {"lat": "13.1602778", "city": "Boure\u00efmi", "lon": "3.7311111"}, {"lat": "13.1602778", "city": "Boure\u00efni", "lon": "3.7311111"}, {"lat": "12.8666667", "city": "Bourgami", "lon": "3.6166667"}, {"lat": "12.6166667", "city": "Bouringa", "lon": "2.8833333"}, {"lat": "12.65", "city": "Bouringakaina", "lon": "2.8833333"}, {"lat": "12.65", "city": "Bouringa Keyna", "lon": "2.8833333"}, {"lat": "12.8833333", "city": "Bouroum", "lon": "3.5"}, {"lat": "12.6333333", "city": "Boybangou", "lon": "2.8333333"}, {"lat": "12.85", "city": "Boy Boy", "lon": "3.8333333"}, {"lat": "12.85", "city": "Boye-Boye", "lon": "3.8333333"}, {"lat": "12.4666667", "city": "Brigambou", "lon": "2.75"}, {"lat": "12.9577778", "city": "Bukul", "lon": "3.5802778"}, {"lat": "12.4166667", "city": "Bumba", "lon": "2.85"}, {"lat": "13.1602778", "city": "Bureimi", "lon": "3.7311111"}, {"lat": "12.1086111", "city": "Chia", "lon": "3.2919444"}, {"lat": "13.1666667", "city": "Chirifid\u00e8ye-Moussa", "lon": "3.4666667"}, {"lat": "13.1666667", "city": "Chirifi Dey Moussa", "lon": "3.4666667"}, {"lat": "13.15", "city": "Chirineda", "lon": "3.9333333"}, {"lat": "12.1086111", "city": "Chya", "lon": "3.2919444"}, {"lat": "12.7833333", "city": "Dab\u00e9d\u00e9b\u00e9", "lon": "2.9666667"}, {"lat": "13.5", "city": "Dabkoudey", "lon": "3.0166667"}, {"lat": "13.5", "city": "Dabkoudeye", "lon": "3.0166667"}, {"lat": "13.1666667", "city": "Dabza", "lon": "4.0"}, {"lat": "14.15", "city": "Dadoria", "lon": "4.3666667"}, {"lat": "12.4833333", "city": "Dafam", "lon": "3.55"}, {"lat": "13.1833333", "city": "Dagana", "lon": "2.95"}, {"lat": "13.2333333", "city": "Dahanidey", "lon": "3.4666667"}, {"lat": "13.2333333", "city": "Dahanid\u00e8ye", "lon": "3.4666667"}, {"lat": "13.6166667", "city": "Daka Lank\u00e9", "lon": "3.4666667"}, {"lat": "12.3166667", "city": "Damana", "lon": "3.5166667"}, {"lat": "12.95", "city": "Damari", "lon": "2.9833333"}, {"lat": "13.5833333", "city": "Dambazi", "lon": "3.25"}, {"lat": "13.4333333", "city": "Dam\u00e9moi Koara", "lon": "3.75"}, {"lat": "13.6166667", "city": "Danda", "lon": "3.05"}, {"lat": "12.9333333", "city": "Dandala", "lon": "3.2666667"}, {"lat": "13.4", "city": "Dandir\u00e9", "lon": "2.8833333"}, {"lat": "13.05", "city": "Dandokoye-Koara", "lon": "3.4666667"}, {"lat": "13.05", "city": "Dandokoy Kwara", "lon": "3.4666667"}, {"lat": "13.3833333", "city": "Danga B\u00e9ri", "lon": "2.9333333"}, {"lat": "13.55", "city": "Dan Ganabay", "lon": "4.3"}, {"lat": "13.4166667", "city": "Dangari", "lon": "3.9166667"}, {"lat": "12.3", "city": "Daniakou", "lon": "3.5166667"}, {"lat": "13.25", "city": "Daniar\u00e9", "lon": "2.8333333"}, {"lat": "13.2833333", "city": "Dankiandou", "lon": "3.7333333"}, {"lat": "13.2333333", "city": "Dantoulou", "lon": "3.8833333"}, {"lat": "13.3833333", "city": "Dao-Koara", "lon": "3.5833333"}, {"lat": "13.3833333", "city": "Dao Kwara", "lon": "3.5833333"}, {"lat": "13.0333333", "city": "Daoud\u00e9 Dey", "lon": "3.45"}, {"lat": "13.0333333", "city": "Daoud\u00e9d\u00e8ye", "lon": "3.45"}, {"lat": "13.1880556", "city": "Dare", "lon": "2.9836111"}, {"lat": "13.1880556", "city": "Dar\u00e9 Karimou", "lon": "2.9836111"}, {"lat": "13.4272222", "city": "Dar\u00e9ki", "lon": "3.2655556"}, {"lat": "13.0166667", "city": "Dar\u00e9 Maliki", "lon": "3.1666667"}, {"lat": "12.6166667", "city": "Dargol Badio", "lon": "3.1333333"}, {"lat": "12.5833333", "city": "Dargol Hamidou", "lon": "3.1333333"}, {"lat": "13.7666667", "city": "Dar Salami", "lon": "3.45"}, {"lat": "12.7833333", "city": "D\u00e9b\u00e9 D\u00e9b\u00e9 Dyerma", "lon": "2.9666667"}, {"lat": "12.8", "city": "D\u00e9b\u00e9 D\u00e9b\u00e9 Peul", "lon": "2.95"}, {"lat": "12.6", "city": "D\u00e9d\u00e9 Koara", "lon": "3.25"}, {"lat": "12.6", "city": "D\u00e9d\u00e9 Kwara", "lon": "3.25"}, {"lat": "12.7333333", "city": "De\u00eftagui", "lon": "2.7833333"}, {"lat": "13.1", "city": "De\u00eft\u00e9gui-Amani", "lon": "3.5833333"}, {"lat": "13.05", "city": "De\u00eft\u00e9gui", "lon": "3.4833333"}, {"lat": "13.2", "city": "D\u00e9\u00eftegui-Ka\u00efna", "lon": "3.25"}, {"lat": "13.1666667", "city": "D\u00e9\u00eft\u00e9gui-Yamoussa", "lon": "3.5166667"}, {"lat": "13.35", "city": "D\u00e9r\u00e9 Koara", "lon": "3.55"}, {"lat": "13.35", "city": "D\u00e9r\u00e9 Kwara", "lon": "3.55"}, {"lat": "13.4272222", "city": "D\u00e9riki", "lon": "3.2655556"}, {"lat": "12.8166667", "city": "D\u00e8ye-Koukou", "lon": "3.4"}, {"lat": "12.8166667", "city": "D\u00e8ye-Koukou-Est", "lon": "3.4833333"}, {"lat": "12.6", "city": "D\u00e8ye T\u00e9gui", "lon": "3.3166667"}, {"lat": "13.1", "city": "Deygorou", "lon": "3.1833333"}, {"lat": "12.8166667", "city": "Dey Koukou", "lon": "3.4"}, {"lat": "12.8166667", "city": "Dey Koukou-Est", "lon": "3.4833333"}, {"lat": "12.9666667", "city": "Deyt\u00e9dji Amadou", "lon": "2.7833333"}, {"lat": "12.7333333", "city": "Deyt\u00e9dji Moussa", "lon": "2.7833333"}, {"lat": "13.65", "city": "Deyt\u00e9gi Mad\u00e9", "lon": "3.5833333"}, {"lat": "13.15", "city": "Deyt\u00e9gi Noma", "lon": "3.0666667"}, {"lat": "13.1", "city": "Dey T\u00e9gui Amani", "lon": "3.5833333"}, {"lat": "13.2333333", "city": "Dey T\u00e9gui Assane", "lon": "3.1"}, {"lat": "13.4166667", "city": "Dey T\u00e9gui Atili", "lon": "3.1"}, {"lat": "13.6", "city": "Dey T\u00e9gui B\u00e9ri", "lon": "3.2166667"}, {"lat": "12.6", "city": "Dey T\u00e9gui", "lon": "3.3166667"}, {"lat": "13.65", "city": "Dey T\u00e9gui Fandou", "lon": "3.1333333"}, {"lat": "13.2", "city": "Dey T\u00e9gui Keyna", "lon": "3.25"}, {"lat": "13.65", "city": "Dey T\u00e9gui Mad\u00e9", "lon": "3.5833333"}, {"lat": "13.0666667", "city": "Dey T\u00e9gui Niondou", "lon": "3.1166667"}, {"lat": "13.15", "city": "Dey T\u00e9gui Noma", "lon": "3.0666667"}, {"lat": "13.1666667", "city": "Dey T\u00e9gui Yamoussa", "lon": "3.5166667"}, {"lat": "13.2666667", "city": "Dey T\u00e9gui Yarou", "lon": "3.0833333"}, {"lat": "13.6", "city": "Dey T\u00e9gui Y\u00e9ni Kwara", "lon": "3.0833333"}, {"lat": "12.9666667", "city": "Deyt\u00e9tji Amadou", "lon": "2.7833333"}, {"lat": "13.0666667", "city": "Deytigui-Niondou", "lon": "3.1166667"}, {"lat": "13.6", "city": "Deytigui-Y\u00e9ni Koara", "lon": "3.0833333"}, {"lat": "13.0333333", "city": "D\u00e9z\u00e9-Koara", "lon": "3.55"}, {"lat": "13.0333333", "city": "D\u00e9z\u00e9 Kwara", "lon": "3.55"}, {"lat": "12.8666667", "city": "Diabo-D\u00e8ye", "lon": "3.4166667"}, {"lat": "12.3833333", "city": "Diabokiria", "lon": "2.8833333"}, {"lat": "13.6", "city": "Diak\u00e9-Koara", "lon": "3.2166667"}, {"lat": "13.6", "city": "Diak\u00e9 Kwara", "lon": "3.2166667"}, {"lat": "12.9833333", "city": "Diamariz\u00e9d\u00e8ye", "lon": "3.5333333"}, {"lat": "13.2333333", "city": "Diambabadey", "lon": "3.2666667"}, {"lat": "13.2333333", "city": "Diambabad\u00e8ye", "lon": "3.2666667"}, {"lat": "12.65", "city": "Diamibougari", "lon": "3.5666667"}, {"lat": "13.4833333", "city": "Diaouga Midou Dey", "lon": "3.15"}, {"lat": "13.4833333", "city": "Diaouga-Midoudeye", "lon": "3.15"}, {"lat": "13.1333333", "city": "Diavandei", "lon": "2.7333333"}, {"lat": "13.1333333", "city": "Diavando", "lon": "2.7333333"}, {"lat": "13.1333333", "city": "Diawando", "lon": "2.7333333"}, {"lat": "13.3", "city": "Diembinedi", "lon": "3.2166667"}, {"lat": "13.4", "city": "Diendiang-Koara", "lon": "3.7"}, {"lat": "13.4", "city": "Diendiang Kwara", "lon": "3.7"}, {"lat": "13.05", "city": "Di\u00e9r\u00e9-Koara", "lon": "3.55"}, {"lat": "13.05", "city": "Di\u00e9r\u00e9 Kwara", "lon": "3.55"}, {"lat": "13.4166667", "city": "Diki", "lon": "3.1333333"}, {"lat": "13.6333333", "city": "Dinaib\u00e9ri", "lon": "3.65"}, {"lat": "13.3833333", "city": "Din\u00e9guidi", "lon": "3.7833333"}, {"lat": "13.3833333", "city": "Din\u00e9zogo", "lon": "2.9333333"}, {"lat": "13.1833333", "city": "Diokol\u00e9", "lon": "3.4333333"}, {"lat": "12.7166667", "city": "Dionkoto", "lon": "2.9333333"}, {"lat": "13.0833333", "city": "Dioridior\u00e9", "lon": "2.85"}, {"lat": "12.6194444", "city": "Dioundiou", "lon": "3.5430556"}, {"lat": "12.6194444", "city": "Dioundou", "lon": "3.5430556"}, {"lat": "13.2166667", "city": "Djakata", "lon": "4.0333333"}, {"lat": "12.3833333", "city": "Dj\u00e9boukiria", "lon": "2.8833333"}, {"lat": "13.0166667", "city": "Doalaga", "lon": "2.85"}, {"lat": "13.1", "city": "Dodibi", "lon": "2.9166667"}, {"lat": "13.0333333", "city": "Dodol Peul", "lon": "2.7833333"}, {"lat": "12.55", "city": "Dogokoara", "lon": "2.9833333"}, {"lat": "12.55", "city": "Dogo Kwara", "lon": "2.9833333"}, {"lat": "12.6166667", "city": "Dogon Daji", "lon": "3.6666667"}, {"lat": "12.7666667", "city": "Dogon-Dogon-Koaro", "lon": "3.2666667"}, {"lat": "12.7666667", "city": "Dogon Dogon Kwaro", "lon": "3.2666667"}, {"lat": "13.6461111", "city": "Dogondoutchi", "lon": "4.0288889"}, {"lat": "13.6461111", "city": "Dogonduchi", "lon": "4.0288889"}, {"lat": "13.3166667", "city": "Dogon Gao", "lon": "4.0666667"}, {"lat": "14.0597222", "city": "Dogonkiria", "lon": "4.3541667"}, {"lat": "14.0597222", "city": "Dogon Kirya", "lon": "4.3541667"}, {"lat": "13.7666667", "city": "Dogon Tabki", "lon": "4.5666667"}, {"lat": "13.7666667", "city": "Dogon Tapki", "lon": "4.5666667"}, {"lat": "13.7666667", "city": "Dogon Tapkin", "lon": "4.5666667"}, {"lat": "13.2833333", "city": "Doko Tombo", "lon": "3.6666667"}, {"lat": "11.7166667", "city": "Dol\u00e9", "lon": "3.6333333"}, {"lat": "12.4333333", "city": "Doli", "lon": "3.65"}, {"lat": "13.1166667", "city": "Domboss\u00e9dey", "lon": "3.3666667"}, {"lat": "13.1166667", "city": "Domboss\u00e9d\u00e8ye", "lon": "3.3666667"}, {"lat": "12.9833333", "city": "Donlaga", "lon": "2.8333333"}, {"lat": "13.1", "city": "Donoudibi", "lon": "2.9166667"}, {"lat": "13.0444444", "city": "Dosso", "lon": "3.1947222"}, {"lat": "12.2833333", "city": "Doub\u00e9l", "lon": "2.9833333"}, {"lat": "14.0555556", "city": "Doub\u00e9lma", "lon": "3.8466667"}, {"lat": "13.0333333", "city": "Doubidana", "lon": "2.8666667"}, {"lat": "13.4333333", "city": "Doula", "lon": "3.9"}, {"lat": "13.2333333", "city": "Doumani", "lon": "4.1"}, {"lat": "12.9722222", "city": "Doum\u00e9ga", "lon": "3.9788889"}, {"lat": "13.3263889", "city": "Doundougorou", "lon": "3.4330556"}, {"lat": "13.5", "city": "Dourougouna", "lon": "3.1833333"}, {"lat": "13.2166667", "city": "Drouel", "lon": "2.7833333"}, {"lat": "12.9722222", "city": "Dumega", "lon": "3.9788889"}, {"lat": "12.8666667", "city": "Dyabo Dey", "lon": "3.4166667"}, {"lat": "12.75", "city": "Dyafartouga", "lon": "2.9333333"}, {"lat": "12.9833333", "city": "Dyamariz\u00e9 Dey", "lon": "3.5333333"}, {"lat": "12.6333333", "city": "Dyawalkoara", "lon": "2.9666667"}, {"lat": "12.6333333", "city": "Dyawal Kwara", "lon": "2.9666667"}, {"lat": "13.1333333", "city": "Dyawando", "lon": "2.7333333"}, {"lat": "12.3833333", "city": "Dy\u00e9boukiria", "lon": "2.8833333"}, {"lat": "12.5666667", "city": "Dyerokoara", "lon": "3.0"}, {"lat": "12.5666667", "city": "Dy\u00e9ro Kwara", "lon": "3.0"}, {"lat": "12.7", "city": "Dyobo\u00efz\u00e9 Kwara", "lon": "2.8"}, {"lat": "12.7", "city": "Dyoboyz\u00e9koara", "lon": "2.8"}, {"lat": "12.7166667", "city": "Dyonkoto", "lon": "2.9333333"}, {"lat": "12.6", "city": "Dyowol", "lon": "2.8833333"}, {"lat": "12.8", "city": "Er\u00e9demk\u00e9", "lon": "3.8666667"}, {"lat": "12.2166667", "city": "Fabangou", "lon": "3.3"}, {"lat": "12.9130556", "city": "Fabeidji\u00e9", "lon": "2.8605556"}, {"lat": "12.9130556", "city": "Fabidji", "lon": "2.8605556"}, {"lat": "12.8833333", "city": "Fada", "lon": "3.7"}, {"lat": "13.0333333", "city": "Fadama", "lon": "3.9"}, {"lat": "13.1", "city": "Fad\u00e9z\u00e9no", "lon": "3.1833333"}, {"lat": "12.3166667", "city": "Fakara B\u00e9ri", "lon": "3.2"}, {"lat": "13.5166667", "city": "Fakara", "lon": "3.15"}, {"lat": "13.15", "city": "Falawa", "lon": "3.9333333"}, {"lat": "12.9833333", "city": "Fali", "lon": "3.45"}, {"lat": "12.9", "city": "Falloel", "lon": "3.4166667"}, {"lat": "12.6", "city": "Falme", "lon": "2.85"}, {"lat": "12.6", "city": "Falmey", "lon": "2.85"}, {"lat": "12.6", "city": "Falm\u00e8y Kaina", "lon": "2.8833333"}, {"lat": "12.6", "city": "Falmey Keyna", "lon": "2.8833333"}, {"lat": "12.9", "city": "Falouel", "lon": "3.4166667"}, {"lat": "12.9", "city": "Falwel", "lon": "3.4166667"}, {"lat": "13.8166667", "city": "Fana", "lon": "4.1833333"}, {"lat": "12.2333333", "city": "Fanda", "lon": "3.5333333"}, {"lat": "13.4333333", "city": "Fandoubon Tombo", "lon": "3.6"}, {"lat": "12.7666667", "city": "Fandou Dodo", "lon": "3.1666667"}, {"lat": "14.0333333", "city": "Fandou", "lon": "3.8333333"}, {"lat": "13.6833333", "city": "Fantoubari", "lon": "3.3666667"}, {"lat": "13.5833333", "city": "Fantouyan", "lon": "3.2666667"}, {"lat": "12.9666667", "city": "Farad\u00e8ye", "lon": "3.5166667"}, {"lat": "12.9666667", "city": "Fara Dey", "lon": "3.5166667"}, {"lat": "12.85", "city": "Farakeina", "lon": "3.2"}, {"lat": "13.1", "city": "Farandeye", "lon": "3.1833333"}, {"lat": "13.1", "city": "Farandey", "lon": "3.1833333"}, {"lat": "11.8166667", "city": "Faran", "lon": "3.55"}, {"lat": "12.9333333", "city": "Fardiedi", "lon": "3.3666667"}, {"lat": "13.2833333", "city": "Fardou Djibo", "lon": "2.8666667"}, {"lat": "12.85", "city": "Far\u00e9-Ka\u00efna", "lon": "3.2"}, {"lat": "12.85", "city": "Far\u00e9 Keyna", "lon": "3.2"}, {"lat": "12.5213889", "city": "Far\u00e8ye", "lon": "3.2705556"}, {"lat": "12.5213889", "city": "Farey", "lon": "3.2705556"}, {"lat": "13.3833333", "city": "Fareygorou-Ka\u00efna", "lon": "3.15"}, {"lat": "13.3833333", "city": "Farey Gorou Keyna", "lon": "3.15"}, {"lat": "13.0", "city": "Fari", "lon": "3.45"}, {"lat": "12.9333333", "city": "Fari G\u00e9di", "lon": "3.3666667"}, {"lat": "12.9333333", "city": "Fari Gu\u00e9di", "lon": "3.3666667"}, {"lat": "12.6333333", "city": "Farin Doutchi", "lon": "3.6333333"}, {"lat": "12.1166667", "city": "Faska", "lon": "3.6"}, {"lat": "13.1333333", "city": "Fatasay\u00e9", "lon": "2.65"}, {"lat": "12.5333333", "city": "F\u00e9r\u00e9z\u00e9", "lon": "2.85"}, {"lat": "13.1166667", "city": "Fod\u00e9 B\u00e9ri", "lon": "3.2166667"}, {"lat": "13.1166667", "city": "Fod\u00e9 Ka\u00efna", "lon": "3.3"}, {"lat": "13.1166667", "city": "Fod\u00e9 Keyna", "lon": "3.3"}, {"lat": "14.05", "city": "Foko", "lon": "3.8333333"}, {"lat": "13.5833333", "city": "Foni-Koara", "lon": "3.3166667"}, {"lat": "13.5833333", "city": "Foni Kwara", "lon": "3.3166667"}, {"lat": "12.5", "city": "Fonogirbi", "lon": "2.85"}, {"lat": "12.5", "city": "Fono Guirbi", "lon": "2.85"}, {"lat": "13.1333333", "city": "Forsey", "lon": "3.05"}, {"lat": "13.7", "city": "Foulangu\u00e8ye", "lon": "3.3833333"}, {"lat": "13.7", "city": "Foulanguey", "lon": "3.3833333"}, {"lat": "13.3333333", "city": "Foulanza", "lon": "2.8833333"}, {"lat": "12.5833333", "city": "Fourori", "lon": "3.5833333"}, {"lat": "12.7", "city": "Gabi Koy Dey", "lon": "3.3333333"}, {"lat": "12.7", "city": "Gabi-Koye-D\u00e8ye", "lon": "3.3333333"}, {"lat": "13.2666667", "city": "Gad\u00e9-Koara", "lon": "3.7666667"}, {"lat": "13.2666667", "city": "Gad\u00e9 Kwara", "lon": "3.7666667"}, {"lat": "14.2333333", "city": "Gad\u00e8rga", "lon": "3.95"}, {"lat": "13.0333333", "city": "Gafi\u00e9d\u00e8ye", "lon": "3.3833333"}, {"lat": "13.0333333", "city": "Gafi\u00e9dey", "lon": "3.3833333"}, {"lat": "13.5166667", "city": "Gagila", "lon": "4.0166667"}, {"lat": "11.8833333", "city": "Gagu\u00e9r\u00e9", "lon": "3.6"}, {"lat": "13.5166667", "city": "Gaguila", "lon": "4.0166667"}, {"lat": "13.1", "city": "Gaima Koara", "lon": "3.6333333"}, {"lat": "12.1166667", "city": "Gajila", "lon": "3.5166667"}, {"lat": "12.1166667", "city": "Gajita", "lon": "3.5166667"}, {"lat": "13.25", "city": "Galago-Koara", "lon": "3.6833333"}, {"lat": "13.25", "city": "Galago Kwara", "lon": "3.6833333"}, {"lat": "13.3166667", "city": "Galozi", "lon": "3.9"}, {"lat": "13.3166667", "city": "Gamdebari Koara", "lon": "3.0833333"}, {"lat": "13.45", "city": "Gamouzon", "lon": "3.05"}, {"lat": "11.9833333", "city": "Ganawa", "lon": "3.5666667"}, {"lat": "11.9333333", "city": "Ganboud\u00e9", "lon": "3.6"}, {"lat": "13.3166667", "city": "Gandab\u00e9ri Koara", "lon": "3.0833333"}, {"lat": "13.3166667", "city": "Ganda B\u00e9ri Kwara", "lon": "3.0833333"}, {"lat": "13.3166667", "city": "Gandeb\u00e9ri Koara", "lon": "3.0833333"}, {"lat": "12.7", "city": "Gandou", "lon": "3.75"}, {"lat": "13.7166667", "city": "Gandou Mayaki Fari", "lon": "3.4333333"}, {"lat": "12.8666667", "city": "Gangara", "lon": "3.4833333"}, {"lat": "12.4166667", "city": "Gang\u00e8y", "lon": "2.9"}, {"lat": "12.4166667", "city": "Ganguey", "lon": "2.9"}, {"lat": "13.65", "city": "Ganguio-Koara", "lon": "3.7"}, {"lat": "13.65", "city": "Ganguio Kwara", "lon": "3.7"}, {"lat": "12.6166667", "city": "Ganigoungou", "lon": "2.85"}, {"lat": "13.8666667", "city": "Gaouna", "lon": "4.0166667"}, {"lat": "13.4333333", "city": "Garanga", "lon": "3.9"}, {"lat": "13.2833333", "city": "Garankade\u00ef", "lon": "3.1"}, {"lat": "13.2833333", "city": "Garankad\u00e8ye", "lon": "3.1"}, {"lat": "13.2833333", "city": "Garankadey", "lon": "3.1"}, {"lat": "13.55", "city": "Garb\u00e9y\u00e9gorou", "lon": "3.2666667"}, {"lat": "12.8666667", "city": "Garb\u00e8ye-Koara", "lon": "3.5"}, {"lat": "12.8833333", "city": "Garbeye Tombo", "lon": "3.2333333"}, {"lat": "13.55", "city": "Garbey Gorou", "lon": "3.2666667"}, {"lat": "12.8666667", "city": "Garbey Kwara", "lon": "3.5"}, {"lat": "12.8833333", "city": "Garbey Tombo", "lon": "3.2333333"}, {"lat": "12.6", "city": "Garbou", "lon": "2.9666667"}, {"lat": "12.6", "city": "Garbu", "lon": "2.9666667"}, {"lat": "13.5833333", "city": "Gardi\u00e9", "lon": "3.6"}, {"lat": "13.4833333", "city": "Gardi", "lon": "2.95"}, {"lat": "12.7", "city": "Gari Aji", "lon": "3.85"}, {"lat": "13.3333333", "city": "Gari Akoussa", "lon": "3.9"}, {"lat": "12.2166667", "city": "Gari Amadou", "lon": "3.4666667"}, {"lat": "12.15", "city": "Gari Amani", "lon": "3.3833333"}, {"lat": "13.6333333", "city": "Gari Amou", "lon": "3.95"}, {"lat": "13.3333333", "city": "Gari Aouta", "lon": "3.8666667"}, {"lat": "13.4", "city": "Gari Azi\u00e9", "lon": "3.9"}, {"lat": "12.2333333", "city": "Gari Ba\u00efdou", "lon": "3.2666667"}, {"lat": "12.15", "city": "Gari Bara Serki", "lon": "3.6166667"}, {"lat": "12.55", "city": "Gari Bawa", "lon": "3.4166667"}, {"lat": "13.5833333", "city": "Gari Gagui", "lon": "3.95"}, {"lat": "13.65", "city": "Gari Gemba", "lon": "3.9"}, {"lat": "13.1333333", "city": "Gari Gnabo", "lon": "3.9666667"}, {"lat": "12.25", "city": "Gari-Golokoye", "lon": "3.3333333"}, {"lat": "12.25", "city": "Gari Golokoy", "lon": "3.3333333"}, {"lat": "12.25", "city": "Gari Goni", "lon": "3.3"}, {"lat": "14.1333333", "city": "Gari Goungom", "lon": "3.9166667"}, {"lat": "12.2333333", "city": "Gari Gourmou", "lon": "3.45"}, {"lat": "12.1166667", "city": "Gari Kouka", "lon": "3.55"}, {"lat": "12.2666667", "city": "Gari Kouroungou", "lon": "3.3333333"}, {"lat": "13.4", "city": "Gari Madi\u00e9", "lon": "3.8333333"}, {"lat": "12.0833333", "city": "Gari Mahalba", "lon": "3.4"}, {"lat": "12.2", "city": "Gari Malam", "lon": "3.4666667"}, {"lat": "12.2333333", "city": "Gari Malan", "lon": "3.3166667"}, {"lat": "13.4833333", "city": "Gari Masoui", "lon": "3.9333333"}, {"lat": "13.6166667", "city": "Gari Mayara", "lon": "3.95"}, {"lat": "14.1166667", "city": "Garim Bango", "lon": "3.9333333"}, {"lat": "13.4833333", "city": "Gari Mbano", "lon": "3.9666667"}, {"lat": "13.4333333", "city": "Garin Alichina", "lon": "4.05"}, {"lat": "12.15", "city": "Garin Amani", "lon": "3.3833333"}, {"lat": "13.4333333", "city": "Garin Banya", "lon": "4.0833333"}, {"lat": "12.15", "city": "Garin Bara Serki", "lon": "3.6166667"}, {"lat": "13.5166667", "city": "Garin Beydou", "lon": "4.05"}, {"lat": "13.5833333", "city": "Garin Biga", "lon": "3.9666667"}, {"lat": "13.5833333", "city": "Garin Bouza\u00e9", "lon": "4.0166667"}, {"lat": "13.4833333", "city": "Gari Ndombokaka", "lon": "3.9666667"}, {"lat": "13.05", "city": "Garin Gao", "lon": "3.9333333"}, {"lat": "13.3333333", "city": "Garin G\u00e9ro", "lon": "4.0666667"}, {"lat": "13.25", "city": "Garin Gouandi", "lon": "4.05"}, {"lat": "13.3333333", "city": "Garin Gu\u00e9ro", "lon": "4.0666667"}, {"lat": "13.3833333", "city": "Garin H\u00e9lou", "lon": "4.0333333"}, {"lat": "13.35", "city": "Garin Koana", "lon": "3.8833333"}, {"lat": "12.9666667", "city": "Garin Kouka", "lon": "3.5166667"}, {"lat": "19.3333333", "city": "Garin Malam", "lon": "4.0833333"}, {"lat": "13.2333333", "city": "Garin S\u00e9karo", "lon": "4.0833333"}, {"lat": "13.5833333", "city": "Garin Ta Anari", "lon": "4.0"}, {"lat": "13.3833333", "city": "Garin Wawa", "lon": "4.0833333"}, {"lat": "13.4", "city": "Garin Yabo", "lon": "4.05"}, {"lat": "13.3166667", "city": "Garin Zaroumay", "lon": "4.0333333"}, {"lat": "12.3666667", "city": "Gari Sabo", "lon": "3.55"}, {"lat": "12.2333333", "city": "Gari Sakou", "lon": "3.3166667"}, {"lat": "13.2", "city": "Gari Samna", "lon": "3.75"}, {"lat": "12.25", "city": "Gari Tankari", "lon": "3.3333333"}, {"lat": "12.2", "city": "Gari Zakari", "lon": "3.6333333"}, {"lat": "13.2333333", "city": "Garoub\u00e9", "lon": "2.9"}, {"lat": "13.2166667", "city": "Garoubeikala", "lon": "2.95"}, {"lat": "13.2333333", "city": "Garoubey", "lon": "2.9"}, {"lat": "13.1", "city": "Garou", "lon": "3.3166667"}, {"lat": "13.15", "city": "Garou Peul", "lon": "2.9333333"}, {"lat": "13.7333333", "city": "Garsiko", "lon": "3.45"}, {"lat": "13.1", "city": "Garu", "lon": "3.3166667"}, {"lat": "13.9166667", "city": "Garyangoul", "lon": "4.4166667"}, {"lat": "13.7666667", "city": "Gassi", "lon": "3.25"}, {"lat": "11.85", "city": "Gata Tounga", "lon": "3.5"}, {"lat": "11.7833333", "city": "Gatawani B\u00e9ri", "lon": "3.5666667"}, {"lat": "11.85", "city": "Gatawani", "lon": "3.6166667"}, {"lat": "11.8", "city": "Gatawani-Kaina", "lon": "3.5666667"}, {"lat": "11.8", "city": "Gatawani Keyna", "lon": "3.5666667"}, {"lat": "12.5833333", "city": "Gawassa", "lon": "3.4"}, {"lat": "11.8877778", "city": "Gaya", "lon": "3.4466667"}, {"lat": "12.2166667", "city": "Gaz\u00e9r\u00e9 Koara", "lon": "3.2"}, {"lat": "12.2166667", "city": "Gaz\u00e9r\u00e9 Kwara", "lon": "3.2"}, {"lat": "11.9333333", "city": "Gazila", "lon": "3.5833333"}, {"lat": "12.9066667", "city": "G\u00e9ch\u00e9m\u00e9", "lon": "3.88"}, {"lat": "13.2333333", "city": "G\u00e9s\u00e9b\u00e9ri", "lon": "3.15"}, {"lat": "12.4333333", "city": "G\u00e9za", "lon": "3.5333333"}, {"lat": "14.2166667", "city": "Gez\u00e9nyan", "lon": "3.95"}, {"lat": "12.9333333", "city": "Gidadam\u00e9", "lon": "4.0333333"}, {"lat": "12.65", "city": "Giladji", "lon": "2.9166667"}, {"lat": "13.55", "city": "Gilim\u00e9 Kor\u00e9", "lon": "4.0666667"}, {"lat": "12.7166667", "city": "Ginba Tonbo", "lon": "3.2833333"}, {"lat": "12.7", "city": "Gindo Goloma", "lon": "2.7833333"}, {"lat": "13.6666667", "city": "Girigorou", "lon": "3.4"}, {"lat": "13.2", "city": "Goalo", "lon": "3.95"}, {"lat": "13.25", "city": "Gobawa", "lon": "4.0833333"}, {"lat": "12.9666667", "city": "Gob\u00e9ri", "lon": "2.85"}, {"lat": "13.1833333", "city": "Gobirko B\u00e9ri", "lon": "2.5166667"}, {"lat": "13.6", "city": "Goboro", "lon": "4.2333333"}, {"lat": "12.6", "city": "God\u00e9-Koara", "lon": "3.3666667"}, {"lat": "12.6", "city": "God\u00e9 Kwara", "lon": "3.3666667"}, {"lat": "13.1833333", "city": "Go\u00ebnga", "lon": "2.8333333"}, {"lat": "13.5202778", "city": "Gofo", "lon": "4.1561111"}, {"lat": "13.1833333", "city": "Gohenga", "lon": "2.8333333"}, {"lat": "12.8533333", "city": "Gol\u00e9", "lon": "3.0038889"}, {"lat": "12.7833333", "city": "Golokoy Dey", "lon": "3.3"}, {"lat": "12.7833333", "city": "Golokoye-D\u00e8ye", "lon": "3.3"}, {"lat": "12.3", "city": "Golokoye-Koara", "lon": "3.3"}, {"lat": "12.3", "city": "Golokoy Kwara", "lon": "3.3"}, {"lat": "13.3", "city": "Goltondi", "lon": "3.7333333"}, {"lat": "13.1333333", "city": "Gomande-Koara", "lon": "3.6666667"}, {"lat": "13.1333333", "city": "Gomande Kwara", "lon": "3.6666667"}, {"lat": "13.0333333", "city": "Gombara", "lon": "3.05"}, {"lat": "13.1333333", "city": "Gomb\u00e9oua", "lon": "2.4833333"}, {"lat": "13.1333333", "city": "Gomb\u00e9wa", "lon": "2.4833333"}, {"lat": "13.8666667", "city": "Gombi", "lon": "4.0666667"}, {"lat": "13.1166667", "city": "Gombogand\u00e9 Koara", "lon": "3.6166667"}, {"lat": "13.1166667", "city": "Gombogand\u00e9 Kwara", "lon": "3.6166667"}, {"lat": "12.2166667", "city": "Gonga Bangou", "lon": "3.2"}, {"lat": "13.7666667", "city": "Gongab\u00e9ri Deyt\u00e9gi Mousa", "lon": "3.5666667"}, {"lat": "13.7666667", "city": "Gongab\u00e9ri Dey T\u00e9gui Moussa", "lon": "3.5666667"}, {"lat": "13.2166667", "city": "Gongad\u00e9 B\u00e9ri", "lon": "3.2166667"}, {"lat": "13.5333333", "city": "Gonga", "lon": "3.3166667"}, {"lat": "12.4333333", "city": "Gonga Innza", "lon": "3.3"}, {"lat": "13.6666667", "city": "Gongakaina", "lon": "3.5166667"}, {"lat": "12.4333333", "city": "Gonga Karima", "lon": "3.3666667"}, {"lat": "13.6666667", "city": "Gonga Keyna", "lon": "3.5166667"}, {"lat": "13.2", "city": "Gonga Makar\u00e9", "lon": "3.2333333"}, {"lat": "13.1833333", "city": "Gongatorey", "lon": "3.0666667"}, {"lat": "12.4166667", "city": "Gongaye", "lon": "2.9"}, {"lat": "13.6166667", "city": "Gongaz\u00e8y-Koara", "lon": "3.3666667"}, {"lat": "13.6166667", "city": "Gongazey Kwara", "lon": "3.3666667"}, {"lat": "13.6833333", "city": "Gongokoara", "lon": "3.3666667"}, {"lat": "13.6833333", "city": "Gongo Kwara", "lon": "3.3666667"}, {"lat": "13.1166667", "city": "Gonoubi", "lon": "2.7833333"}, {"lat": "13.0833333", "city": "Gordior\u00e9", "lon": "2.85"}, {"lat": "12.3", "city": "Goriba", "lon": "3.0"}, {"lat": "12.6166667", "city": "Gorobanda", "lon": "2.9333333"}, {"lat": "11.9333333", "city": "Gorokondo", "lon": "3.5833333"}, {"lat": "13.1044444", "city": "Gorou Bakasam\u00e9", "lon": "3.4655556"}, {"lat": "13.1044444", "city": "Gorou Bankassam\u00e9", "lon": "3.4655556"}, {"lat": "13.7", "city": "Gorou B\u00e9ri", "lon": "3.6833333"}, {"lat": "12.8666667", "city": "Gorou-D\u00e8ye", "lon": "3.2666667"}, {"lat": "12.8666667", "city": "Gorou Dey", "lon": "3.2666667"}, {"lat": "12.4", "city": "Gorou D\u00e9z\u00e9", "lon": "3.55"}, {"lat": "13.7666667", "city": "Gorougind\u00e9", "lon": "3.2"}, {"lat": "12.65", "city": "Gorou", "lon": "3.3666667"}, {"lat": "13.7666667", "city": "Gorou Guind\u00e9", "lon": "3.2"}, {"lat": "13.7666667", "city": "Gorouguinnd\u00e9", "lon": "3.2"}, {"lat": "12.9333333", "city": "Gorou Kaya", "lon": "3.4166667"}, {"lat": "12.8166667", "city": "Gorou Y\u00e9no", "lon": "3.0333333"}, {"lat": "12.6333333", "city": "Gorou Zangui", "lon": "3.4833333"}, {"lat": "13.1333333", "city": "Gorozo-Koara", "lon": "3.6166667"}, {"lat": "13.1333333", "city": "Gorozo Kwara", "lon": "3.6166667"}, {"lat": "13.4833333", "city": "Gouala", "lon": "4.0333333"}, {"lat": "11.7666667", "city": "Gouarou-Koira", "lon": "3.6"}, {"lat": "12.8666667", "city": "Goubawa", "lon": "3.7666667"}, {"lat": "13.3333333", "city": "Goub\u00e9koye-Koara", "lon": "3.6833333"}, {"lat": "13.3333333", "city": "Goub\u00e9koy Kwara", "lon": "3.6833333"}, {"lat": "12.6", "city": "Goub\u00e8ye", "lon": "3.6333333"}, {"lat": "13.4", "city": "Goubeye-Koara", "lon": "3.5"}, {"lat": "12.6", "city": "Goubey", "lon": "3.6333333"}, {"lat": "13.4", "city": "Goubey Kwara", "lon": "3.5"}, {"lat": "13.5833333", "city": "Goub\u00e9 Z\u00e9no", "lon": "3.0166667"}, {"lat": "13.2333333", "city": "Goudel", "lon": "3.0833333"}, {"lat": "13.3333333", "city": "Goudey", "lon": "3.8666667"}, {"lat": "12.5666667", "city": "Goudou", "lon": "3.5333333"}, {"lat": "13.1833333", "city": "Goulma Gabi", "lon": "3.2333333"}, {"lat": "12.95", "city": "Goulma", "lon": "3.7166667"}, {"lat": "13.1166667", "city": "Gouloubi", "lon": "2.7833333"}, {"lat": "13.15", "city": "Goulouma Amani", "lon": "3.7"}, {"lat": "12.6", "city": "Goulouma", "lon": "3.3833333"}, {"lat": "13.15", "city": "Goulouma Kadi", "lon": "3.7"}, {"lat": "12.7333333", "city": "Gouma", "lon": "3.6166667"}, {"lat": "13.0666667", "city": "Goumand\u00e9 S\u00e8n\u00e9", "lon": "3.5666667"}, {"lat": "14.2666667", "city": "Goumbay\u00e9", "lon": "3.9333333"}, {"lat": "13.8666667", "city": "Goumbi", "lon": "4.0666667"}, {"lat": "13.1333333", "city": "Goumboro", "lon": "3.8166667"}, {"lat": "13.3833333", "city": "Goundo-Koara", "lon": "3.55"}, {"lat": "13.3833333", "city": "Goundo Kwara", "lon": "3.55"}, {"lat": "12.25", "city": "Gounki Argika", "lon": "3.6666667"}, {"lat": "12.25", "city": "Gounki Arjika", "lon": "3.6666667"}, {"lat": "13.3333333", "city": "Gounoubi", "lon": "2.9"}, {"lat": "13.1166667", "city": "Gourinesi", "lon": "3.6166667"}, {"lat": "12.0833333", "city": "Gourougouani-Koara", "lon": "3.3833333"}, {"lat": "12.0833333", "city": "Gourougwani Kwara", "lon": "3.3833333"}, {"lat": "13.3", "city": "Gourou-Ka\u00efna", "lon": "2.9"}, {"lat": "13.3", "city": "Gourou Keyna", "lon": "2.9"}, {"lat": "13.35", "city": "Goutoumbou", "lon": "3.2333333"}, {"lat": "12.5166667", "city": "Goz\u00e9 Koara", "lon": "3.05"}, {"lat": "12.5166667", "city": "Goz\u00e9 Kwara", "lon": "3.05"}, {"lat": "13.4666667", "city": "Guab\u00e8ye Gorou", "lon": "3.7333333"}, {"lat": "13.7", "city": "Gubei", "lon": "4.1833333"}, {"lat": "12.9066667", "city": "Gu\u00e9ch\u00e9m\u00e9", "lon": "3.88"}, {"lat": "12.85", "city": "Gu\u00e9rebchi", "lon": "3.7833333"}, {"lat": "13.0666667", "city": "Gu\u00e9remchi", "lon": "3.9166667"}, {"lat": "12.2333333", "city": "Guergou-Koara", "lon": "3.4"}, {"lat": "12.2333333", "city": "Guergou Kwara", "lon": "3.4"}, {"lat": "11.9666667", "city": "Gu\u00e9rin Abdou", "lon": "3.5666667"}, {"lat": "12.9066667", "city": "Gu\u00e9sch\u00e9m\u00e9", "lon": "3.88"}, {"lat": "13.2333333", "city": "Gu\u00e9ss\u00e9 B\u00e9ri", "lon": "3.15"}, {"lat": "13.2", "city": "Guess\u00e9ka\u00efna", "lon": "3.15"}, {"lat": "13.2", "city": "Gu\u00e9ss\u00e9 Keyna", "lon": "3.15"}, {"lat": "13.2333333", "city": "Guessi Bari", "lon": "3.15"}, {"lat": "13.2333333", "city": "Guessi Beri", "lon": "3.15"}, {"lat": "13.2333333", "city": "Guessi", "lon": "3.15"}, {"lat": "13.2333333", "city": "Gu\u00e9y\u00e9d\u00e8ye", "lon": "3.5833333"}, {"lat": "13.2333333", "city": "Gu\u00e9y\u00e9dey", "lon": "3.5833333"}, {"lat": "12.45", "city": "Gu\u00e9za Gado", "lon": "3.5333333"}, {"lat": "12.4333333", "city": "Gu\u00e9za", "lon": "3.5333333"}, {"lat": "12.4333333", "city": "Gu\u00e9za Rouga", "lon": "3.5333333"}, {"lat": "14.2166667", "city": "Guez\u00e9nyan", "lon": "3.95"}, {"lat": "13.1333333", "city": "Guiado Koara", "lon": "3.2833333"}, {"lat": "13.1333333", "city": "Guiado Kwara", "lon": "3.2833333"}, {"lat": "12.9333333", "city": "Guidadam\u00e9", "lon": "4.0333333"}, {"lat": "12.8166667", "city": "Guidal", "lon": "3.8"}, {"lat": "12.9166667", "city": "Guidam-Ango", "lon": "3.9333333"}, {"lat": "12.9", "city": "Guidam Touko", "lon": "3.9166667"}, {"lat": "12.9166667", "city": "Guidan Ango", "lon": "3.9333333"}, {"lat": "12.2", "city": "Guidan Baba", "lon": "3.4"}, {"lat": "12.9", "city": "Guidan Touko", "lon": "3.9166667"}, {"lat": "13.0666667", "city": "Guidel", "lon": "2.6166667"}, {"lat": "13.65", "city": "Guid\u00e9mario", "lon": "3.3333333"}, {"lat": "12.5", "city": "Guigan\u00e9", "lon": "3.4333333"}, {"lat": "12.65", "city": "Guiladji", "lon": "2.9166667"}, {"lat": "13.1166667", "city": "Guilar\u00e9", "lon": "2.8333333"}, {"lat": "13.1333333", "city": "Guilar\u00e9 Peul", "lon": "2.8666667"}, {"lat": "13.55", "city": "Guilim\u00e9 Kor\u00e9", "lon": "4.0666667"}, {"lat": "12.7166667", "city": "Guimba Tombo", "lon": "3.2833333"}, {"lat": "12.2", "city": "Guind\u00e9 Golmi", "lon": "3.2"}, {"lat": "11.7333333", "city": "Guindogoloma", "lon": "3.6166667"}, {"lat": "12.7", "city": "Guindo Goloma", "lon": "2.7833333"}, {"lat": "12.2", "city": "Guinnd\u00e9 Golmi", "lon": "3.2"}, {"lat": "13.6666667", "city": "Guirigorou", "lon": "3.4"}, {"lat": "12.7", "city": "Guiss\u00e9-Ma\u00efz\u00e9-Koara", "lon": "3.25"}, {"lat": "12.7", "city": "Guiss\u00e9 Ma\u00efz\u00e9 Kwara", "lon": "3.25"}, {"lat": "12.9833333", "city": "Guivaye", "lon": "3.9"}, {"lat": "12.9833333", "city": "Guivay", "lon": "3.9"}, {"lat": "13.8666667", "city": "Gumbe", "lon": "4.0666667"}, {"lat": "11.7666667", "city": "Gwarou Kwara", "lon": "3.6"}, {"lat": "12.95", "city": "Haba", "lon": "3.4666667"}, {"lat": "12.8166667", "city": "Habiri", "lon": "2.9"}, {"lat": "12.55", "city": "Hama Dallaye", "lon": "3.5333333"}, {"lat": "12.5833333", "city": "Haman\u00e9-Koara", "lon": "3.3166667"}, {"lat": "12.5833333", "city": "Haman\u00e9 Kwara", "lon": "3.3166667"}, {"lat": "12.5333333", "city": "Hamdalay Ama", "lon": "2.9333333"}, {"lat": "12.55", "city": "Hamdalay Hasan", "lon": "2.9333333"}, {"lat": "12.5333333", "city": "Hamdallaye Ama", "lon": "2.9333333"}, {"lat": "12.55", "city": "Hamdallaye", "lon": "3.5333333"}, {"lat": "12.55", "city": "Hamdallaye Hassane", "lon": "2.9333333"}, {"lat": "13.2833333", "city": "Hamka", "lon": "3.25"}, {"lat": "13.2833333", "city": "Hamka Tombo", "lon": "3.25"}, {"lat": "12.7666667", "city": "Hanam\u00e9 Tombo", "lon": "3.0333333"}, {"lat": "12.7666667", "city": "Hanam\u00e9 Tonbo", "lon": "3.0333333"}, {"lat": "13.5666667", "city": "Haou\u00e8yefandou", "lon": "3.25"}, {"lat": "13.2608333", "city": "Harikanassou", "lon": "2.8408333"}, {"lat": "13.2", "city": "H\u00e9da", "lon": "2.7666667"}, {"lat": "12.75", "city": "H\u00e9lo B\u00e9ri", "lon": "3.5166667"}, {"lat": "13.4833333", "city": "Houmawa", "lon": "4.0"}, {"lat": "13.0666667", "city": "Iarkala Gorkou", "lon": "2.85"}, {"lat": "13.1063889", "city": "Ibiri", "lon": "4.0038889"}, {"lat": "13.0166667", "city": "Ilad\u00e9", "lon": "2.7833333"}, {"lat": "12.8833333", "city": "Il\u00e9la", "lon": "3.6833333"}, {"lat": "12.8333333", "city": "Ilikokoara", "lon": "2.9833333"}, {"lat": "12.8333333", "city": "Iliko Kwara", "lon": "2.9833333"}, {"lat": "14.0941667", "city": "Ill\u00e9la Akwara", "lon": "4.1552778"}, {"lat": "12.8833333", "city": "Ill\u00e9la", "lon": "3.6833333"}, {"lat": "12.8333333", "city": "Illiko\u00ef", "lon": "2.9833333"}, {"lat": "13.3166667", "city": "Iloua", "lon": "3.8"}, {"lat": "13.3166667", "city": "Ilwa", "lon": "3.8"}, {"lat": "12.85", "city": "Ima-Deye", "lon": "3.4833333"}, {"lat": "12.85", "city": "Ima Dey", "lon": "3.4833333"}, {"lat": "12.5833333", "city": "Imokoara", "lon": "2.95"}, {"lat": "12.5833333", "city": "Imo Kwara", "lon": "2.95"}, {"lat": "13.4666667", "city": "In\u00e9tinikoye-Koara", "lon": "3.5833333"}, {"lat": "13.4666667", "city": "In\u00e9tinikoy Kwara", "lon": "3.5833333"}, {"lat": "12.1666667", "city": "Inngaski", "lon": "3.4833333"}, {"lat": "12.6166667", "city": "Inntalahounda", "lon": "3.7333333"}, {"lat": "12.3166667", "city": "Issa L\u00e9", "lon": "3.5666667"}, {"lat": "13.5", "city": "Kab\u00e9 Kir\u00e9", "lon": "2.8833333"}, {"lat": "13.5166667", "city": "Kab\u00e9ri", "lon": "3.55"}, {"lat": "12.5", "city": "Kaboboy", "lon": "2.9"}, {"lat": "13.55", "city": "Kabo\u00e9-Koara", "lon": "3.5666667"}, {"lat": "13.55", "city": "Kabo\u00e9 Kwara", "lon": "3.5666667"}, {"lat": "13.7666667", "city": "Kad\u00e9", "lon": "3.9333333"}, {"lat": "13.15", "city": "Kadidi", "lon": "3.9166667"}, {"lat": "13.45", "city": "Kado Koara", "lon": "3.6"}, {"lat": "13.45", "city": "Kado Kwara", "lon": "3.6"}, {"lat": "12.8833333", "city": "Kafi", "lon": "3.2666667"}, {"lat": "13.2166667", "city": "Kala", "lon": "2.95"}, {"lat": "13.2666667", "city": "Kalakoid\u00e8ye", "lon": "3.45"}, {"lat": "13.2666667", "city": "Kalakoydey", "lon": "3.45"}, {"lat": "12.9666667", "city": "Kalali", "lon": "3.95"}, {"lat": "13.2", "city": "Kala Pat\u00e9", "lon": "2.95"}, {"lat": "13.2", "city": "Kalbat\u00e9", "lon": "2.95"}, {"lat": "13.5", "city": "Kaleydey B\u00e9ri", "lon": "3.1166667"}, {"lat": "13.5", "city": "Kaleyd\u00e9y\u00e9b\u00e9ri", "lon": "3.1166667"}, {"lat": "13.4833333", "city": "Kaleydeyeka\u00efna", "lon": "3.1333333"}, {"lat": "13.4833333", "city": "Kaleydey Keyna", "lon": "3.1333333"}, {"lat": "13.3833333", "city": "Kal\u00e8ye", "lon": "3.2333333"}, {"lat": "12.5166667", "city": "Kalgo", "lon": "3.6333333"}, {"lat": "12.6833333", "city": "Kamakadji", "lon": "3.6"}, {"lat": "12.7", "city": "Kamariga", "lon": "3.6"}, {"lat": "13.5666667", "city": "Kambadeye", "lon": "3.3166667"}, {"lat": "13.5666667", "city": "Kambadey", "lon": "3.3166667"}, {"lat": "13.5333333", "city": "Kambari Kourign\u00e9-Koara", "lon": "3.9"}, {"lat": "13.5333333", "city": "Kambari Kouriny\u00e9 Kwara", "lon": "3.9"}, {"lat": "12.4655556", "city": "Kambatitanda", "lon": "3.1108333"}, {"lat": "12.3", "city": "Kambouzeye", "lon": "3.6333333"}, {"lat": "12.3", "city": "Kambouzey", "lon": "3.6333333"}, {"lat": "13.7666667", "city": "Kamrey", "lon": "4.4833333"}, {"lat": "13.25", "city": "Kanar\u00e9", "lon": "2.7666667"}, {"lat": "11.85", "city": "Kanda", "lon": "3.55"}, {"lat": "13.25", "city": "Kaniagoma", "lon": "4.0666667"}, {"lat": "12.8666667", "city": "Kankani", "lon": "2.9666667"}, {"lat": "12.65", "city": "Kantyoaga Dyerma", "lon": "2.85"}, {"lat": "12.6666667", "city": "Kantyoaga Peul", "lon": "2.85"}, {"lat": "13.25", "city": "Kanyagoma", "lon": "4.0666667"}, {"lat": "12.3275", "city": "Kaouara D\u00e9bb\u00e9", "lon": "3.4288889"}, {"lat": "12.3275", "city": "Kaouara-D\u00e9b\u00e9", "lon": "3.4288889"}, {"lat": "13.2833333", "city": "Kaouara", "lon": "4.0833333"}, {"lat": "12.3275", "city": "Kaoura Debbe", "lon": "3.4288889"}, {"lat": "12.3275", "city": "Kaoura D\u00e9b\u00e9", "lon": "3.4288889"}, {"lat": "13.4833333", "city": "Kaoura Lahama", "lon": "4.2333333"}, {"lat": "13.0166667", "city": "Kara", "lon": "2.9333333"}, {"lat": "12.7980556", "city": "Karakara", "lon": "3.6397222"}, {"lat": "12.65", "city": "Karalay", "lon": "2.8666667"}, {"lat": "13.2333333", "city": "Karani", "lon": "4.0333333"}, {"lat": "13.1333333", "city": "Karba Karba", "lon": "2.9"}, {"lat": "12.9486111", "city": "Kardjibangou", "lon": "3.5055556"}, {"lat": "12.55", "city": "Kar\u00e9kopto", "lon": "2.65"}, {"lat": "12.5666667", "city": "Kareye-Goussou", "lon": "3.4333333"}, {"lat": "12.5666667", "city": "Karey Goussou", "lon": "3.4333333"}, {"lat": "12.9486111", "city": "Kargi Bangou", "lon": "3.5055556"}, {"lat": "12.9486111", "city": "Kargui Bangou", "lon": "3.5055556"}, {"lat": "12.9486111", "city": "Karjibengou", "lon": "3.5055556"}, {"lat": "12.9486111", "city": "Karjibengu", "lon": "3.5055556"}, {"lat": "12.55", "city": "Karki", "lon": "3.6"}, {"lat": "13.8666667", "city": "Karky", "lon": "4.4666667"}, {"lat": "13.3833333", "city": "Karma", "lon": "2.9833333"}, {"lat": "13.0166667", "city": "Karra", "lon": "2.9333333"}, {"lat": "13.9666667", "city": "Karsabou", "lon": "4.2333333"}, {"lat": "13.3833333", "city": "Kartis\u00e9", "lon": "3.3"}, {"lat": "13.4166667", "city": "Kasari", "lon": "4.0833333"}, {"lat": "13.8166667", "city": "Kasko", "lon": "3.85"}, {"lat": "12.6666667", "city": "Kassadabi", "lon": "3.6333333"}, {"lat": "12.95", "city": "Kassari", "lon": "3.8833333"}, {"lat": "13.05", "city": "Katababa-Koara", "lon": "3.4666667"}, {"lat": "13.05", "city": "Katababa Kwara", "lon": "3.4666667"}, {"lat": "13.0833333", "city": "Katami", "lon": "3.7833333"}, {"lat": "12.9833333", "city": "Katanga", "lon": "3.6833333"}, {"lat": "13.7666667", "city": "Katanga Moyesi", "lon": "3.6666667"}, {"lat": "13.05", "city": "Katarma", "lon": "3.9166667"}, {"lat": "13.6", "city": "Kato-Koara", "lon": "3.2"}, {"lat": "13.6", "city": "Kato Kwara", "lon": "3.2"}, {"lat": "12.3275", "city": "Kawara D\u00e9b\u00e9", "lon": "3.4288889"}, {"lat": "12.3333333", "city": "Kawara-Ka\u00efna", "lon": "3.4"}, {"lat": "12.9333333", "city": "Kawara", "lon": "2.9666667"}, {"lat": "12.3333333", "city": "Kawara Keyna", "lon": "3.4"}, {"lat": "12.8833333", "city": "Kawou Kowou", "lon": "4.0166667"}, {"lat": "13.1666667", "city": "Kayam", "lon": "3.1833333"}, {"lat": "12.3166667", "city": "Kayan-Ka\u00efna", "lon": "3.0666667"}, {"lat": "12.3166667", "city": "Kayan Keyna", "lon": "3.0666667"}, {"lat": "13.3333333", "city": "Kayni Kougoum", "lon": "4.0333333"}, {"lat": "12.6166667", "city": "Kembey", "lon": "2.8"}, {"lat": "12.6166667", "city": "K\u00e9ouye", "lon": "3.2833333"}, {"lat": "12.6166667", "city": "K\u00e9ouy", "lon": "3.2833333"}, {"lat": "13.3333333", "city": "Kiam\u00e9li", "lon": "3.8333333"}, {"lat": "12.9566667", "city": "Kiara B\u00e9ri", "lon": "3.0530556"}, {"lat": "12.9333333", "city": "Kiara Ka\u00efna", "lon": "3.05"}, {"lat": "12.9333333", "city": "Kiara Kid\u00e9", "lon": "3.0833333"}, {"lat": "12.7666667", "city": "Kiara-Kouassize-Koara", "lon": "3.1666667"}, {"lat": "13.6333333", "city": "Kiba Amadou", "lon": "3.45"}, {"lat": "13.6166667", "city": "Kiba Tombo", "lon": "3.4833333"}, {"lat": "12.8", "city": "Ki\u00e8rwol", "lon": "2.9"}, {"lat": "13.4883333", "city": "Ki\u00e9s\u00e9", "lon": "4.0038889"}, {"lat": "13.4883333", "city": "Ki\u00e9ss\u00e9", "lon": "4.0038889"}, {"lat": "13.2166667", "city": "Kiesso-Koara", "lon": "3.6833333"}, {"lat": "12.7627778", "city": "Kikoudou Koara", "lon": "3.1825"}, {"lat": "12.7627778", "city": "Kikoudou Kwara", "lon": "3.1825"}, {"lat": "13.4666667", "city": "Kimia-Koara", "lon": "3.1166667"}, {"lat": "13.4666667", "city": "Kimia Kwara", "lon": "3.1166667"}, {"lat": "12.5666667", "city": "Kindofari", "lon": "2.7166667"}, {"lat": "13.45", "city": "Kineye", "lon": "3.2166667"}, {"lat": "13.2166667", "city": "Kink\u00e9l\u00e9tchi", "lon": "4.05"}, {"lat": "13.2333333", "city": "Kinoma", "lon": "2.9"}, {"lat": "13.2541667", "city": "Kiota", "lon": "2.9438889"}, {"lat": "13.1833333", "city": "Kita Kit\u00e9", "lon": "4.1333333"}, {"lat": "12.7", "city": "Kizamou", "lon": "3.7166667"}, {"lat": "13.0833333", "city": "Koagorou", "lon": "3.0833333"}, {"lat": "13.2833333", "city": "Koakoar\u00e9", "lon": "3.6833333"}, {"lat": "13.5333333", "city": "Koakor\u00e9", "lon": "3.85"}, {"lat": "13.45", "city": "Koana", "lon": "3.6"}, {"lat": "12.3275", "city": "Koara D\u00e9b\u00e9", "lon": "3.4288889"}, {"lat": "12.9333333", "city": "Koara-Ka\u00efna", "lon": "3.5"}, {"lat": "13.2333333", "city": "Koara Mayaki", "lon": "2.9166667"}, {"lat": "12.6833333", "city": "Koara-Sar\u00e9", "lon": "3.6"}, {"lat": "13.4", "city": "Koara T\u00e9gui", "lon": "3.7333333"}, {"lat": "13.6", "city": "Koarategui", "lon": "3.2166667"}, {"lat": "12.9666667", "city": "Koarazeno", "lon": "3.5166667"}, {"lat": "12.3", "city": "Koasi", "lon": "2.9833333"}, {"lat": "12.9", "city": "Koass\u00e8ye", "lon": "3.2"}, {"lat": "12.3", "city": "Koassi", "lon": "2.9833333"}, {"lat": "12.8333333", "city": "Koba-D\u00e8ye", "lon": "3.4333333"}, {"lat": "12.8333333", "city": "Koba Dey", "lon": "3.4333333"}, {"lat": "12.4655556", "city": "Kobakitanda", "lon": "3.1108333"}, {"lat": "13.6333333", "city": "Kobardjikoye", "lon": "3.5833333"}, {"lat": "13.6333333", "city": "Kobardjikoy", "lon": "3.5833333"}, {"lat": "13.2833333", "city": "Kob\u00e9 Azia", "lon": "3.3666667"}, {"lat": "13.55", "city": "Kob\u00e9 B\u00e9ri", "lon": "3.0333333"}, {"lat": "13.1644444", "city": "Kobeday", "lon": "2.5183333"}, {"lat": "13.1644444", "city": "Kobedey", "lon": "2.5183333"}, {"lat": "13.2666667", "city": "Kob\u00e9 Gat\u00e9ri", "lon": "3.3833333"}, {"lat": "13.3666667", "city": "Kob\u00e9\u00efz\u00e9-Koara", "lon": "3.5333333"}, {"lat": "13.3666667", "city": "Kob\u00e9\u00efz\u00e9 Kwara", "lon": "3.5333333"}, {"lat": "13.5166667", "city": "Kobeka\u00efna", "lon": "3.0166667"}, {"lat": "13.5166667", "city": "Kob\u00e9 Keyna", "lon": "3.0166667"}, {"lat": "12.4655556", "city": "Kob\u00e9ki Tanda", "lon": "3.1108333"}, {"lat": "13.2166667", "city": "Ko B\u00e9ri", "lon": "3.3666667"}, {"lat": "12.8666667", "city": "Kobi\u00e8l", "lon": "2.9166667"}, {"lat": "13.6333333", "city": "Kobi", "lon": "3.6833333"}, {"lat": "12.6833333", "city": "Kobio", "lon": "3.85"}, {"lat": "12.8166667", "city": "Kobiol", "lon": "2.95"}, {"lat": "13.1644444", "city": "Kobod\u00e9", "lon": "2.5183333"}, {"lat": "13.5666667", "city": "Kobolo", "lon": "3.35"}, {"lat": "13.3666667", "city": "Kobou", "lon": "2.9833333"}, {"lat": "13.2333333", "city": "Kodda", "lon": "2.7"}, {"lat": "13.2333333", "city": "Koddo", "lon": "2.7"}, {"lat": "13.6", "city": "Kod\u00e8ye", "lon": "3.7166667"}, {"lat": "13.6", "city": "Kodey", "lon": "3.7166667"}, {"lat": "13.2333333", "city": "Kodo", "lon": "2.7"}, {"lat": "12.95", "city": "Kofade\u00ef", "lon": "3.2166667"}, {"lat": "12.95", "city": "Kofad\u00e8ye", "lon": "3.2166667"}, {"lat": "12.95", "city": "Kofadey", "lon": "3.2166667"}, {"lat": "13.65", "city": "Kofiti", "lon": "3.5333333"}, {"lat": "12.4333333", "city": "Kofo", "lon": "3.15"}, {"lat": "13.4", "city": "Kogerb\u00e8y", "lon": "3.7166667"}, {"lat": "13.7166667", "city": "Ko Gorou", "lon": "3.1666667"}, {"lat": "13.6", "city": "Kogou", "lon": "3.55"}, {"lat": "13.4", "city": "Koguerb\u00e8ye", "lon": "3.7166667"}, {"lat": "13.4", "city": "Koguerbey", "lon": "3.7166667"}, {"lat": "13.4", "city": "Ko\u00efdou", "lon": "2.9833333"}, {"lat": "13.4833333", "city": "Ko\u00efgolo", "lon": "3.0166667"}, {"lat": "13.0833333", "city": "Koigorou", "lon": "3.0833333"}, {"lat": "13.4666667", "city": "Ko\u00efkono-Koara", "lon": "3.6"}, {"lat": "13.5333333", "city": "Koilabosse\u00ef", "lon": "2.95"}, {"lat": "13.0833333", "city": "Koinidibangou", "lon": "3.4833333"}, {"lat": "13.7166667", "city": "Kokir\u00e9 Koarat\u00e9gi", "lon": "3.3833333"}, {"lat": "13.7166667", "city": "Kokir\u00e9-Koarat\u00e9gui", "lon": "3.3833333"}, {"lat": "13.7166667", "city": "Kokir\u00e9 Kwara T\u00e9gui", "lon": "3.3833333"}, {"lat": "13.7", "city": "Kokir\u00e9-Modikoara", "lon": "3.3833333"}, {"lat": "13.7", "city": "Kokir\u00e9 Modi Kwara", "lon": "3.3833333"}, {"lat": "13.2833333", "city": "Kokitanou", "lon": "2.9333333"}, {"lat": "13.5666667", "city": "Kokorb\u00e9", "lon": "3.1333333"}, {"lat": "13.15", "city": "Kokorob\u00e9", "lon": "3.6"}, {"lat": "13.4666667", "city": "Kokoukou", "lon": "3.5"}, {"lat": "13.5333333", "city": "Kolabosseye", "lon": "2.95"}, {"lat": "13.5333333", "city": "Kolabossey", "lon": "2.95"}, {"lat": "11.9833333", "city": "Kolead\u00e9", "lon": "3.5666667"}, {"lat": "13.9833333", "city": "Kol\u00e9fou", "lon": "3.95"}, {"lat": "11.9833333", "city": "Kolentey", "lon": "3.5833333"}, {"lat": "13.6041667", "city": "Kolfa", "lon": "4.3594444"}, {"lat": "13.3333333", "city": "Kolibabonga", "lon": "3.3"}, {"lat": "13.2333333", "city": "Kollo", "lon": "2.7"}, {"lat": "13.75", "city": "Kolmay", "lon": "4.4"}, {"lat": "13.75", "city": "Kolme", "lon": "4.4"}, {"lat": "13.75", "city": "Kolmey", "lon": "4.4"}, {"lat": "12.7833333", "city": "Koloba", "lon": "2.9166667"}, {"lat": "13.3666667", "city": "Kolobo", "lon": "2.9833333"}, {"lat": "13.0333333", "city": "Koloumbou", "lon": "3.3333333"}, {"lat": "13.1833333", "city": "Kolouno", "lon": "2.9"}, {"lat": "12.6166667", "city": "Koma B\u00e9ri", "lon": "3.4833333"}, {"lat": "13.3833333", "city": "Komaguind\u00e9", "lon": "2.8833333"}, {"lat": "12.6", "city": "Koma-Ka\u00efna", "lon": "3.4666667"}, {"lat": "12.6", "city": "Koma Kayna", "lon": "3.4666667"}, {"lat": "12.6", "city": "Koma Keyna", "lon": "3.4666667"}, {"lat": "13.3833333", "city": "Komdili B\u00e9ri", "lon": "3.1333333"}, {"lat": "13.35", "city": "Komdili Darey", "lon": "3.1666667"}, {"lat": "13.3833333", "city": "Komdili Ka\u00efna", "lon": "3.15"}, {"lat": "13.3833333", "city": "Komdili Keyna", "lon": "3.15"}, {"lat": "13.4666667", "city": "Kona Koara", "lon": "3.6"}, {"lat": "11.8833333", "city": "Konbo", "lon": "3.4"}, {"lat": "13.5333333", "city": "Kongor\u00e9", "lon": "2.9666667"}, {"lat": "13.2833333", "city": "Konkorido", "lon": "3.85"}, {"lat": "13.4833333", "city": "Konkorindo", "lon": "4.0333333"}, {"lat": "13.6", "city": "Konkour\u00e9", "lon": "2.9833333"}, {"lat": "13.3666667", "city": "Konoguindi B\u00e9ri", "lon": "2.8666667"}, {"lat": "13.3833333", "city": "Konoguindi Zou", "lon": "2.8833333"}, {"lat": "12.1666667", "city": "Kont\u00e9 Langou", "lon": "3.4"}, {"lat": "13.05", "city": "Koran Kassa", "lon": "2.85"}, {"lat": "13.5833333", "city": "Kordango", "lon": "4.3166667"}, {"lat": "14.0833333", "city": "Kordongo", "lon": "3.8666667"}, {"lat": "13.0333333", "city": "Kor\u00e9", "lon": "4.0166667"}, {"lat": "13.2997222", "city": "Kor\u00e9ma\u00efroua", "lon": "3.9066667"}, {"lat": "13.2997222", "city": "Kor\u00e9 Ma\u00efroua", "lon": "3.9066667"}, {"lat": "13.2997222", "city": "Kor\u00e9mairwa", "lon": "3.9066667"}, {"lat": "13.1833333", "city": "Kor\u00e9 Marna", "lon": "3.9666667"}, {"lat": "13.2997222", "city": "Kor\u00e9 Mayroua", "lon": "3.9066667"}, {"lat": "13.2997222", "city": "Kor\u00e9-M\u00e9roua", "lon": "3.9066667"}, {"lat": "12.9833333", "city": "Korenkasa", "lon": "2.85"}, {"lat": "12.55", "city": "Korob\u00e9bangou", "lon": "2.7833333"}, {"lat": "13.1333333", "city": "Korokourigni\u00e9d\u00e8ye", "lon": "3.45"}, {"lat": "13.1333333", "city": "Koro Kouriny\u00e9 Dey", "lon": "3.45"}, {"lat": "13.0833333", "city": "Korombi-Koara", "lon": "3.5833333"}, {"lat": "13.0833333", "city": "Korombi Kwara", "lon": "3.5833333"}, {"lat": "11.9833333", "city": "Koromoukou", "lon": "3.4166667"}, {"lat": "13.1833333", "city": "Korongob\u00e8ye", "lon": "3.7666667"}, {"lat": "13.7", "city": "Koron Gomey", "lon": "4.3833333"}, {"lat": "12.8166667", "city": "Kosan\u00e8yz\u00e9 Babakoar\u00e9", "lon": "2.9333333"}, {"lat": "12.3666667", "city": "Kosangiz\u00e9 Koara", "lon": "3.2333333"}, {"lat": "13.5833333", "city": "Kos\u00e8y", "lon": "3.4"}, {"lat": "12.8166667", "city": "Kossane\u00efz\u00e9 Babakwar\u00e9", "lon": "2.9333333"}, {"lat": "12.3666667", "city": "Kossanguiz\u00e9-Koara", "lon": "3.2333333"}, {"lat": "12.3666667", "city": "Kossanguiz\u00e9 Kwara", "lon": "3.2333333"}, {"lat": "13.5333333", "city": "Kosseye", "lon": "2.95"}, {"lat": "13.5333333", "city": "Kossey", "lon": "2.95"}, {"lat": "13.5166667", "city": "Kossouga", "lon": "2.9666667"}, {"lat": "12.55", "city": "Kossoulabou", "lon": "2.9166667"}, {"lat": "12.45", "city": "Kotaki", "lon": "2.8666667"}, {"lat": "14.3", "city": "Kotay\u00e9", "lon": "3.9333333"}, {"lat": "12.0333333", "city": "Kot\u00e9 Kot\u00e9", "lon": "3.55"}, {"lat": "13.2541667", "city": "Kotia", "lon": "2.9438889"}, {"lat": "12.5166667", "city": "Kotibanta", "lon": "2.8333333"}, {"lat": "13.25", "city": "Kotifafa", "lon": "3.3333333"}, {"lat": "12.0333333", "city": "Kotokot\u00e9", "lon": "3.55"}, {"lat": "12.8333333", "city": "Kotolougui", "lon": "3.9666667"}, {"lat": "13.4166667", "city": "Kotombo", "lon": "3.0666667"}, {"lat": "13.4166667", "city": "Kotonbo", "lon": "3.0666667"}, {"lat": "12.6166667", "city": "Koty\u00e9tangakaina", "lon": "2.9666667"}, {"lat": "12.6166667", "city": "Koty\u00e9tanga Keyna", "lon": "2.9666667"}, {"lat": "11.9833333", "city": "Kouanza", "lon": "3.2666667"}, {"lat": "12.3275", "city": "Kouara D\u00e9b\u00e9", "lon": "3.4288889"}, {"lat": "12.8166667", "city": "Kouatad\u00e8ye", "lon": "3.9333333"}, {"lat": "12.8166667", "city": "Kouatadey", "lon": "3.9333333"}, {"lat": "13.7", "city": "Kouboubangou-Batouro-Koara", "lon": "3.4333333"}, {"lat": "13.7", "city": "Kouboubangou Batouro Kwara", "lon": "3.4333333"}, {"lat": "13.6833333", "city": "Kouboubangou", "lon": "3.4333333"}, {"lat": "13.2666667", "city": "Kouboubi Koura", "lon": "2.8833333"}, {"lat": "13.2666667", "city": "Kouboubi Sori", "lon": "2.9"}, {"lat": "14.0333333", "city": "Koubou Kaina", "lon": "3.8333333"}, {"lat": "14.0333333", "city": "Koubou Keyna", "lon": "3.8333333"}, {"lat": "12.9833333", "city": "Kouda", "lon": "3.7166667"}, {"lat": "13.1166667", "city": "Koudangand\u00e9", "lon": "2.85"}, {"lat": "12.7333333", "city": "Koudourou", "lon": "3.7666667"}, {"lat": "12.5833333", "city": "Koudy\u00e9 Kaina", "lon": "2.8833333"}, {"lat": "12.5833333", "city": "Koudy\u00e9 Keyna", "lon": "2.8833333"}, {"lat": "12.55", "city": "Koudy\u00e9", "lon": "2.8833333"}, {"lat": "13.4166667", "city": "Koukabokoye", "lon": "3.75"}, {"lat": "13.4166667", "city": "Koukabokoy", "lon": "3.75"}, {"lat": "13.5833333", "city": "Kouka Bokoy", "lon": "4.0666667"}, {"lat": "13.9333333", "city": "Koukadin", "lon": "4.1"}, {"lat": "12.6166667", "city": "Koukadou", "lon": "3.7"}, {"lat": "12.6", "city": "Kouka Hadi", "lon": "3.6"}, {"lat": "13.25", "city": "Kouka", "lon": "3.9"}, {"lat": "13.2833333", "city": "Koukoki", "lon": "3.8666667"}, {"lat": "12.2144444", "city": "Koulou", "lon": "3.0658333"}, {"lat": "12.9333333", "city": "Kouloumadou", "lon": "3.5"}, {"lat": "13.8833333", "city": "Koulouna", "lon": "4.0333333"}, {"lat": "14.4058333", "city": "Koumari", "lon": "4.1563889"}, {"lat": "12.9333333", "city": "Koumba Kamargou", "lon": "3.2666667"}, {"lat": "12.8166667", "city": "Koumbo-Koy-D\u00e8ye", "lon": "3.15"}, {"lat": "12.8166667", "city": "Koumbo Koy Dey", "lon": "3.15"}, {"lat": "12.9333333", "city": "Koumbo-Koye-D\u00e8ye", "lon": "3.2666667"}, {"lat": "13.1166667", "city": "Koundagande", "lon": "2.85"}, {"lat": "13.5333333", "city": "Koundoubou", "lon": "4.2"}, {"lat": "13.1333333", "city": "Koundoukoundou", "lon": "13.9666667"}, {"lat": "12.2333333", "city": "Kounkouroutou-Koara", "lon": "3.0666667"}, {"lat": "12.2333333", "city": "Kounkouroutou Kwara", "lon": "3.0666667"}, {"lat": "13.15", "city": "Kounti\u00e9tari Ama", "lon": "3.4833333"}, {"lat": "13.15", "city": "Kounti\u00e9tari Zibo", "lon": "3.4833333"}, {"lat": "13.05", "city": "Kountoud\u00e8ye", "lon": "3.2833333"}, {"lat": "13.05", "city": "Kountoudey", "lon": "3.2833333"}, {"lat": "13.65", "city": "Kouoda Kargi", "lon": "3.5166667"}, {"lat": "13.65", "city": "Kouoda Kargui", "lon": "3.5166667"}, {"lat": "13.3333333", "city": "Kour\u00e9 Koara", "lon": "3.4833333"}, {"lat": "13.0", "city": "Kour\u00e9 Kobad\u00e9", "lon": "3.05"}, {"lat": "13.3333333", "city": "Kour\u00e9 Kwara", "lon": "3.4833333"}, {"lat": "13.0", "city": "Kour\u00e9 Maliki", "lon": "3.0833333"}, {"lat": "13.0", "city": "Kour\u00e9 Sakao", "lon": "3.05"}, {"lat": "13.0166667", "city": "Kour\u00e9 Tatibaba", "lon": "3.0666667"}, {"lat": "13.0", "city": "Kourfar\u00e9", "lon": "2.95"}, {"lat": "13.55", "city": "Kourfa Saouna", "lon": "4.0166667"}, {"lat": "12.85", "city": "Kourfayawa", "lon": "3.85"}, {"lat": "14.0666667", "city": "Kourf\u00e9 Yawa", "lon": "3.85"}, {"lat": "13.55", "city": "Kouria", "lon": "3.75"}, {"lat": "12.6166667", "city": "Kouri Kouri", "lon": "3.6166667"}, {"lat": "13.7666667", "city": "Kouroka\u00efna", "lon": "3.5333333"}, {"lat": "13.7666667", "city": "Kouro Keyna", "lon": "3.5333333"}, {"lat": "13.3675", "city": "Kourounguel Mayaki", "lon": "2.9022222"}, {"lat": "14.25", "city": "Kourouroub\u00e9", "lon": "3.95"}, {"lat": "12.55", "city": "Kousoulabou", "lon": "2.9166667"}, {"lat": "13.3666667", "city": "Koussa-Koara", "lon": "3.55"}, {"lat": "13.3666667", "city": "Koussa Kwara", "lon": "3.55"}, {"lat": "12.55", "city": "Koussoulabou", "lon": "2.9166667"}, {"lat": "13.6", "city": "Kouto Koara Tiaranga", "lon": "3.2833333"}, {"lat": "13.6", "city": "Kouto Kwara Tiaranga", "lon": "3.2833333"}, {"lat": "13.3", "city": "Koutoufani", "lon": "3.2333333"}, {"lat": "12.4", "city": "Koutoumbou", "lon": "3.5833333"}, {"lat": "13.1", "city": "Koutoun\u00e8ye", "lon": "3.9333333"}, {"lat": "12.55", "city": "Koye-T\u00e9guio", "lon": "3.3166667"}, {"lat": "13.4833333", "city": "Koygolo", "lon": "3.0166667"}, {"lat": "13.0833333", "city": "Koy Gorou", "lon": "3.0833333"}, {"lat": "13.4666667", "city": "Koykono Kwara", "lon": "3.6"}, {"lat": "12.55", "city": "Koy T\u00e9guio", "lon": "3.3166667"}, {"lat": "14.05", "city": "Kria", "lon": "3.85"}, {"lat": "14.05", "city": "Krya", "lon": "3.85"}, {"lat": "13.5333333", "city": "Kwakor\u00e9", "lon": "3.85"}, {"lat": "13.2833333", "city": "Kwakwar\u00e9", "lon": "3.6833333"}, {"lat": "14.1666667", "city": "Kwal\u00e8n Dawa", "lon": "3.8166667"}, {"lat": "12.9333333", "city": "Kwara Keyna", "lon": "3.5"}, {"lat": "13.2333333", "city": "Kwara Mayaki", "lon": "2.9166667"}, {"lat": "12.6833333", "city": "Kwara Sar\u00e9", "lon": "3.6"}, {"lat": "13.4", "city": "Kwara T\u00e9gui", "lon": "3.7333333"}, {"lat": "12.9666667", "city": "Kwara Z\u00e9no", "lon": "3.5166667"}, {"lat": "14.0666667", "city": "Kwas\u00e9", "lon": "3.8333333"}, {"lat": "14.0666667", "city": "Kwass\u00e9", "lon": "3.8333333"}, {"lat": "12.9", "city": "Kwassey", "lon": "3.2"}, {"lat": "12.3", "city": "Kwassi", "lon": "2.9833333"}, {"lat": "14.05", "city": "Kyada", "lon": "3.9"}, {"lat": "12.9566667", "city": "Kyara B\u00e9ri", "lon": "3.0530556"}, {"lat": "12.9333333", "city": "Kyara Keyna", "lon": "3.05"}, {"lat": "12.9333333", "city": "Kyara Kid\u00e9", "lon": "3.0833333"}, {"lat": "12.7666667", "city": "Kyara Kwassiz\u00e9 Kwara", "lon": "3.1666667"}, {"lat": "13.2166667", "city": "Ky\u00e9sso Kwara", "lon": "3.6833333"}, {"lat": "12.1666667", "city": "Ladan\u00e9-Koara", "lon": "3.35"}, {"lat": "12.1666667", "city": "Ladan\u00e9 Kwara", "lon": "3.35"}, {"lat": "11.75", "city": "Ladankpira", "lon": "3.6333333"}, {"lat": "12.6833333", "city": "Lag\u00e9r\u00e9", "lon": "3.6666667"}, {"lat": "12.6833333", "city": "Lalan\u00e9dji Dyerma", "lon": "2.8833333"}, {"lat": "12.6833333", "city": "Lalan\u00e9dji Peul", "lon": "2.9"}, {"lat": "12.6666667", "city": "Lalan\u00e9dji Y\u00e9ro", "lon": "2.9"}, {"lat": "12.9333333", "city": "Landara", "lon": "3.9166667"}, {"lat": "12.85", "city": "Landari", "lon": "3.8"}, {"lat": "12.5166667", "city": "Landioma", "lon": "3.1166667"}, {"lat": "13.5833333", "city": "Laougoumbi", "lon": "3.4666667"}, {"lat": "12.2833333", "city": "Lar\u00e8ye", "lon": "3.0166667"}, {"lat": "12.2833333", "city": "Larey", "lon": "3.0166667"}, {"lat": "13.4833333", "city": "Lassaoura", "lon": "2.9333333"}, {"lat": "12.95", "city": "L\u00e9l\u00e9-Gorou", "lon": "3.4333333"}, {"lat": "12.95", "city": "L\u00e9ley Gorou", "lon": "3.4333333"}, {"lat": "13.1666667", "city": "L\u00e9n\u00e9", "lon": "2.9"}, {"lat": "12.2166667", "city": "Lesson Matche", "lon": "3.4666667"}, {"lat": "12.4833333", "city": "Libo Gu\u00e9na", "lon": "3.3833333"}, {"lat": "12.4833333", "city": "Libo T\u00e9guio", "lon": "3.4"}, {"lat": "12.8916667", "city": "Lido", "lon": "3.7280556"}, {"lat": "13.6166667", "city": "Ligido", "lon": "4.1166667"}, {"lat": "13.6166667", "city": "Liguido", "lon": "4.1166667"}, {"lat": "12.8916667", "city": "Likdo", "lon": "3.7280556"}, {"lat": "13.6166667", "city": "Likida", "lon": "4.1166667"}, {"lat": "13.6166667", "city": "Likido", "lon": "4.1166667"}, {"lat": "13.61", "city": "Loga", "lon": "3.1722222"}, {"lat": "12.85", "city": "Lokoko", "lon": "3.9"}, {"lat": "13.3", "city": "Loma", "lon": "4.1166667"}, {"lat": "13.35", "city": "Lori-Koara", "lon": "3.5166667"}, {"lat": "13.35", "city": "Lori Kwara", "lon": "3.5166667"}, {"lat": "12.7166667", "city": "Loudouoy", "lon": "2.9"}, {"lat": "13.85", "city": "Lougou", "lon": "4.2333333"}, {"lat": "13.2", "city": "Louloudji", "lon": "2.9"}, {"lat": "13.5666667", "city": "Loulou-Koara", "lon": "3.25"}, {"lat": "13.6166667", "city": "Loulou Koara", "lon": "3.2"}, {"lat": "13.5666667", "city": "Loulou Kwara", "lon": "3.25"}, {"lat": "12.5166667", "city": "Lourfari-Koara", "lon": "3.1666667"},