{"NZ": {"F1": [{"lat": "-38.433333", "city": "Ahititi", "lon": "178.05"}, {"lat": "-39.966667", "city": "Apiti", "lon": "175.883333"}, {"lat": "-38.55", "city": "Aria", "lon": "174.983333"}, {"lat": "-41.683333", "city": "Avondale", "lon": "173.633333"}, {"lat": "-37.966667", "city": "Awaawakino", "lon": "177.45"}, {"lat": "-38.85", "city": "Bartlett", "lon": "177.883333"}, {"lat": "-38.85", "city": "Bartlett's", "lon": "177.883333"}, {"lat": "-45.95", "city": "Benmore", "lon": "168.35"}, {"lat": "-37.566667", "city": "Cape Runaway", "lon": "178.016667"}, {"lat": "-42.416667", "city": "Charwell Forks", "lon": "173.366667"}, {"lat": "-44.183333", "city": "Cricklewood", "lon": "170.866667"}, {"lat": "-37.7", "city": "East Cape", "lon": "178.55"}, {"lat": "-41.083333", "city": "Fernside", "lon": "175.366667"}, {"lat": "-40.466667", "city": "Foxton Beach", "lon": "175.216667"}, {"lat": "-40.466667", "city": "Foxton", "lon": "175.3"}, {"lat": "-38.968611", "city": "Frasertown", "lon": "177.400556"}, {"lat": "-38.653333", "city": "Gisborne", "lon": "178.004167"}, {"lat": "-44.666667", "city": "Glendhu", "lon": "169.016667"}, {"lat": "-42.666667", "city": "Goldsboro", "lon": "171.116667"}, {"lat": "-42.666667", "city": "Goldsborough", "lon": "171.116667"}, {"lat": "-42.633333", "city": "Greenstone", "lon": "171.266667"}, {"lat": "-41.3", "city": "Hakahaka", "lon": "174.116667"}, {"lat": "-43.483333", "city": "Harewood", "lon": "172.583333"}, {"lat": "-43.483333", "city": "Harewood Settlement", "lon": "172.583333"}, {"lat": "-38.1", "city": "Hauturu", "lon": "174.933333"}, {"lat": "-37.6", "city": "Hicks Bay", "lon": "178.3"}, {"lat": "-39.55", "city": "Hiruharama", "lon": "175.066667"}, {"lat": "-37.65", "city": "Horoera", "lon": "178.483333"}, {"lat": "-37.883333", "city": "Houpoto", "lon": "177.583333"}, {"lat": "-38.016667", "city": "Kaharoa", "lon": "176.216667"}, {"lat": "-37.133333", "city": "Kaiaua", "lon": "175.283333"}, {"lat": "-39.893056", "city": "Kaikora", "lon": "176.599167"}, {"lat": "-42.416667", "city": "Kaikoura", "lon": "173.683333"}, {"lat": "-42.383333", "city": "Kaikoura Suburban", "lon": "173.65"}, {"lat": "-38.533333", "city": "Kaitaratahi", "lon": "177.916667"}, {"lat": "-40.5", "city": "Kaitawa", "lon": "175.883333"}, {"lat": "-41.333333", "city": "Kakapo Bay", "lon": "174.116667"}, {"lat": "-36.983333", "city": "Karekare", "lon": "174.483333"}, {"lat": "-43.8", "city": "Karewa", "lon": "-176.466667"}, {"lat": "-44.85", "city": "Kinloch", "lon": "168.333333"}, {"lat": "-45.7", "city": "Kiteroa", "lon": "170.25"}, {"lat": "-45.216667", "city": "Kokonga", "lon": "170.25"}, {"lat": "-43.533333", "city": "Linwood", "lon": "172.65"}, {"lat": "-46.35", "city": "Lorne", "lon": "168.35"}, {"lat": "-38.016667", "city": "Lower Waiawa", "lon": "177.416667"}, {"lat": "-40.266667", "city": "Maharahara", "lon": "175.966667"}, {"lat": "-42.383333", "city": "Mahunga", "lon": "173.433333"}, {"lat": "-38.65", "city": "Makaraka", "lon": "177.966667"}, {"lat": "-38.633333", "city": "Makauri", "lon": "177.95"}, {"lat": "-40.466667", "city": "Manawatu Heads", "lon": "175.216667"}, {"lat": "-42.3", "city": "Mangamauna", "lon": "173.75"}, {"lat": "-42.3", "city": "Mangamaunu", "lon": "173.75"}, {"lat": "-39.05", "city": "Mangaone", "lon": "174.866667"}, {"lat": "-38.683333", "city": "Manutuke", "lon": "177.916667"}, {"lat": "-40.483333", "city": "Marotiri", "lon": "175.35"}, {"lat": "-35.566667", "city": "Marua", "lon": "174.366667"}, {"lat": "-38.116667", "city": "Matahanea", "lon": "177.266667"}, {"lat": "-43.733333", "city": "Matarakau", "lon": "-176.35"}, {"lat": "-38.35", "city": "Matauwai", "lon": "177.533333"}, {"lat": "-38.35", "city": "Matawai", "lon": "177.533333"}, {"lat": "-38.666667", "city": "Matawhero", "lon": "177.966667"}, {"lat": "-35.75", "city": "Maungatapere", "lon": "174.2"}, {"lat": "-45.416667", "city": "Moonlight", "lon": "170.333333"}, {"lat": "-38.25", "city": "Motu", "lon": "177.55"}, {"lat": "-38.283333", "city": "Moutohora", "lon": "177.533333"}, {"lat": "-36.816667", "city": "Muriwai", "lon": "174.45"}, {"lat": "-35.833333", "city": "Oakleigh", "lon": "174.316667"}, {"lat": "-41.333333", "city": "Ocean Bay", "lon": "174.1"}, {"lat": "-39.033333", "city": "Ohinepaka", "lon": "177.316667"}, {"lat": "-38.183333", "city": "Okiore", "lon": "177.283333"}, {"lat": "-37.816667", "city": "Omaio", "lon": "177.666667"}, {"lat": "-38.888333", "city": "Opoiti", "lon": "177.492778"}, {"lat": "-38.25", "city": "Oponae", "lon": "177.3"}, {"lat": "-38.083333", "city": "Opotiki", "lon": "177.283333"}, {"lat": "-38.566667", "city": "Ormond", "lon": "177.916667"}, {"lat": "-39.883333", "city": "Otane", "lon": "176.633333"}, {"lat": "-46.633333", "city": "Otara", "lon": "168.883333"}, {"lat": "-38.4", "city": "Otoko", "lon": "177.666667"}, {"lat": "-35.533333", "city": "Otonga", "lon": "174.316667"}, {"lat": "-37.85", "city": "Pakihiroa", "lon": "178.066667"}, {"lat": "-39.583333", "city": "Pakowhai", "lon": "176.866667"}, {"lat": "-46.15", "city": "Papatotara", "lon": "167.633333"}, {"lat": "-36.65", "city": "Parkhurst", "lon": "174.4"}, {"lat": "-38.616667", "city": "Patutahi", "lon": "177.9"}, {"lat": "-38.616667", "city": "Patutahi Town District", "lon": "177.9"}, {"lat": "-38.633333", "city": "Pehiri", "lon": "177.7"}, {"lat": "-37.833333", "city": "Port Awanui", "lon": "178.45"}, {"lat": "-42.633333", "city": "Pounamu", "lon": "171.266667"}, {"lat": "-38.483333", "city": "Puha", "lon": "177.85"}, {"lat": "-38.483333", "city": "Puhua", "lon": "177.85"}, {"lat": "-39.283333", "city": "Pungarehu", "lon": "173.8"}, {"lat": "-37.233333", "city": "Puriri", "lon": "175.633333"}, {"lat": "-39.233333", "city": "Rahiri", "lon": "174.133333"}, {"lat": "-38.416667", "city": "Rakauroa", "lon": "177.55"}, {"lat": "-36.15", "city": "Ranganui", "lon": "174.4"}, {"lat": "-44.066667", "city": "Rangitata", "lon": "171.366667"}, {"lat": "-37.766667", "city": "Rangitukia", "lon": "178.45"}, {"lat": "-37.65", "city": "Raukokore", "lon": "177.883333"}, {"lat": "-38.533333", "city": "Rere", "lon": "177.616667"}, {"lat": "-35.883333", "city": "Ruakaka", "lon": "174.4"}, {"lat": "-37.883333", "city": "Ruatoria", "lon": "178.333333"}, {"lat": "-44.066667", "city": "South Rangitata", "lon": "171.366667"}, {"lat": "-35.583333", "city": "Tanekaha", "lon": "174.233333"}, {"lat": "-39.466667", "city": "Tangiwai", "lon": "175.583333"}, {"lat": "-43.85", "city": "Taumutu", "lon": "172.366667"}, {"lat": "-37.686111", "city": "Tauranga", "lon": "176.166667"}, {"lat": "-44.883333", "city": "Tawai", "lon": "170.983333"}, {"lat": "-37.633333", "city": "Te Araroa", "lon": "178.366667"}, {"lat": "-39.733333", "city": "Te Huia", "lon": "174.766667"}, {"lat": "-37.733333", "city": "Te Kaha", "lon": "177.683333"}, {"lat": "-38.968611", "city": "Te Kapu", "lon": "177.400556"}, {"lat": "-38.466667", "city": "Te Karaka", "lon": "177.866667"}, {"lat": "-38.466667", "city": "Te Karaka Town District", "lon": "177.866667"}, {"lat": "-38.066667", "city": "Te Puia Springs", "lon": "178.3"}, {"lat": "-39.233333", "city": "Te Wera", "lon": "174.583333"}, {"lat": "-38.766667", "city": "Tiniroto", "lon": "177.566667"}, {"lat": "-38.133333", "city": "Toatoa", "lon": "177.5"}, {"lat": "-46.416667", "city": "Tokata", "lon": "169.8"}, {"lat": "-38.133333", "city": "Tokomaru Bay", "lon": "178.3"}, {"lat": "-38.133333", "city": "Tokomaru", "lon": "178.3"}, {"lat": "-38.366667", "city": "Tolaga Bay", "lon": "178.3"}, {"lat": "-37.95", "city": "Torere", "lon": "177.5"}, {"lat": "-38.816667", "city": "Tuai", "lon": "177.166667"}, {"lat": "-37.266667", "city": "Tuakau Town District", "lon": "174.95"}, {"lat": "-37.266667", "city": "Tuakau", "lon": "174.95"}, {"lat": "-38.75", "city": "Tuhua", "lon": "175.166667"}, {"lat": "-37.933333", "city": "Tuparoa", "lon": "178.416667"}, {"lat": "-35.65", "city": "Tutamoe", "lon": "173.65"}, {"lat": "-38.05", "city": "Upper Waiawa", "lon": "177.45"}, {"lat": "-38.6", "city": "Waerengaahika", "lon": "177.933333"}, {"lat": "-38.683333", "city": "Waerengaokuri", "lon": "177.766667"}, {"lat": "-37.616667", "city": "Waihau Bay", "lon": "177.916667"}, {"lat": "-37.4", "city": "Waihi Beach", "lon": "175.933333"}, {"lat": "-38.8", "city": "Waikaremoana", "lon": "177.116667"}, {"lat": "-35.333333", "city": "Waikare", "lon": "174.25"}, {"lat": "-41.266667", "city": "Waikawa", "lon": "174.05"}, {"lat": "-38.4", "city": "Waikohu", "lon": "177.783333"}, {"lat": "-37.45", "city": "Waimata", "lon": "175.866667"}, {"lat": "-42.666667", "city": "Waimea", "lon": "171.116667"}, {"lat": "-42.4", "city": "Waioruarangi", "lon": "173.683333"}, {"lat": "-38", "city": "Waiotahe", "lon": "177.216667"}, {"lat": "-38", "city": "Waiotahi", "lon": "177.216667"}, {"lat": "-39.483333", "city": "Waiouru", "lon": "175.666667"}, {"lat": "-38.533333", "city": "Waipaoa", "lon": "177.9"}, {"lat": "-38.016667", "city": "Waipiro Bay", "lon": "178.333333"}, {"lat": "-38.3", "city": "Wairata", "lon": "177.333333"}, {"lat": "-44.3", "city": "Waitawa", "lon": "171.2"}, {"lat": "-46.416667", "city": "Waituna", "lon": "168.633333"}, {"lat": "-38.8", "city": "Wakaremoana", "lon": "177.116667"}, {"lat": "-39.483333", "city": "Warouru", "lon": "175.666667"}, {"lat": "-43.283333", "city": "Wataroa", "lon": "170.416667"}, {"lat": "-37.716667", "city": "Whakaangiangi", "lon": "178.3"}, {"lat": "-41.283333", "city": "Whangakoko", "lon": "174.166667"}, {"lat": "-36.633333", "city": "Whangaparaoa", "lon": "174.766667"}, {"lat": "-38.566667", "city": "Whangara", "lon": "178.216667"}, {"lat": "-38.55", "city": "Wharekopae", "lon": "177.5"}, {"lat": "-43.283333", "city": "Whataroa", "lon": "170.416667"}, {"lat": "-38.383333", "city": "Whatatutu", "lon": "177.833333"}, {"lat": "-36.833333", "city": "Whitianga", "lon": "175.7"}, {"lat": "-43.316667", "city": "Woodend", "lon": "172.666667"}], "F2": [{"lat": "-39.483333", "city": "Ahuriri", "lon": "176.9"}, {"lat": "-39.248889", "city": "Ahuriri Village", "lon": "177.861944"}, {"lat": "-39.674444", "city": "Allerton", "lon": "176.824167"}, {"lat": "-39.666667", "city": "Alton", "lon": "174.45"}, {"lat": "-43.166667", "city": "Amberley", "lon": "172.733333"}, {"lat": "-45.783333", "city": "Aramoana", "lon": "170.7"}, {"lat": "-43.516667", "city": "Aranui", "lon": "172.7"}, {"lat": "-37.033333", "city": "Ardmore", "lon": "175"}, {"lat": "-37.033333", "city": "Ardmore College", "lon": "175"}, {"lat": "-39.866667", "city": "Argyll East", "lon": "176.533333"}, {"lat": "-39.95", "city": "Ashley Clinton", "lon": "176.25"}, {"lat": "-40.866667", "city": "Awa-iti", "lon": "173"}, {"lat": "-35.05", "city": "Awanui", "lon": "173.25"}, {"lat": "-36.816667", "city": "Awaroa", "lon": "175.116667"}, {"lat": "-46.366667", "city": "Awatea", "lon": "169.533333"}, {"lat": "-39.55", "city": "Awatoto", "lon": "176.9"}, {"lat": "-45.783333", "city": "Bastings", "lon": "169.466667"}, {"lat": "-41.65", "city": "Birch Hill", "lon": "173.283333"}, {"lat": "-39.866667", "city": "Blackburn", "lon": "176.283333"}, {"lat": "-43.666667", "city": "Cairnbrae", "lon": "171.683333"}, {"lat": "-42.816667", "city": "Cheviot", "lon": "173.266667"}, {"lat": "-44.383333", "city": "Claremont", "lon": "171.116667"}, {"lat": "-43.558333", "city": "Clifton", "lon": "172.75"}, {"lat": "-39.583333", "city": "Clive", "lon": "176.916667"}, {"lat": "-46.066667", "city": "Conical Hill", "lon": "169.233333"}, {"lat": "-46.066667", "city": "Conical Hills", "lon": "169.233333"}, {"lat": "-43.483333", "city": "Darfield", "lon": "172.116667"}, {"lat": "-39.366667", "city": "Dawson Gate", "lon": "174.15"}, {"lat": "-43.95", "city": "Elgin", "lon": "171.816667"}, {"lat": "-39.916667", "city": "Elsthorpe", "lon": "176.816667"}, {"lat": "-44.966667", "city": "Enfield", "lon": "170.783333"}, {"lat": "-39.4", "city": "Eskdale", "lon": "176.833333"}, {"lat": "-45.9", "city": "Fairfield", "lon": "170.4"}, {"lat": "-44.416667", "city": "Fairview", "lon": "171.166667"}, {"lat": "-39.583333", "city": "Fernhill", "lon": "176.766667"}, {"lat": "-45.833333", "city": "Flagstaff", "lon": "170.483333"}, {"lat": "-44.016667", "city": "Flemington", "lon": "171.733333"}, {"lat": "-37.216667", "city": "Glenbrook", "lon": "174.783333"}, {"lat": "-41.833333", "city": "Glengarry", "lon": "172.233333"}, {"lat": "-41.65", "city": "Glenhope", "lon": "172.65"}, {"lat": "-44.85", "city": "Glenorchy", "lon": "168.383333"}, {"lat": "-46.1", "city": "Glenore", "lon": "169.866667"}, {"lat": "-39.533333", "city": "Greenmeadows", "lon": "176.866667"}, {"lat": "-45.85", "city": "Halfway Bush", "lon": "170.466667"}, {"lat": "-39.65", "city": "Hastings", "lon": "176.833333"}, {"lat": "-40.033333", "city": "Hatuma", "lon": "176.5"}, {"lat": "-40.6", "city": "Haunui", "lon": "176.05"}, {"lat": "-37.866667", "city": "Hautapu", "lon": "175.45"}, {"lat": "-39.666667", "city": "Havelock North", "lon": "176.883333"}, {"lat": "-39.666667", "city": "Havelock North Town District", "lon": "176.883333"}, {"lat": "-42.933333", "city": "Hawarden", "lon": "172.633333"}, {"lat": "-42.65", "city": "Hawkeswood", "lon": "173.333333"}, {"lat": "-42.65", "city": "Hawkswood", "lon": "173.333333"}, {"lat": "-40.499444", "city": "Herbertville", "lon": "176.545833"}, {"lat": "-41.1", "city": "Homewood", "lon": "173.95"}, {"lat": "-40.35", "city": "Hopelands", "lon": "175.966667"}, {"lat": "-43.483333", "city": "Horndon", "lon": "172.116667"}, {"lat": "-45.75", "city": "Horseshoe Bend", "lon": "169.466667"}, {"lat": "-41.7", "city": "Howard Junction", "lon": "172.666667"}, {"lat": "-39.133333", "city": "Huatoki", "lon": "174.05"}, {"lat": "-40.566667", "city": "Hukanui", "lon": "175.7"}, {"lat": "-40.566667", "city": "Humua", "lon": "175.733333"}, {"lat": "-41.083333", "city": "Kaitoke", "lon": "175.166667"}, {"lat": "-36.166667", "city": "Kaiwaka", "lon": "174.45"}, {"lat": "-41.25", "city": "Karamea", "lon": "172.116667"}, {"lat": "-37.883333", "city": "Karamu", "lon": "175.133333"}, {"lat": "-41.7", "city": "Kawatiri", "lon": "172.6"}, {"lat": "-40.333333", "city": "Kelvin Grove", "lon": "175.633333"}, {"lat": "-35.216667", "city": "Kerikeri", "lon": "173.966667"}, {"lat": "-39.151944", "city": "Kinikini", "lon": "177.835278"}, {"lat": "-40.233333", "city": "Kiritaki", "lon": "175.983333"}, {"lat": "-41.5", "city": "Kiwi", "lon": "172.75"}, {"lat": "-37.366667", "city": "Komata", "lon": "175.733333"}, {"lat": "-40.5", "city": "Konini", "lon": "175.783333"}, {"lat": "-40.083333", "city": "Kopua", "lon": "176.3"}, {"lat": "-38.966667", "city": "Kopuawhara", "lon": "177.9"}, {"lat": "-39.283333", "city": "Koraki", "lon": "176.85"}, {"lat": "-35.266667", "city": "Kororareka", "lon": "174.116667"}, {"lat": "-39.066667", "city": "Kotemaori", "lon": "177.033333"}, {"lat": "-40.333333", "city": "Kumeroa", "lon": "175.983333"}, {"lat": "-42.816667", "city": "Mackenzie", "lon": "173.266667"}, {"lat": "-41.266667", "city": "Mahana", "lon": "173.05"}, {"lat": "-39.008611", "city": "Mahanga Beach", "lon": "177.885"}, {"lat": "-39.008611", "city": "Mahanga", "lon": "177.885"}, {"lat": "-40.016667", "city": "Maharakeke", "lon": "176.45"}, {"lat": "-39.083333", "city": "Mahia Beach", "lon": "177.866667"}, {"lat": "-39.083333", "city": "Mahia", "lon": "177.916667"}, {"lat": "-39.383333", "city": "Mahoe", "lon": "174.166667"}, {"lat": "-39.916667", "city": "Makaretu", "lon": "176.266667"}, {"lat": "-39.866667", "city": "Makirikiri", "lon": "175.116667"}, {"lat": "-40.116667", "city": "Makotuku", "lon": "176.233333"}, {"lat": "-38.1", "city": "Mamaku", "lon": "176.083333"}, {"lat": "-41.116667", "city": "Manaroa", "lon": "174.033333"}, {"lat": "-39.816667", "city": "Mangamahu", "lon": "175.366667"}, {"lat": "-40.516667", "city": "Mangamaire", "lon": "175.75"}, {"lat": "-37.3", "city": "Mangatarata", "lon": "175.366667"}, {"lat": "-39.65", "city": "Maraekakaho", "lon": "176.633333"}, {"lat": "-39.44", "city": "Maraitara", "lon": "176.831667"}, {"lat": "-40.016667", "city": "Marakeke", "lon": "176.45"}, {"lat": "-39.546667", "city": "Mast", "lon": "176.935"}, {"lat": "-39.166667", "city": "Matahorua", "lon": "176.933333"}, {"lat": "-40.133333", "city": "Matamau", "lon": "176.166667"}, {"lat": "-39.183333", "city": "Maungatea Village", "lon": "177.842778"}, {"lat": "-42.816667", "city": "McKenzie", "lon": "173.266667"}, {"lat": "-39.55", "city": "Meeanee", "lon": "176.9"}, {"lat": "-46.05", "city": "Merrivale", "lon": "167.833333"}, {"lat": "-43.633333", "city": "Methven", "lon": "171.65"}, {"lat": "-39.460833", "city": "Mino", "lon": "176.811667"}, {"lat": "-39.149722", "city": "Moemoto", "lon": "177.838611"}, {"lat": "-39.116667", "city": "Mohaka", "lon": "177.183333"}, {"lat": "-38.983333", "city": "Morere", "lon": "177.8"}, {"lat": "-39.5", "city": "Moteo", "lon": "176.783333"}, {"lat": "-39.066667", "city": "Moturoa", "lon": "174.05"}, {"lat": "-41.333333", "city": "Mount Pleasant", "lon": "173.966667"}, {"lat": "-41.3", "city": "Muritai", "lon": "174.883333"}, {"lat": "-39.483333", "city": "Napier City", "lon": "176.916667"}, {"lat": "-39.483333", "city": "Napier", "lon": "176.916667"}, {"lat": "-36.083333", "city": "Naumai", "lon": "173.983333"}, {"lat": "-37.333333", "city": "Netherton", "lon": "175.616667"}, {"lat": "-42.4", "city": "Ngahere", "lon": "171.45"}, {"lat": "-41.25", "city": "Ngaio", "lon": "174.783333"}, {"lat": "-40.05", "city": "Ngamoko", "lon": "176.166667"}, {"lat": "-38.1", "city": "Ngatira", "lon": "175.9"}, {"lat": "-40.066667", "city": "Norsewood", "lon": "176.216667"}, {"lat": "-39.05", "city": "Nuhaka", "lon": "177.75"}, {"lat": "-46.583333", "city": "Ocean Beach", "lon": "168.316667"}, {"lat": "-35.316667", "city": "Okaihau", "lon": "173.783333"}, {"lat": "-39.016667", "city": "Okoke", "lon": "174.483333"}, {"lat": "-38.866667", "city": "Omahanui", "lon": "177.25"}, {"lat": "-37.266667", "city": "Omahu", "lon": "175.666667"}, {"lat": "-35.533333", "city": "Omapere", "lon": "173.383333"}, {"lat": "-39.483333", "city": "Onekawa", "lon": "176.916667"}, {"lat": "-39.916667", "city": "Onga Onga", "lon": "176.416667"}, {"lat": "-39.8", "city": "Opapa", "lon": "176.683333"}, {"lat": "-39.066667", "city": "Opoutama", "lon": "177.833333"}, {"lat": "-40.116667", "city": "Ormondville", "lon": "176.266667"}, {"lat": "-45.95", "city": "Otama", "lon": "168.866667"}, {"lat": "-41.05", "city": "Otarawao", "lon": "173.683333"}, {"lat": "-45.866667", "city": "Outram", "lon": "170.233333"}, {"lat": "-45.866667", "city": "Outram Town District", "lon": "170.233333"}, {"lat": "-40.983333", "city": "Paekakariki", "lon": "174.95"}, {"lat": "-37.366667", "city": "Paeroa", "lon": "175.666667"}, {"lat": "-39.600556", "city": "Pahowai", "lon": "176.894167"}, {"lat": "-40.264167", "city": "Pah", "lon": "176.648611"}, {"lat": "-35.35", "city": "Pakaraka", "lon": "173.95"}, {"lat": "-39.674444", "city": "Pakipaki", "lon": "176.824167"}, {"lat": "-43.5", "city": "Papanui", "lon": "172.616667"}, {"lat": "-40.316667", "city": "Papatawa", "lon": "175.933333"}, {"lat": "-35.066667", "city": "Paranui", "lon": "173.466667"}, {"lat": "-40.9", "city": "Paraparaumu Beach", "lon": "174.983333"}, {"lat": "-40.916667", "city": "Paraparaumu", "lon": "175.016667"}, {"lat": "-41.05", "city": "Parkvale", "lon": "175.55"}, {"lat": "-42.516667", "city": "Paroa", "lon": "171.166667"}, {"lat": "-39.916667", "city": "Patangata", "lon": "176.716667"}, {"lat": "-39.35", "city": "Patoka", "lon": "176.616667"}, {"lat": "-44.966667", "city": "Peebles", "lon": "170.933333"}, {"lat": "-39.383333", "city": "Petane", "lon": "176.866667"}, {"lat": "-37.85", "city": "Pikowai", "lon": "176.666667"}, {"lat": "-38.466667", "city": "Piopio", "lon": "175.016667"}, {"lat": "-40.166667", "city": "Piripiri", "lon": "176.133333"}, {"lat": "-39.156389", "city": "Piruhi", "lon": "177.831389"}, {"lat": "-40.278889", "city": "Porangahau", "lon": "176.628333"}, {"lat": "-40.278889", "city": "Porongahau", "lon": "176.628333"}, {"lat": "-39.483333", "city": "Port Ahuriri", "lon": "176.9"}, {"lat": "-39.766667", "city": "Poukawa", "lon": "176.733333"}, {"lat": "-39.683333", "city": "Pukahu", "lon": "176.85"}, {"lat": "-46.166667", "city": "Pukeawa", "lon": "169.616667"}, {"lat": "-39.833333", "city": "Pukehou", "lon": "176.633333"}, {"lat": "-43.016667", "city": "Pukekura", "lon": "170.666667"}, {"lat": "-34.816667", "city": "Pukenui", "lon": "173.116667"}, {"lat": "-45.633333", "city": "Pukerangi", "lon": "170.216667"}, {"lat": "-46.483333", "city": "Puketiro", "lon": "169.483333"}, {"lat": "-39.283333", "city": "Puketitiri", "lon": "176.55"}, {"lat": "-35.3", "city": "Puketona", "lon": "173.966667"}, {"lat": "-39.523333", "city": "Puk-kura", "lon": "176.844167"}, {"lat": "-43.783333", "city": "Punawai", "lon": "171.533333"}, {"lat": "-39.133333", "city": "Putorino", "lon": "177"}, {"lat": "-45.783333", "city": "Raes Junction", "lon": "169.466667"}, {"lat": "-41.416667", "city": "Rakau", "lon": "172.783333"}, {"lat": "-43.616667", "city": "Rapaki", "lon": "172.666667"}, {"lat": "-39.983333", "city": "Rata", "lon": "175.516667"}, {"lat": "-40.916667", "city": "Raumati Beach", "lon": "174.983333"}, {"lat": "-40.2", "city": "Raumati", "lon": "176.15"}, {"lat": "-40.95", "city": "Raumati South", "lon": "174.983333"}, {"lat": "-43.616667", "city": "Raupaki", "lon": "172.666667"}, {"lat": "-39.033333", "city": "Raupunga", "lon": "177.216667"}, {"lat": "-35.233333", "city": "Rawhiti", "lon": "174.25"}, {"lat": "-42.766667", "city": "Rimu", "lon": "171"}, {"lat": "-39.45", "city": "Rissington", "lon": "176.716667"}, {"lat": "-45.9", "city": "Riversdale", "lon": "168.75"}, {"lat": "-44.016667", "city": "Riverside", "lon": "171.833333"}, {"lat": "-46.316667", "city": "Round Hill", "lon": "167.816667"}, {"lat": "-39.933333", "city": "Ruataniwha", "lon": "176.5"}, {"lat": "-36.133333", "city": "Ruawai", "lon": "174.033333"}, {"lat": "-35.266667", "city": "Russell", "lon": "174.116667"}, {"lat": "-35.266667", "city": "Russell Town District", "lon": "174.116667"}, {"lat": "-44.433333", "city": "Salisbury", "lon": "171.2"}, {"lat": "-43.916667", "city": "Seafield", "lon": "171.9"}, {"lat": "-36.616667", "city": "Silverdale", "lon": "174.666667"}, {"lat": "-41.466667", "city": "Spring Creek", "lon": "173.966667"}, {"lat": "-35.45", "city": "Taheke", "lon": "173.65"}, {"lat": "-35.683333", "city": "Tahere", "lon": "174.433333"}, {"lat": "-40.216667", "city": "Tahoraite", "lon": "176.083333"}, {"lat": "-40.216667", "city": "Tahoraiti", "lon": "176.083333"}, {"lat": "-39.033333", "city": "Tahora", "lon": "174.8"}, {"lat": "-36.166667", "city": "Taingaihe", "lon": "174.016667"}, {"lat": "-40.033333", "city": "Takapau", "lon": "176.35"}, {"lat": "-39.540278", "city": "Tamihunu", "lon": "176.847778"}, {"lat": "-36.166667", "city": "Tangaihe", "lon": "174.016667"}, {"lat": "-39.016667", "city": "Tangarakau", "lon": "174.85"}, {"lat": "-39.333333", "city": "Tangoio", "lon": "176.916667"}, {"lat": "-37.4", "city": "Taniwha", "lon": "175.3"}, {"lat": "-39.533333", "city": "Taradale", "lon": "176.85"}, {"lat": "-39.533333", "city": "Taradale Town District", "lon": "176.85"}, {"lat": "-39.033333", "city": "Tarawera", "lon": "176.583333"}, {"lat": "-38.933333", "city": "Tarewa", "lon": "177.8"}, {"lat": "-46.15", "city": "Taumata", "lon": "169.466667"}, {"lat": "-45.383333", "city": "Tawhiti", "lon": "169.283333"}, {"lat": "-39.828333", "city": "Te Aute", "lon": "176.6325"}, {"lat": "-39.633333", "city": "Te Awanga", "lon": "176.983333"}, {"lat": "-34.5", "city": "Te Hapua", "lon": "172.916667"}, {"lat": "-39.133333", "city": "Te Haroto", "lon": "176.6"}, {"lat": "-39.766667", "city": "Te Hauke", "lon": "176.683333"}, {"lat": "-37.516667", "city": "Te Hoe", "lon": "175.316667"}, {"lat": "-37.75", "city": "Te Kowhai", "lon": "175.15"}, {"lat": "-41.833333", "city": "Te Kuha", "lon": "171.65"}, {"lat": "-39.066667", "city": "Te Moari", "lon": "177.033333"}, {"lat": "-39.25", "city": "Te Pohue", "lon": "176.683333"}, {"lat": "-37.683333", "city": "Te Puna", "lon": "176.083333"}, {"lat": "-39.3", "city": "Te Ranga", "lon": "175.2"}, {"lat": "-43.616667", "city": "Te Rapaki-a-Te-Rangiwhakaputa", "lon": "172.666667"}, {"lat": "-40.216667", "city": "Te Rehunga", "lon": "176.016667"}, {"lat": "-39.183333", "city": "Te Tawa", "lon": "174.216667"}, {"lat": "-46.166667", "city": "Te Tua", "lon": "167.683333"}, {"lat": "-39.816667", "city": "Tikokino", "lon": "176.45"}, {"lat": "-39.033333", "city": "Tikorangi", "lon": "174.283333"}, {"lat": "-37.433333", "city": "Tirohia", "lon": "175.65"}, {"lat": "-42.033333", "city": "Tiromoana", "lon": "171.383333"}, {"lat": "-41.833333", "city": "Tiroroa", "lon": "171.75"}, {"lat": "-36.933333", "city": "Titirangi", "lon": "174.666667"}, {"lat": "-40.433333", "city": "Ti-tree Point", "lon": "176.416667"}, {"lat": "-39.633333", "city": "Tomoana", "lon": "176.866667"}, {"lat": "-40.816667", "city": "Totaranui", "lon": "173"}, {"lat": "-41.433333", "city": "Tuamarina", "lon": "173.95"}, {"lat": "-41.433333", "city": "Tuamarino", "lon": "173.95"}, {"lat": "-46.133333", "city": "Tuatapere", "lon": "167.683333"}, {"lat": "-39.033333", "city": "Tuhara", "lon": "177.516667"}, {"lat": "-39.016667", "city": "Turiroa", "lon": "177.416667"}, {"lat": "-39.2", "city": "Tutira", "lon": "176.866667"}, {"lat": "-37.366667", "city": "Waerenga", "lon": "175.233333"}, {"lat": "-42.966667", "city": "Waikari", "lon": "172.683333"}, {"lat": "-39.066667", "city": "Waikokopu", "lon": "177.833333"}, {"lat": "-41.516667", "city": "Waimarie", "lon": "171.933333"}, {"lat": "-35.483333", "city": "Waima", "lon": "173.583333"}, {"lat": "-38.683333", "city": "Wainui Beach", "lon": "178.083333"}, {"lat": "-38.683333", "city": "Wainui Farm", "lon": "178.083333"}, {"lat": "-40.499444", "city": "Wainuio", "lon": "176.545833"}, {"lat": "-38.683333", "city": "Wainui", "lon": "178.083333"}, {"lat": "-39.566667", "city": "Waiohiki", "lon": "176.816667"}, {"lat": "-39.1", "city": "Waipai", "lon": "176.616667"}, {"lat": "-35.2", "city": "Waipapa", "lon": "173.916667"}, {"lat": "-40.35", "city": "Waipatiki", "lon": "176.283333"}, {"lat": "-41.412222", "city": "Waipawa", "lon": "175.515278"}, {"lat": "-45.183333", "city": "Waipiata", "lon": "170.166667"}, {"lat": "-37.383333", "city": "Waipuna", "lon": "175.3"}, {"lat": "-41.033333", "city": "Wairangi", "lon": "173.75"}, {"lat": "-39.033333", "city": "Wairoa", "lon": "177.366667"}, {"lat": "-45.533333", "city": "Wairunga", "lon": "170.7"}, {"lat": "-37.933333", "city": "Waitakaro", "lon": "178.266667"}, {"lat": "-44.933333", "city": "Waitaki", "lon": "171.1"}, {"lat": "-35.25", "city": "Waitangi", "lon": "174.083333"}, {"lat": "-39.059167", "city": "Waitaniwha", "lon": "177.798889"}, {"lat": "-38.266667", "city": "Waitomo", "lon": "175.1"}, {"lat": "-39.783333", "city": "Wakarara", "lon": "176.266667"}, {"lat": "-40.216667", "city": "Wallingford", "lon": "176.6"}, {"lat": "-40.016667", "city": "Wangaehu", "lon": "175.166667"}, {"lat": "-39.083333", "city": "Wangawai", "lon": "177.95"}, {"lat": "-40.133333", "city": "Wanstead", "lon": "176.533333"}, {"lat": "-40.4", "city": "Weber", "lon": "176.316667"}, {"lat": "-39.9", "city": "Westmere", "lon": "175"}, {"lat": "-39.483333", "city": "Westshore", "lon": "176.883333"}, {"lat": "-39.033333", "city": "Whakaki", "lon": "177.6"}, {"lat": "-36.15", "city": "Whakapirau", "lon": "174.25"}, {"lat": "-39.6", "city": "Whakatu", "lon": "176.883333"}, {"lat": "-40.016667", "city": "Whangaehu", "lon": "175.166667"}, {"lat": "-39.083333", "city": "Whangawehi", "lon": "177.95"}, {"lat": "-37.966667", "city": "Whareponga", "lon": "178.366667"}, {"lat": "-40.033333", "city": "Whatuma", "lon": "176.5"}, {"lat": "-35.483333", "city": "Whirinaki", "lon": "173.466667"}, {"lat": "-40.466667", "city": "Wimbledon", "lon": "176.516667"}, {"lat": "-43.983333", "city": "Windermere", "lon": "171.616667"}, {"lat": "-41.066667", "city": "Woodside", "lon": "175.4"}], "F3": [{"lat": "-38.616667", "city": "Waimiha", "lon": "175.316667"}, {"lat": "-39.933333", "city": "Wanganui", "lon": "175.05"}], "G3": [{"lat": "-46.116667", "city": "Adams Flat", "lon": "169.833333"}, {"lat": "-42.35", "city": "Ahaura", "lon": "171.533333"}, {"lat": "-42.783333", "city": "Aickens", "lon": "171.616667"}, {"lat": "-42.666667", "city": "Arahura", "lon": "171.033333"}, {"lat": "-42.333333", "city": "Atarau", "lon": "171.483333"}, {"lat": "-42.25", "city": "Barrytown", "lon": "171.333333"}, {"lat": "-42.55", "city": "Bell Hill", "lon": "171.6"}, {"lat": "-42.716667", "city": "Blue Spur", "lon": "171.033333"}, {"lat": "-43.583333", "city": "Bruce Bay", "lon": "169.683333"}, {"lat": "-42.433333", "city": "Brunnerton", "lon": "171.316667"}, {"lat": "-42.55", "city": "Camerons", "lon": "171.133333"}, {"lat": "-43.973333", "city": "Carters Mill", "lon": "168.854167"}, {"lat": "-42.616667", "city": "Chesterfield", "lon": "171.083333"}, {"lat": "-42.433333", "city": "Cobden", "lon": "171.216667"}, {"lat": "-42.45", "city": "Dobson", "lon": "171.3"}, {"lat": "-42.966667", "city": "Fergusons", "lon": "170.733333"}, {"lat": "-42.466667", "city": "Greymouth", "lon": "171.2"}, {"lat": "-43.883333", "city": "Haast", "lon": "169.05"}, {"lat": "-43.116667", "city": "Herepo", "lon": "170.55"}, {"lat": "-42.716667", "city": "Ho Ho", "lon": "171.033333"}, {"lat": "-42.683333", "city": "Hohonu", "lon": "171.266667"}, {"lat": "-42.716667", "city": "Hokitika", "lon": "170.966667"}, {"lat": "-43.966667", "city": "Huhuka", "lon": "168.916667"}, {"lat": "-42.733333", "city": "Humphreys", "lon": "171.116667"}, {"lat": "-42.733333", "city": "Inchbonnie", "lon": "171.466667"}, {"lat": "-42.75", "city": "Jacksons", "lon": "171.516667"}, {"lat": "-42.466667", "city": "Kaiata", "lon": "171.25"}, {"lat": "-42.983333", "city": "Kakapotahi", "lon": "170.7"}, {"lat": "-42.433333", "city": "Kamaka", "lon": "171.383333"}, {"lat": "-42.75", "city": "Kaniere", "lon": "171"}, {"lat": "-42.75", "city": "Kanieri", "lon": "171"}, {"lat": "-43.533333", "city": "Karangarua", "lon": "169.816667"}, {"lat": "-42.866667", "city": "Koiterangi", "lon": "171.016667"}, {"lat": "-42.833333", "city": "Kokatahi", "lon": "171.033333"}, {"lat": "-42.5", "city": "Kokiri", "lon": "171.383333"}, {"lat": "-42.866667", "city": "Kowhitirangi", "lon": "171.016667"}, {"lat": "-42.8", "city": "Lake Kaniere", "lon": "171.133333"}, {"lat": "-42.8", "city": "Lake Kanieri", "lon": "171.133333"}, {"lat": "-42.833333", "city": "Lower Kokatahi", "lon": "171.033333"}, {"lat": "-42.183333", "city": "Mahers Creek", "lon": "171.333333"}, {"lat": "-43.65", "city": "Mahitahi", "lon": "169.6"}, {"lat": "-42.666667", "city": "Maraehoko", "lon": "171.033333"}, {"lat": "-42.416667", "city": "Nelson Creek", "lon": "171.516667"}, {"lat": "-43.233333", "city": "Okarito", "lon": "170.183333"}, {"lat": "-43.9", "city": "Okuru", "lon": "168.916667"}, {"lat": "-42.833333", "city": "Otira", "lon": "171.55"}, {"lat": "-42.7", "city": "Poerua", "lon": "171.5"}, {"lat": "-43.35", "city": "Potters Creek", "lon": "170.216667"}, {"lat": "-42.1", "city": "Punakaiki", "lon": "171.333333"}, {"lat": "-42.35", "city": "Roa", "lon": "171.383333"}, {"lat": "-43.2", "city": "Rotokino", "lon": "170.366667"}, {"lat": "-42.8", "city": "Ruatapu", "lon": "170.883333"}, {"lat": "-42.666667", "city": "Stafford", "lon": "171.083333"}, {"lat": "-42.733333", "city": "Takutai", "lon": "170.95"}, {"lat": "-42.683333", "city": "Taramakau", "lon": "171.25"}, {"lat": "-43.366667", "city": "Tatare", "lon": "170.183333"}, {"lat": "-42.433333", "city": "Taylorville", "lon": "171.316667"}, {"lat": "-42.633333", "city": "Te Kinga", "lon": "171.5"}, {"lat": "-42.683333", "city": "Teramakau", "lon": "171.25"}, {"lat": "-43.216667", "city": "Te Taho", "lon": "170.433333"}, {"lat": "-42.3", "city": "Totara Flat", "lon": "171.616667"}, {"lat": "-42.733333", "city": "Turiwhate", "lon": "171.3"}, {"lat": "-42.733333", "city": "Turiwhati", "lon": "171.3"}, {"lat": "-43.983333", "city": "Waiatoto", "lon": "168.766667"}, {"lat": "-42.766667", "city": "Wainihinihi", "lon": "171.333333"}, {"lat": "-42.466667", "city": "Wallsend", "lon": "171.3"}], "G2": [{"lat": "-45.883333", "city": "Abbotsford", "lon": "170.416667"}, {"lat": "-39.633333", "city": "Ahuiti", "lon": "175"}, {"lat": "-39.7", "city": "Ahurangi", "lon": "175.116667"}, {"lat": "-40.6", "city": "Akitio", "lon": "176.416667"}, {"lat": "-40.683333", "city": "Alfredton", "lon": "175.85"}, {"lat": "-40.676944", "city": "Aohanga", "lon": "176.351111"}, {"lat": "-40.366667", "city": "Aokautere", "lon": "175.666667"}, {"lat": "-39.916667", "city": "Aramoho", "lon": "175.05"}, {"lat": "-41.266667", "city": "Arapito", "lon": "172.166667"}, {"lat": "-39.516667", "city": "Ararata", "lon": "174.366667"}, {"lat": "-45.816667", "city": "Ardlussa", "lon": "168.65"}, {"lat": "-40.3", "city": "Ashhurst", "lon": "175.75"}, {"lat": "-40.266667", "city": "Awahuri", "lon": "175.516667"}, {"lat": "-35.583333", "city": "Awarua", "lon": "173.85"}, {"lat": "-40.416667", "city": "Bainesse", "lon": "175.383333"}, {"lat": "-45.833333", "city": "Balfour", "lon": "168.583333"}, {"lat": "-40.4", "city": "Ballance", "lon": "175.8"}, {"lat": "-45.083333", "city": "Bannockburn", "lon": "169.166667"}, {"lat": "-36.8075", "city": "Belmont", "lon": "174.786389"}, {"lat": "-46.233333", "city": "Benhar", "lon": "169.8"}, {"lat": "-41.316667", "city": "Berhampore", "lon": "174.783333"}, {"lat": "-40.866667", "city": "Bideford", "lon": "175.866667"}, {"lat": "-45.933333", "city": "Birchwood", "lon": "167.866667"}, {"lat": "-36.788889", "city": "Blackpool", "lon": "175.014444"}, {"lat": "-41.383333", "city": "Brightwater", "lon": "173.116667"}, {"lat": "-41.316667", "city": "Brooklyn", "lon": "174.75"}, {"lat": "-43.7", "city": "Brookside", "lon": "172.3"}, {"lat": "-39.85", "city": "Brunswick", "lon": "175.016667"}, {"lat": "-40.166667", "city": "Bulls", "lon": "175.383333"}, {"lat": "-40.166667", "city": "Bulls Town District", "lon": "175.383333"}, {"lat": "-40.283333", "city": "Bunnythorpe", "lon": "175.633333"}, {"lat": "-41.316667", "city": "Bush Gully", "lon": "175.65"}, {"lat": "-40.283333", "city": "Carnarvon", "lon": "175.316667"}, {"lat": "-40.933333", "city": "Carswells", "lon": "175.916667"}, {"lat": "-43.583333", "city": "Cashmere", "lon": "172.633333"}, {"lat": "-43.583333", "city": "Cashmere Hills", "lon": "172.633333"}, {"lat": "-39.95", "city": "Castlecliff", "lon": "174.983333"}, {"lat": "-43.233333", "city": "Castle Hill", "lon": "171.716667"}, {"lat": "-40.9", "city": "Castlepoint", "lon": "176.216667"}, {"lat": "-41.016667", "city": "Clareville", "lon": "175.55"}, {"lat": "-40.066667", "city": "Cliff Road", "lon": "175.416667"}, {"lat": "-40.233333", "city": "Colyton", "lon": "175.65"}, {"lat": "-39.666667", "city": "Corinth", "lon": "175.166667"}, {"lat": "-43.1", "city": "Craigieburn", "lon": "171.866667"}, {"lat": "-40.1", "city": "Crofton", "lon": "175.383333"}, {"lat": "-41.166667", "city": "Cross Creek", "lon": "175.216667"}, {"lat": "-40.083333", "city": "Cunninghams", "lon": "175.65"}, {"lat": "-41.05", "city": "Dalefield", "lon": "175.483333"}, {"lat": "-41.266667", "city": "Days Bay", "lon": "174.916667"}, {"lat": "-46.316667", "city": "Edendale", "lon": "168.783333"}, {"lat": "-46.316667", "city": "Edendale Town District", "lon": "168.783333"}, {"lat": "-43.683333", "city": "Ellesmere", "lon": "172.366667"}, {"lat": "-39.516667", "city": "Erehwon", "lon": "175.966667"}, {"lat": "-39.233333", "city": "Erua", "lon": "175.4"}, {"lat": "-44.1", "city": "Fairlie", "lon": "170.833333"}, {"lat": "-39.966667", "city": "Fordell", "lon": "175.2"}, {"lat": "-45.216667", "city": "Galloway", "lon": "169.45"}, {"lat": "-41.083333", "city": "Gladstone", "lon": "175.65"}, {"lat": "-36.916667", "city": "Glen Eden", "lon": "174.65"}, {"lat": "-36.916667", "city": "Glen Eden Town District", "lon": "174.65"}, {"lat": "-40.333333", "city": "Glen Oroua", "lon": "175.4"}, {"lat": "-40.333333", "city": "Glenorve", "lon": "175.4"}, {"lat": "-41.233333", "city": "Gracefield", "lon": "174.916667"}, {"lat": "-40.133333", "city": "Greatford", "lon": "175.416667"}, {"lat": "-46.55", "city": "Greenhills", "lon": "168.3"}, {"lat": "-46.9", "city": "Half-moon Bay", "lon": "168.133333"}, {"lat": "-40.716667", "city": "Hastwell", "lon": "175.7"}, {"lat": "-40.716667", "city": "Hastwells", "lon": "175.7"}, {"lat": "-41.3", "city": "Hataitai", "lon": "174.8"}, {"lat": "-41.15", "city": "Haywards", "lon": "174.983333"}, {"lat": "-41.15", "city": "Heretaunga", "lon": "175.033333"}, {"lat": "-39.566667", "city": "Hihitahi", "lon": "175.7"}, {"lat": "-38.95", "city": "Hikumutu", "lon": "175.283333"}, {"lat": "-40.4", "city": "Himatangi", "lon": "175.316667"}, {"lat": "-41.3", "city": "Hinakura", "lon": "175.633333"}, {"lat": "-40.583333", "city": "Hokio", "lon": "175.183333"}, {"lat": "-46.116667", "city": "Hokonui", "lon": "168.483333"}, {"lat": "-41.266667", "city": "Homedale", "lon": "174.95"}, {"lat": "-41.366667", "city": "Hope", "lon": "173.15"}, {"lat": "-39.35", "city": "Horopito", "lon": "175.383333"}, {"lat": "-39.05", "city": "Hukapapa", "lon": "175.383333"}, {"lat": "-39.933333", "city": "Hunterville", "lon": "175.566667"}, {"lat": "-39.933333", "city": "Hunterville Town District", "lon": "175.566667"}, {"lat": "-39.55", "city": "Jerusalem", "lon": "175.066667"}, {"lat": "-41.233333", "city": "Johnsonville", "lon": "174.783333"}, {"lat": "-41.233333", "city": "Johnsonville Town District", "lon": "174.783333"}, {"lat": "-41.116667", "city": "Judgeford", "lon": "174.933333"}, {"lat": "-42.683333", "city": "Kaihinu", "lon": "171.016667"}, {"lat": "-39.866667", "city": "Kai Iwi Beach", "lon": "174.9"}, {"lat": "-39.85", "city": "Kai Iwi", "lon": "174.933333"}, {"lat": "-39.9", "city": "Kaikarangi", "lon": "175.6"}, {"lat": "-40.35", "city": "Kairanga", "lon": "175.533333"}, {"lat": "-39.1", "city": "Kaitieke", "lon": "175.266667"}, {"lat": "-41.466667", "city": "Kaituna", "lon": "173.783333"}, {"lat": "-41.266667", "city": "Kaiwarawara", "lon": "174.783333"}, {"lat": "-41.266667", "city": "Kaiwarra", "lon": "174.783333"}, {"lat": "-41.266667", "city": "Kaiwhara", "lon": "174.783333"}, {"lat": "-41.266667", "city": "Kaiwharawhara", "lon": "174.783333"}, {"lat": "-38.916667", "city": "Kakahi", "lon": "175.383333"}, {"lat": "-39.716667", "city": "Kakaramea", "lon": "174.45"}, {"lat": "-39.683333", "city": "Kakatahi", "lon": "175.333333"}, {"lat": "-46.333333", "city": "Kamahi", "lon": "168.716667"}, {"lat": "-39.866667", "city": "Karewarewa", "lon": "175.95"}, {"lat": "-39.45", "city": "Karioi", "lon": "175.516667"}, {"lat": "-41.283333", "city": "Karori", "lon": "174.733333"}, {"lat": "-39.916667", "city": "Kauangaroa", "lon": "175.3"}, {"lat": "-37.4", "city": "Kauwhata", "lon": "175.15"}, {"lat": "-41.283333", "city": "Kelburn", "lon": "174.766667"}, {"lat": "-41.25", "city": "Khandallah", "lon": "174.783333"}, {"lat": "-41.316667", "city": "Kilbirnie", "lon": "174.8"}, {"lat": "-40.05", "city": "Kimbolton", "lon": "175.783333"}, {"lat": "-45.333333", "city": "Kingston", "lon": "168.7"}, {"lat": "-39.016667", "city": "Kirikau", "lon": "175.133333"}, {"lat": "-40.116667", "city": "Kiwitea", "lon": "175.733333"}, {"lat": "-37.183333", "city": "Kohekohe", "lon": "174.65"}, {"lat": "-39.033333", "city": "Kokakoriki", "lon": "175.116667"}, {"lat": "-45.183333", "city": "Komako", "lon": "170.166667"}, {"lat": "-40.833333", "city": "Kopuaranga", "lon": "175.666667"}, {"lat": "-40.583333", "city": "Koputaroa", "lon": "175.333333"}, {"lat": "-39.666667", "city": "Koriniti", "lon": "175.166667"}, {"lat": "-41.216667", "city": "Korokoro", "lon": "174.866667"}, {"lat": "-42.55", "city": "Kotuku", "lon": "171.466667"}, {"lat": "-43.883333", "city": "Laghmor", "lon": "171.633333"}, {"lat": "-45.05", "city": "Lauder", "lon": "169.666667"}, {"lat": "-43.733333", "city": "Lauriston", "lon": "171.783333"}, {"lat": "-40.033333", "city": "Lethbridge", "lon": "175.216667"}, {"lat": "-40.633333", "city": "Levin", "lon": "175.275"}, {"lat": "-40.433333", "city": "Linton", "lon": "175.55"}, {"lat": "-44.966667", "city": "Livingstone", "lon": "170.583333"}, {"lat": "-46.2", "city": "Lochiel", "lon": "168.333333"}, {"lat": "-40.383333", "city": "Longburn", "lon": "175.55"}, {"lat": "-46.383333", "city": "Longbush", "lon": "168.5"}, {"lat": "-44.916667", "city": "Long Gully", "lon": "168.683333"}, {"lat": "-41.216667", "city": "Lower Hutt City", "lon": "174.916667"}, {"lat": "-41.216667", "city": "Lower Hutt", "lon": "174.916667"}, {"lat": "-42.15", "city": "Maimai", "lon": "171.75"}, {"lat": "-46.333333", "city": "Makarewa", "lon": "168.35"}, {"lat": "-40.533333", "city": "Makuri", "lon": "176.016667"}, {"lat": "-40.733333", "city": "Mangamahoe", "lon": "175.716667"}, {"lat": "-40.45", "city": "Mangamutu", "lon": "175.8"}, {"lat": "-39.066667", "city": "Mangaohutu", "lon": "175.116667"}, {"lat": "-39.9", "city": "Mangaonoho", "lon": "175.65"}, {"lat": "-39.75", "city": "Mangapani", "lon": "174.833333"}, {"lat": "-39.216667", "city": "Mangapurua", "lon": "175.1"}, {"lat": "-41.733333", "city": "Mangarata", "lon": "172.4"}, {"lat": "-41.116667", "city": "Mangaroa", "lon": "175.116667"}, {"lat": "-40.433333", "city": "Mangatainoka", "lon": "175.866667"}, {"lat": "-40.55", "city": "Mangatiti", "lon": "176.116667"}, {"lat": "-39.8", "city": "Mangaweka", "lon": "175.783333"}, {"lat": "-39.8", "city": "Mangaweka Town District", "lon": "175.783333"}, {"lat": "-40.4", "city": "Mangawhata", "lon": "175.433333"}, {"lat": "-39.716667", "city": "Mangawhio", "lon": "174.716667"}, {"lat": "-39.8", "city": "Mangweka", "lon": "175.783333"}, {"lat": "-38.883333", "city": "Manunui", "lon": "175.333333"}, {"lat": "-38.883333", "city": "Manunui Town District", "lon": "175.333333"}, {"lat": "-35.333333", "city": "Marangai", "lon": "173.716667"}, {"lat": "-40.959722", "city": "Masterton", "lon": "175.6575"}, {"lat": "-39.633333", "city": "Matahiwi Landing", "lon": "175.166667"}, {"lat": "-39.6", "city": "Matahiwi", "lon": "175.15"}, {"lat": "-43.266667", "city": "Matainui", "lon": "170.366667"}, {"lat": "-41.05", "city": "Matarawa", "lon": "175.45"}, {"lat": "-39.65", "city": "Mataroa", "lon": "175.733333"}, {"lat": "-40.783333", "city": "Mauriceville East", "lon": "175.7"}, {"lat": "-40.783333", "city": "Mauriceville", "lon": "175.7"}, {"lat": "-40.766667", "city": "Mauriceville West", "lon": "175.683333"}, {"lat": "-39.816667", "city": "Maxwell", "lon": "174.866667"}, {"lat": "-41.316667", "city": "Miramar", "lon": "174.816667"}, {"lat": "-39.583333", "city": "Moawhango", "lon": "175.866667"}, {"lat": "-45.366667", "city": "Moeraki", "lon": "170.85"}, {"lat": "-38.533333", "city": "Mokai", "lon": "175.9"}, {"lat": "-39.633333", "city": "Mokoia", "lon": "174.366667"}, {"lat": "-39.783333", "city": "Momahaki", "lon": "174.683333"}, {"lat": "-39.566667", "city": "Morikau", "lon": "175.1"}, {"lat": "-45.883333", "city": "Mornington", "lon": "170.466667"}, {"lat": "-44.833333", "city": "Morven", "lon": "171.116667"}, {"lat": "-39.783333", "city": "Moumahaki", "lon": "174.683333"}, {"lat": "-40.5", "city": "Moutoa", "lon": "175.383333"}, {"lat": "-39.866667", "city": "Mowhanau", "lon": "174.9"}, {"lat": "-41.116667", "city": "Mungaroa", "lon": "175.116667"}, {"lat": "-39.55", "city": "Murimotu", "lon": "175.683333"}, {"lat": "-39.266667", "city": "Murumuru", "lon": "175.133333"}, {"lat": "-39.183333", "city": "National Park", "lon": "175.4"}, {"lat": "-40.616667", "city": "Newman", "lon": "175.716667"}, {"lat": "-41.25", "city": "Ngahauranga", "lon": "174.816667"}, {"lat": "-38.85", "city": "Ngapuke", "lon": "175.466667"}, {"lat": "-34.733333", "city": "Ngataki", "lon": "173.05"}, {"lat": "-40.466667", "city": "Ngaturi", "lon": "175.916667"}, {"lat": "-41.25", "city": "Ngauranga", "lon": "174.816667"}, {"lat": "-39.75", "city": "Ngutuwera", "lon": "174.733333"}, {"lat": "-45.966667", "city": "Nightcaps", "lon": "168.033333"}, {"lat": "-45.966667", "city": "Nightcaps Town District", "lon": "168.033333"}, {"lat": "-40.616667", "city": "Nireaha", "lon": "175.65"}, {"lat": "-36.815278", "city": "Northcote", "lon": "174.745833"}, {"lat": "-41.283333", "city": "Northland", "lon": "174.75"}, {"lat": "-43.65", "city": "Norwood", "lon": "172.25"}, {"lat": "-39.833333", "city": "Nukumaru", "lon": "174.8"}, {"lat": "-46.9", "city": "Oban", "lon": "168.133333"}, {"lat": "-40.2", "city": "Ohakea", "lon": "175.4"}, {"lat": "-41.2", "city": "Ohariu", "lon": "174.766667"}, {"lat": "-40.666667", "city": "Ohau", "lon": "175.25"}, {"lat": "-39.583333", "city": "Ohawe Beach", "lon": "174.2"}, {"lat": "-39.583333", "city": "Ohawe", "lon": "174.2"}, {"lat": "-39.866667", "city": "Ohingaiti", "lon": "175.716667"}, {"lat": "-36.7", "city": "Ohirangi", "lon": "174.45"}, {"lat": "-39.716667", "city": "Ohotu", "lon": "175.85"}, {"lat": "-39.05", "city": "Oio", "lon": "175.416667"}, {"lat": "-39.933333", "city": "Okoia", "lon": "175.133333"}, {"lat": "-41.2", "city": "Okukari", "lon": "174.3"}, {"lat": "-39.1", "city": "Omata", "lon": "174.016667"}, {"lat": "-36.816667", "city": "Omiha", "lon": "175.066667"}, {"lat": "-39.416667", "city": "Omoana", "lon": "174.583333"}, {"lat": "-41.116667", "city": "Onauku", "lon": "174.366667"}, {"lat": "-36.783333", "city": "Onetangi", "lon": "175.083333"}, {"lat": "-39.666667", "city": "Orangimea", "lon": "174.866667"}, {"lat": "-46.133333", "city": "Oreti", "lon": "168.233333"}, {"lat": "-40.366667", "city": "Oroua Downs", "lon": "175.316667"}, {"lat": "-40.75", "city": "Otaki Beach", "lon": "175.116667"}, {"lat": "-41.183333", "city": "Otanerau", "lon": "174.333333"}, {"lat": "-39.033333", "city": "Otukou", "lon": "175.65"}, {"lat": "-44.033333", "city": "Ouwenga", "lon": "-176.366667"}, {"lat": "-39", "city": "Owhango", "lon": "175.383333"}, {"lat": "-45.416667", "city": "Paerau", "lon": "169.95"}, {"lat": "-41.1", "city": "Pahautanui", "lon": "174.916667"}, {"lat": "-41.233333", "city": "Pahautea", "lon": "175.383333"}, {"lat": "-39.933333", "city": "Pakihikura", "lon": "175.716667"}, {"lat": "-40.35", "city": "Palmerston North City", "lon": "175.616667"}, {"lat": "-40.35", "city": "Palmerston North", "lon": "175.616667"}, {"lat": "-39.7", "city": "Paparangi", "lon": "174.966667"}, {"lat": "-41.116667", "city": "Paremata", "lon": "174.866667"}, {"lat": "-38.966667", "city": "Patunga", "lon": "175.233333"}, {"lat": "-41.1", "city": "Pauatahanui", "lon": "174.916667"}, {"lat": "-39.05", "city": "Pehu", "lon": "174.566667"}, {"lat": "-36.916667", "city": "Penrose", "lon": "174.816667"}, {"lat": "-41.233333", "city": "Petone", "lon": "174.883333"}, {"lat": "-41.15", "city": "Pigeon Bush", "lon": "175.266667"}, {"lat": "-39.266667", "city": "Pikiariki", "lon": "175.216667"}, {"lat": "-39.483333", "city": "Pipiriki", "lon": "175.05"}, {"lat": "-38.916667", "city": "Piriaka", "lon": "175.35"}, {"lat": "-41.35", "city": "Pirinoa", "lon": "175.2"}, {"lat": "-41.083333", "city": "Plimmerton", "lon": "174.866667"}, {"lat": "-40.166667", "city": "Pohangina", "lon": "175.8"}, {"lat": "-39.3", "city": "Pokaka", "lon": "175.4"}, {"lat": "-40.55", "city": "Pongaroa", "lon": "176.183333"}, {"lat": "-41.133333", "city": "Porirua Pa", "lon": "174.833333"}, {"lat": "-41.133333", "city": "Porirua", "lon": "174.85"}, {"lat": "-39.866667", "city": "Poukiore", "lon": "175.633333"}, {"lat": "-39.066667", "city": "Poutu", "lon": "175.75"}, {"lat": "-39.783333", "city": "Pukeroa", "lon": "175.5"}, {"lat": "-41.033333", "city": "Pukerua Bay", "lon": "174.9"}, {"lat": "-36.8", "city": "Putiki", "lon": "175.066667"}, {"lat": "-43.75", "city": "Rakaia", "lon": "172.016667"}, {"lat": "-40.6", "city": "Rakaunui", "lon": "176.133333"}, {"lat": "-43.816667", "city": "Rakautahi", "lon": "-176.583333"}, {"lat": "-39.55", "city": "Raketapauma", "lon": "175.583333"}, {"lat": "-39.433333", "city": "Rangataua", "lon": "175.466667"}, {"lat": "-40.416667", "city": "Rangiotu", "lon": "175.433333"}, {"lat": "-39.766667", "city": "Rangitatau", "lon": "174.8"}, {"lat": "-39.9", "city": "Rangiwahia", "lon": "175.916667"}, {"lat": "-42.366667", "city": "Rapahoe", "lon": "171.25"}, {"lat": "-39.883333", "city": "Rapanui", "lon": "174.933333"}, {"lat": "-40.045833", "city": "Ratana", "lon": "175.175"}, {"lat": "-40.216667", "city": "Raumai", "lon": "175.766667"}, {"lat": "-39.116667", "city": "Raurimu", "lon": "175.4"}, {"lat": "-39.116667", "city": "Raurimu Spiral", "lon": "175.4"}, {"lat": "-42.383333", "city": "Rawanui", "lon": "171.316667"}, {"lat": "-40.9", "city": "Reikorangi", "lon": "175.083333"}, {"lat": "-41.5", "city": "Renwick", "lon": "173.833333"}, {"lat": "-41.5", "city": "Renwicktown", "lon": "173.833333"}, {"lat": "-42.383333", "city": "Rewanui", "lon": "171.316667"}, {"lat": "-39.983333", "city": "Rewa", "lon": "175.633333"}, {"lat": "-40.15", "city": "Ridgelands", "lon": "175.6"}, {"lat": "-40.3", "city": "Rongotea", "lon": "175.416667"}, {"lat": "-42.65", "city": "Rotomanu", "lon": "171.533333"}, {"lat": "-43.866667", "city": "Ruapuna", "lon": "171.35"}, {"lat": "-35.65", "city": "Ruatangata", "lon": "174.183333"}, {"lat": "-40.216667", "city": "Sanson", "lon": "175.416667"}, {"lat": "-41.316667", "city": "Seatoun", "lon": "174.833333"}, {"lat": "-39.033333", "city": "Sentry Hill", "lon": "174.2"}, {"lat": "-39.966667", "city": "Silverhope", "lon": "175.533333"}, {"lat": "-41.15", "city": "Silverstream", "lon": "175"}, {"lat": "-43.75", "city": "South Rakaia", "lon": "172.016667"}, {"lat": "-43.316667", "city": "Springbank", "lon": "172.433333"}, {"lat": "-41.383333", "city": "Spring Grove", "lon": "173.083333"}, {"lat": "-46.183333", "city": "Springhills", "lon": "168.483333"}, {"lat": "-43.316667", "city": "Stoke", "lon": "172.466667"}, {"lat": "-36.783333", "city": "Surfdale", "lon": "175"}, {"lat": "-37.5", "city": "Tahuna", "lon": "175.483333"}, {"lat": "-41.2", "city": "Taita", "lon": "174.95"}, {"lat": "-40.4", "city": "Takitahuna", "lon": "175.5"}, {"lat": "-40.6", "city": "Tane", "lon": "175.833333"}, {"lat": "-40.3", "city": "Tangimoana", "lon": "175.25"}, {"lat": "-35.733333", "city": "Taranui", "lon": "174.466667"}, {"lat": "-39.15", "city": "Tarata", "lon": "174.366667"}, {"lat": "-40.133333", "city": "Tataramoa", "lon": "176.15"}, {"lat": "-40.966667", "city": "Taueru", "lon": "175.8"}, {"lat": "-39", "city": "Taupahi", "lon": "175.933333"}, {"lat": "-40.966667", "city": "Tauweru", "lon": "175.8"}, {"lat": "-46.466667", "city": "Tawanui", "lon": "169.533333"}, {"lat": "-39.633333", "city": "Tawhiwhi", "lon": "174.8"}, {"lat": "-41.216667", "city": "Te Awaiti", "lon": "174.283333"}, {"lat": "-38.1", "city": "Te Kawa", "lon": "175.283333"}, {"lat": "-36.033333", "city": "Te Kopura", "lon": "173.933333"}, {"lat": "-41.25", "city": "Te Pangu", "lon": "174.233333"}, {"lat": "-40.35", "city": "Terrace End", "lon": "175.616667"}, {"lat": "-46.2", "city": "Te Waewae", "lon": "167.666667"}, {"lat": "-41.25", "city": "Te Weka", "lon": "174.2"}, {"lat": "-36.6", "city": "Te Whanga", "lon": "174.833333"}, {"lat": "-40.4", "city": "Tiakitahuna", "lon": "175.5"}, {"lat": "-40.633333", "city": "Tiraumea", "lon": "176.05"}, {"lat": "-46.433333", "city": "Tirohanga", "lon": "169.8"}, {"lat": "-41.1", "city": "Titahi Bay", "lon": "174.833333"}, {"lat": "-46.4", "city": "Toa", "lon": "168.516667"}, {"lat": "-39", "city": "Tokaanu Junction", "lon": "175.933333"}, {"lat": "-38.966667", "city": "Tokaanu", "lon": "175.766667"}, {"lat": "-40.466667", "city": "Tokomaru", "lon": "175.5"}, {"lat": "-39", "city": "Tongariro Bridge", "lon": "175.933333"}, {"lat": "-41.133333", "city": "Trentham", "lon": "175.033333"}, {"lat": "-43.333333", "city": "Tuahiwi", "lon": "172.65"}, {"lat": "-40.05", "city": "Turakina South", "lon": "175.216667"}, {"lat": "-40.033333", "city": "Turakina", "lon": "175.216667"}, {"lat": "-39", "city": "Turangi", "lon": "175.933333"}, {"lat": "-46.25", "city": "Tussock Creek", "lon": "168.416667"}, {"lat": "-40", "city": "Umutoi", "lon": "175.966667"}, {"lat": "-39.866667", "city": "Upokongaro", "lon": "175.133333"}, {"lat": "-42.366667", "city": "Upper Rewanui", "lon": "171.316667"}, {"lat": "-39.2", "city": "Upper Ruatiti", "lon": "175.2"}, {"lat": "-40.906944", "city": "Upper Tauheru", "lon": "175.811111"}, {"lat": "-39.733333", "city": "Utiku", "lon": "175.85"}, {"lat": "-40.016667", "city": "Utuwai", "lon": "175.933333"}, {"lat": "-41.266667", "city": "Wadestown", "lon": "174.766667"}, {"lat": "-39.65", "city": "Waihapai", "lon": "175.066667"}, {"lat": "-37.383333", "city": "Waihi", "lon": "175.833333"}, {"lat": "-45.733333", "city": "Waikaia", "lon": "168.85"}, {"lat": "-40.883333", "city": "Waikanae", "lon": "175.066667"}, {"lat": "-36.75", "city": "Waikoukou", "lon": "174.5"}, {"lat": "-43.3", "city": "Waikuku", "lon": "172.683333"}, {"lat": "-39.8", "city": "Waimarama", "lon": "176.983333"}, {"lat": "-40.45", "city": "Waimiro", "lon": "176.233333"}, {"lat": "-41.266667", "city": "Wainuiomata", "lon": "174.95"}, {"lat": "-37.216667", "city": "Waipipi", "lon": "174.666667"}, {"lat": "-45.833333", "city": "Waipori", "lon": "169.883333"}, {"lat": "-46", "city": "Wairio", "lon": "168.033333"}, {"lat": "-39.75", "city": "Waitahinga", "lon": "174.95"}, {"lat": "-40.55", "city": "Waitarere", "lon": "175.2"}, {"lat": "-40.05", "city": "Waituna West", "lon": "175.616667"}, {"lat": "-45.733333", "city": "Wakaia", "lon": "168.85"}, {"lat": "-41.133333", "city": "Wallaceville", "lon": "175.05"}, {"lat": "-41.3", "city": "Wellington", "lon": "174.783333"}, {"lat": "-46.597222", "city": "West End", "lon": "168.329167"}, {"lat": "-45.733333", "city": "Whakaea", "lon": "168.85"}, {"lat": "-39.1", "city": "Whakahoro", "lon": "175.066667"}, {"lat": "-40.333333", "city": "Whakarongo", "lon": "175.666667"}, {"lat": "-40.866667", "city": "Whakataki", "lon": "176.233333"}, {"lat": "-41.916667", "city": "Wharanui", "lon": "174.1"}, {"lat": "-40.933333", "city": "Whareama", "lon": "176.05"}, {"lat": "-36.716667", "city": "Wharepapa", "lon": "174.433333"}, {"lat": "-39.616667", "city": "Whareroa", "lon": "174.266667"}, {"lat": "-45.883333", "city": "Wingatui", "lon": "170.383333"}, {"lat": "-37.533333", "city": "Woodleigh", "lon": "174.916667"}, {"lat": "-42.766667", "city": "Woodstock", "lon": "171"}], "G1": [{"lat": "-37.916667", "city": "Aotea", "lon": "174.8"}, {"lat": "-37.783333", "city": "Hamilton City", "lon": "175.283333"}, {"lat": "-37.783333", "city": "Hamilton", "lon": "175.283333"}, {"lat": "-37.783333", "city": "Newstead", "lon": "175.35"}, {"lat": "-37.65", "city": "Piako", "lon": "175.55"}, {"lat": "-37.233333", "city": "Pukeowhare", "lon": "174.75"}, {"lat": "-37.4", "city": "Te Kaiwhata", "lon": "175.15"}, {"lat": "-37.4", "city": "Te Kauwhata", "lon": "175.15"}, {"lat": "-37.4", "city": "Te Kauwhata Town District", "lon": "175.15"}, {"lat": "-37.25", "city": "Waiuku Town District", "lon": "174.75"}, {"lat": "-37.25", "city": "Waiuku", "lon": "174.75"}], "F7": [{"lat": "-40.95", "city": "Admiralty Bay", "lon": "173.916667"}, {"lat": "-46.15", "city": "Akatore", "lon": "170.116667"}, {"lat": "-44.683333", "city": "Albert Town", "lon": "169.2"}, {"lat": "-43.65", "city": "Allandale", "lon": "172.65"}, {"lat": "-45.916667", "city": "Allanton", "lon": "170.266667"}, {"lat": "-45.116667", "city": "Alma", "lon": "170.916667"}, {"lat": "-44.983333", "city": "Arthurs Point", "lon": "168.666667"}, {"lat": "-46.116667", "city": "Arthurton", "lon": "169.166667"}, {"lat": "-45.516667", "city": "Athol", "lon": "168.583333"}, {"lat": "-46.1", "city": "Awamangu", "lon": "169.65"}, {"lat": "-44.933333", "city": "Awamoko", "lon": "170.883333"}, {"lat": "-46.1", "city": "Awamunga", "lon": "169.65"}, {"lat": "-46.233889", "city": "Balclutha", "lon": "169.75"}, {"lat": "-46.233333", "city": "Barnego", "lon": "169.716667"}, {"lat": "-46.233333", "city": "Barnego Flat", "lon": "169.716667"}, {"lat": "-45", "city": "Becks", "lon": "169.733333"}, {"lat": "-44.916667", "city": "Bendigo", "lon": "169.35"}, {"lat": "-44.35", "city": "Benmore Stream", "lon": "170"}, {"lat": "-44.533333", "city": "Berwen", "lon": "169.866667"}, {"lat": "-45.95", "city": "Berwick", "lon": "170.1"}, {"lat": "-44.95", "city": "Blackstone Hill", "lon": "169.916667"}, {"lat": "-44.566667", "city": "Bog Roy", "lon": "170.1"}, {"lat": "-44.883333", "city": "Bortons", "lon": "170.766667"}, {"lat": "-42.033333", "city": "Brighton", "lon": "171.383333"}, {"lat": "-45.85", "city": "Broad Bay", "lon": "170.616667"}, {"lat": "-46.183333", "city": "Bull Creek", "lon": "170.133333"}, {"lat": "-44.9", "city": "Cambrian", "lon": "169.75"}, {"lat": "-45.9", "city": "Caversham", "lon": "170.483333"}, {"lat": "-46.583333", "city": "Chaslands", "lon": "169.333333"}, {"lat": "-45.133333", "city": "Chatto Creek", "lon": "169.516667"}, {"lat": "-45.733333", "city": "Clarke's", "lon": "170.05"}, {"lat": "-45.733333", "city": "Clarks", "lon": "170.05"}, {"lat": "-45.733333", "city": "Clarks Junction", "lon": "170.05"}, {"lat": "-46.133333", "city": "Clarksville", "lon": "169.916667"}, {"lat": "-44.35", "city": "Clearburn", "lon": "170"}, {"lat": "-45.183333", "city": "Clyde", "lon": "169.316667"}, {"lat": "-46.1", "city": "Clydevale", "lon": "169.533333"}, {"lat": "-45.483333", "city": "Coal Creek Flat", "lon": "169.3"}, {"lat": "-45.083333", "city": "Cormacks", "lon": "170.9"}, {"lat": "-45.116667", "city": "Deborah", "lon": "170.933333"}, {"lat": "-44.983333", "city": "Drybread", "lon": "169.616667"}, {"lat": "-45.6", "city": "Dumbarton", "lon": "169.316667"}, {"lat": "-45.383333", "city": "Dunback", "lon": "170.633333"}, {"lat": "-45.866667", "city": "Dunedin", "lon": "170.5"}, {"lat": "-45.8", "city": "Dunrobin", "lon": "169.316667"}, {"lat": "-45.216667", "city": "Earnscleugh", "lon": "169.316667"}, {"lat": "-45.216667", "city": "Earnscleugh Settlement", "lon": "169.316667"}, {"lat": "-45.9", "city": "East Taieri", "lon": "170.333333"}, {"lat": "-45.8", "city": "Edievale", "lon": "169.366667"}, {"lat": "-45.95", "city": "Forsyth", "lon": "169.733333"}, {"lat": "-45.016667", "city": "Frankton", "lon": "168.716667"}, {"lat": "-45.016667", "city": "Frankton Wharf", "lon": "168.716667"}, {"lat": "-45.35", "city": "Fruitlands", "lon": "169.3"}, {"lat": "-44.916667", "city": "Georgetown", "lon": "170.85"}, {"lat": "-45.033333", "city": "Gibbston", "lon": "168.966667"}, {"lat": "-45.166667", "city": "Gimmerburn", "lon": "170"}, {"lat": "-45.966667", "city": "Glenkenich", "lon": "169.233333"}, {"lat": "-46.183333", "city": "Glenledi", "lon": "170.083333"}, {"lat": "-46.383333", "city": "Glenomaru", "lon": "169.683333"}, {"lat": "-45.55", "city": "Goodwood", "lon": "170.716667"}, {"lat": "-46.1", "city": "Greenfield", "lon": "169.583333"}, {"lat": "-40.983333", "city": "Hamilton Bay", "lon": "173.85"}, {"lat": "-41.8", "city": "Hampden", "lon": "172.333333"}, {"lat": "-44.65", "city": "Hawea Flat", "lon": "169.3"}, {"lat": "-43.583333", "city": "Heathcote", "lon": "172.716667"}, {"lat": "-45.983333", "city": "Henley", "lon": "170.166667"}, {"lat": "-45.233333", "city": "Herbert", "lon": "170.783333"}, {"lat": "-45.833333", "city": "Heriot", "lon": "169.266667"}, {"lat": "-45.833333", "city": "Herriot", "lon": "169.266667"}, {"lat": "-45.883333", "city": "Highcliff", "lon": "170.583333"}, {"lat": "-44.983333", "city": "Hilderthorpe", "lon": "171.066667"}, {"lat": "-46.133333", "city": "Hillend", "lon": "169.75"}, {"lat": "-46.483333", "city": "Hinahina", "lon": "169.666667"}, {"lat": "-45.733333", "city": "Hindon", "lon": "170.3"}, {"lat": "-45.716667", "city": "Hindon Railway", "lon": "170.333333"}, {"lat": "-46.483333", "city": "Houipapa", "lon": "169.566667"}, {"lat": "-46.416667", "city": "Hunts Road", "lon": "169.666667"}, {"lat": "-45.3", "city": "Hyde", "lon": "170.25"}, {"lat": "-45.033333", "city": "Idaburn Valley", "lon": "169.833333"}, {"lat": "-45.033333", "city": "Ida Valley", "lon": "169.833333"}, {"lat": "-44.95", "city": "Island Cliff", "lon": "170.666667"}, {"lat": "-44.4", "city": "Jamestown", "lon": "168.05"}, {"lat": "-46.516667", "city": "Kahuika", "lon": "169.466667"}, {"lat": "-46.233333", "city": "Kaihiku", "lon": "169.55"}, {"lat": "-46.383333", "city": "Kaka Point", "lon": "169.783333"}, {"lat": "-46.266667", "city": "Kakapuaka", "lon": "169.716667"}, {"lat": "-45.4", "city": "Kartigi", "lon": "170.833333"}, {"lat": "-46.416667", "city": "Katea", "lon": "169.633333"}, {"lat": "-45.4", "city": "Katiki", "lon": "170.833333"}, {"lat": "-45.1", "city": "Kauru Hill", "lon": "170.75"}, {"lat": "-45.9", "city": "Kelso", "lon": "169.233333"}, {"lat": "-45.966667", "city": "Kononi", "lon": "169.533333"}, {"lat": "-46.033333", "city": "Kuri Bush", "lon": "170.233333"}, {"lat": "-45", "city": "Kyeburn Diggings", "lon": "170.283333"}, {"lat": "-45.15", "city": "Kyeburn", "lon": "170.25"}, {"lat": "-45.8", "city": "Lee Stream", "lon": "170.116667"}, {"lat": "-46.066667", "city": "Limehills", "lon": "168.333333"}, {"lat": "-44.883333", "city": "Lindis Crossing", "lon": "169.383333"}, {"lat": "-44.7", "city": "Lindis Pass", "lon": "169.5"}, {"lat": "-46.166667", "city": "Lovells Flat", "lon": "169.833333"}, {"lat": "-45.016667", "city": "Lowburn Bridge", "lon": "169.216667"}, {"lat": "-45.016667", "city": "Lowburn Ferry", "lon": "169.216667"}, {"lat": "-45.016667", "city": "Lowburn", "lon": "169.216667"}, {"lat": "-45.233333", "city": "Lower Nevis", "lon": "168.933333"}, {"lat": "-44.983333", "city": "Lower Shotover", "lon": "168.766667"}, {"lat": "-44.75", "city": "Luggate", "lon": "169.266667"}, {"lat": "-45.866667", "city": "Macandrew Bay", "lon": "170.6"}, {"lat": "-45.866667", "city": "Macandrews Bay", "lon": "170.6"}, {"lat": "-44.866667", "city": "Macetown", "lon": "168.833333"}, {"lat": "-46.55", "city": "Maclennan", "lon": "169.483333"}, {"lat": "-45.383333", "city": "Macraes Flat", "lon": "170.433333"}, {"lat": "-45.383333", "city": "Macraes", "lon": "170.433333"}, {"lat": "-44.916667", "city": "Maerewhenua", "lon": "170.616667"}, {"lat": "-44.233333", "city": "Makarora", "lon": "169.233333"}, {"lat": "-44.316667", "city": "Makarora Wharf", "lon": "169.183333"}, {"lat": "-45.9", "city": "Mangatua", "lon": "170.15"}, {"lat": "-45.066667", "city": "Marakerake", "lon": "170.75"}, {"lat": "-44.916667", "city": "Maruwenua", "lon": "170.616667"}, {"lat": "-44.916667", "city": "Maruwhenua", "lon": "170.616667"}, {"lat": "-45.016667", "city": "Matakanui", "lon": "169.566667"}, {"lat": "-45.9", "city": "Maungaatua", "lon": "170.15"}, {"lat": "-45.9", "city": "Maungatua", "lon": "170.15"}, {"lat": "-44.633333", "city": "Maungawera", "lon": "169.2"}, {"lat": "-45.516667", "city": "Middlemarch", "lon": "170.116667"}, {"lat": "-45.8", "city": "Mihiwaka", "lon": "170.633333"}, {"lat": "-45.666667", "city": "Millers Flat", "lon": "169.416667"}, {"lat": "-46.120833", "city": "Milton", "lon": "169.969444"}, {"lat": "-45.2", "city": "Moa Creek", "lon": "169.65"}, {"lat": "-45.633333", "city": "Moa Flat", "lon": "169.35"}, {"lat": "-42.583333", "city": "Moana", "lon": "171.466667"}, {"lat": "-46.116667", "city": "Moanapuru", "lon": "170.166667"}, {"lat": "-46.183333", "city": "Moanariri", "lon": "170.133333"}, {"lat": "-45.916667", "city": "Momona", "lon": "170.216667"}, {"lat": "-46.166667", "city": "Moneymore", "lon": "169.9"}, {"lat": "-45.25", "city": "Morrisons", "lon": "170.483333"}, {"lat": "-45.875", "city": "Mosgiel", "lon": "170.347222"}, {"lat": "-45.8", "city": "Mount Cargill", "lon": "170.566667"}, {"lat": "-44.916667", "city": "Mount Pisa", "lon": "169.266667"}, {"lat": "-45.6", "city": "Mount Stoker", "lon": "170.283333"}, {"lat": "-41.15", "city": "Moutere", "lon": "173"}, {"lat": "-45.65", "city": "Mowhiti", "lon": "170.083333"}, {"lat": "-41.8", "city": "Murchison", "lon": "172.333333"}, {"lat": "-45.233333", "city": "Nevis", "lon": "168.933333"}, {"lat": "-44.683333", "city": "Newcastle", "lon": "169.2"}, {"lat": "-46.466667", "city": "New Haven", "lon": "169.716667"}, {"lat": "-44.95", "city": "Ngapara", "lon": "170.75"}, {"lat": "-45.85", "city": "North East Valley", "lon": "170.533333"}, {"lat": "-45.85", "city": "North Taieri", "lon": "170.333333"}, {"lat": "-45.9", "city": "Ocean Grove", "lon": "170.55"}, {"lat": "-45.083333", "city": "Omakau", "lon": "169.6"}, {"lat": "-45.7", "city": "Omimi", "lon": "170.6"}, {"lat": "-45.116667", "city": "Ophir", "lon": "169.6"}, {"lat": "-45.233333", "city": "Orangapai", "lon": "170.133333"}, {"lat": "-45.816667", "city": "Otakou", "lon": "170.716667"}, {"lat": "-46.3", "city": "Otanomomo", "lon": "169.75"}, {"lat": "-44.833333", "city": "Otekaieke", "lon": "170.566667"}, {"lat": "-44.833333", "city": "Otekaike", "lon": "170.566667"}, {"lat": "-44.616667", "city": "Otematata", "lon": "170.266667"}, {"lat": "-45.95", "city": "Otokia", "lon": "170.2"}, {"lat": "-45", "city": "Oturehua", "lon": "169.916667"}, {"lat": "-46.45", "city": "Owaka", "lon": "169.666667"}, {"lat": "-46.433333", "city": "Owaka Valley", "lon": "169.583333"}, {"lat": "-44.983333", "city": "Papakaio", "lon": "170.983333"}, {"lat": "-46.6", "city": "Papatowai", "lon": "169.466667"}, {"lat": "-44.733333", "city": "Paradise", "lon": "168.366667"}, {"lat": "-45.266667", "city": "Patearoa", "lon": "170.05"}, {"lat": "-44.083333", "city": "Pleasant Valley", "lon": "171.183333"}, {"lat": "-46.016667", "city": "Pomahaka", "lon": "169.233333"}, {"lat": "-45.983333", "city": "Pongahere", "lon": "169.5"}, {"lat": "-45.15", "city": "Poolburn", "lon": "169.666667"}, {"lat": "-46.1", "city": "Popotunoa", "lon": "169.383333"}, {"lat": "-45.8125", "city": "Port Chalmers", "lon": "170.604167"}, {"lat": "-46.366667", "city": "Port Molyneux", "lon": "169.766667"}, {"lat": "-45.85", "city": "Portobello", "lon": "170.65"}, {"lat": "-46.483333", "city": "Pounawea", "lon": "169.7"}, {"lat": "-46.316667", "city": "Puerua", "lon": "169.683333"}, {"lat": "-45.883333", "city": "Pukehiki", "lon": "170.633333"}, {"lat": "-46.083333", "city": "Pukekoma", "lon": "169.733333"}, {"lat": "-46.166667", "city": "Pukepito", "lon": "169.65"}, {"lat": "-46.35", "city": "Purekireki", "lon": "169.483333"}, {"lat": "-44.833333", "city": "Queensberry", "lon": "169.333333"}, {"lat": "-44.833333", "city": "Queensbury", "lon": "169.333333"}, {"lat": "-45.133333", "city": "Ranfurly", "lon": "170.1"}, {"lat": "-46.15", "city": "Raurekau", "lon": "170.033333"}, {"lat": "-45.866667", "city": "Ravensbourne", "lon": "170.55"}, {"lat": "-45.4", "city": "Rock and Pillar", "lon": "170.183333"}, {"lat": "-46.35", "city": "Romahapa", "lon": "169.733333"}, {"lat": "-45.983333", "city": "Rongahere", "lon": "169.5"}, {"lat": "-44.866667", "city": "Saint Bathans", "lon": "169.816667"}, {"lat": "-45.9", "city": "Saint Kilda", "lon": "170.519444"}, {"lat": "-45.833333", "city": "Sawyers Bay", "lon": "170.6"}, {"lat": "-45.683333", "city": "Seacliff", "lon": "170.616667"}, {"lat": "-44.833333", "city": "Skippers", "lon": "168.683333"}, {"lat": "-46.25", "city": "Stirling", "lon": "169.783333"}, {"lat": "-45.433333", "city": "Stoneburn", "lon": "170.566667"}, {"lat": "-44.766667", "city": "Strachans", "lon": "170.5"}, {"lat": "-46.533333", "city": "Stuarts", "lon": "169.45"}, {"lat": "-45.566667", "city": "Sutton", "lon": "170.116667"}, {"lat": "-46.516667", "city": "Tahakopa", "lon": "169.383333"}, {"lat": "-43.75", "city": "Tahatika", "lon": "-176.666667"}, {"lat": "-46.083333", "city": "Taieri Beach", "lon": "170.183333"}, {"lat": "-46.066667", "city": "Taieri Mouth", "lon": "170.183333"}, {"lat": "-45.866667", "city": "Taieri", "lon": "170.5"}, {"lat": "-45.8", "city": "Taioma", "lon": "170.316667"}, {"lat": "-46.516667", "city": "Tarara", "lon": "169.566667"}, {"lat": "-44.833333", "city": "Tarras", "lon": "169.416667"}, {"lat": "-46.583333", "city": "Tautuku", "lon": "169.416667"}, {"lat": "-44.833333", "city": "Terras", "lon": "169.416667"}, {"lat": "-45.616667", "city": "Teviot Settlement", "lon": "169.35"}, {"lat": "-45.616667", "city": "Teviot", "lon": "169.35"}, {"lat": "-45.633333", "city": "The Reefs", "lon": "170.25"}, {"lat": "-44.95", "city": "Tokarahi", "lon": "170.65"}, {"lat": "-46.133333", "city": "Tokoiti", "lon": "170"}, {"lat": "-45.9", "city": "Tomahawk", "lon": "170.55"}, {"lat": "-45.816667", "city": "Traquair", "lon": "170.15"}, {"lat": "-45.95", "city": "Tuapeka Flat", "lon": "169.633333"}, {"lat": "-46.016667", "city": "Tuapeka Mouth", "lon": "169.516667"}, {"lat": "-45.933333", "city": "Tuapeka West", "lon": "169.55"}, {"lat": "-43.75", "city": "Tupuangi", "lon": "-176.8"}, {"lat": "-44.833333", "city": "Upper Shotover", "lon": "168.716667"}, {"lat": "-46.083333", "city": "Ururua", "lon": "169.7"}, {"lat": "-44.916667", "city": "Uxbridge", "lon": "170.883333"}, {"lat": "-45.266667", "city": "Waianakarua", "lon": "170.8"}, {"lat": "-45.1", "city": "Waiareka Junction", "lon": "170.933333"}, {"lat": "-45.316667", "city": "Waihemo", "lon": "170.55"}, {"lat": "-46.033333", "city": "Waihola", "lon": "170.1"}, {"lat": "-43.816667", "city": "Waikanai", "lon": "-176.7"}, {"lat": "-46.016667", "city": "Waikoikoi", "lon": "169.15"}, {"lat": "-45.1", "city": "Waioreka Junction", "lon": "170.933333"}, {"lat": "-46.116667", "city": "Waipahi", "lon": "169.25"}, {"lat": "-45.916667", "city": "Waipori Falls", "lon": "169.983333"}, {"lat": "-46.016667", "city": "Waitahuna West", "lon": "169.633333"}, {"lat": "-43.783333", "city": "Waitangi West", "lon": "-176.816667"}, {"lat": "-46.283333", "city": "Waitepeka", "lon": "169.666667"}, {"lat": "-46.216667", "city": "Waiwera South", "lon": "169.5"}, {"lat": "-46.283333", "city": "Wangaloa", "lon": "169.916667"}, {"lat": "-46.25", "city": "Warepa", "lon": "169.583333"}, {"lat": "-45.733333", "city": "Wehenga", "lon": "170.183333"}, {"lat": "-45.083333", "city": "Weston", "lon": "170.916667"}, {"lat": "-43.7", "city": "Whakekauri", "lon": "-176.583333"}, {"lat": "-44.95", "city": "Wharehuanui", "lon": "168.766667"}, {"lat": "-44.7", "city": "Wharekuri", "lon": "170.433333"}, {"lat": "-45.95", "city": "Whenuakoa", "lon": "169.633333"}, {"lat": "-45.066667", "city": "Whitstone", "lon": "170.883333"}, {"lat": "-45.85", "city": "Wylies Crossing", "lon": "170.316667"}], "F8": [{"lat": "-46.083333", "city": "Aparima", "lon": "168.05"}, {"lat": "-46.283333", "city": "Aropaki", "lon": "167.733333"}, {"lat": "-46.483333", "city": "Awarua Plains", "lon": "168.383333"}, {"lat": "-46.116667", "city": "Birch Grove", "lon": "167.733333"}, {"lat": "-45.75", "city": "Blueskin", "lon": "170.566667"}, {"lat": "-41.183333", "city": "Braeburn", "lon": "173"}, {"lat": "-46.15", "city": "Browns", "lon": "168.416667"}, {"lat": "-46.25", "city": "Brydone", "lon": "168.8"}, {"lat": "-45.9", "city": "Burnside", "lon": "170.45"}, {"lat": "-46.516667", "city": "Caberfeidh", "lon": "169.483333"}, {"lat": "-46.05", "city": "Centre Bush", "lon": "168.333333"}, {"lat": "-46.15", "city": "Charlton", "lon": "168.916667"}, {"lat": "-45.983333", "city": "Chatton", "lon": "168.916667"}, {"lat": "-46.033333", "city": "Clifden", "lon": "167.716667"}, {"lat": "-46.316667", "city": "Dacre", "lon": "168.633333"}, {"lat": "-45.9", "city": "Dipton", "lon": "168.366667"}, {"lat": "-46.15", "city": "Drummond", "lon": "168.15"}, {"lat": "-45.983333", "city": "East Chatton", "lon": "168.966667"}, {"lat": "-45.983333", "city": "Eastern Bush", "lon": "167.766667"}, {"lat": "-45.716667", "city": "Evansdale", "lon": "170.566667"}, {"lat": "-45.583333", "city": "Eyre Creek", "lon": "168.466667"}, {"lat": "-46.2", "city": "Fairfax", "lon": "168.05"}, {"lat": "-45.616667", "city": "Five Rivers", "lon": "168.45"}, {"lat": "-46.3", "city": "Flints Bush", "lon": "168.15"}, {"lat": "-46.566667", "city": "Fortrose", "lon": "168.8"}, {"lat": "-43.4", "city": "Franz Josef", "lon": "170.183333"}, {"lat": "-43.4", "city": "Franz Josef Glacier", "lon": "170.183333"}, {"lat": "-45.783333", "city": "Freshford", "lon": "168.783333"}, {"lat": "-45.466667", "city": "Garston", "lon": "168.683333"}, {"lat": "-36.766667", "city": "Glenfield", "lon": "174.733333"}, {"lat": "-46.4", "city": "Glenham", "lon": "168.85"}, {"lat": "-43.516667", "city": "Glenroy", "lon": "171.833333"}, {"lat": "-46.483333", "city": "Gorge Road", "lon": "168.7"}, {"lat": "-45.883333", "city": "Greenvale", "lon": "169.05"}, {"lat": "-46.3", "city": "Grove Bush", "lon": "168.483333"}, {"lat": "-46.283333", "city": "Gummies Bush", "lon": "168.016667"}, {"lat": "-46.633333", "city": "Haldane", "lon": "169"}, {"lat": "-46.266667", "city": "Hazletts", "lon": "168.083333"}, {"lat": "-46.083333", "city": "Heddon Bush", "lon": "168.15"}, {"lat": "-46.2", "city": "Hedgehope", "lon": "168.533333"}, {"lat": "-45.366667", "city": "Hillgrove", "lon": "170.833333"}, {"lat": "-39.85", "city": "Hinerua", "lon": "176.233333"}, {"lat": "-46.283333", "city": "Hirstfield", "lon": "167.733333"}, {"lat": "-46.4", "city": "Invercargill", "lon": "168.35"}, {"lat": "-46.2", "city": "Isla Bank", "lon": "168.133333"}, {"lat": "-46.466667", "city": "Kapuka", "lon": "168.633333"}, {"lat": "-45.733333", "city": "Kauhoe", "lon": "168.666667"}, {"lat": "-46.4", "city": "Kennington", "lon": "168.45"}, {"lat": "-46.016667", "city": "Knapdale", "lon": "168.916667"}, {"lat": "-46.1", "city": "Lady Barkley", "lon": "168.333333"}, {"lat": "-46.1", "city": "Lady Barkly", "lon": "168.333333"}, {"lat": "-41.166667", "city": "Linden", "lon": "174.833333"}, {"lat": "-45.866667", "city": "Longridge", "lon": "168.65"}, {"lat": "-46.35", "city": "Lorneville", "lon": "168.35"}, {"lat": "-45.666667", "city": "Lowther", "lon": "168.433333"}, {"lat": "-45.733333", "city": "Lumsden", "lon": "168.45"}, {"lat": "-45.733333", "city": "Lumsden Town District", "lon": "168.45"}, {"lat": "-46.283333", "city": "Mabel Bush", "lon": "168.533333"}, {"lat": "-46.3", "city": "Mabel School", "lon": "168.533333"}, {"lat": "-46.3", "city": "Makarewa Junction", "lon": "168.333333"}, {"lat": "-45.566667", "city": "Manapouri", "lon": "167.6"}, {"lat": "-46", "city": "Mandeville", "lon": "168.816667"}, {"lat": "-37.5", "city": "Mangaiti", "lon": "175.683333"}, {"lat": "-46.416667", "city": "Mataura Island", "lon": "168.783333"}, {"lat": "-46.35", "city": "Menzies Ferry", "lon": "168.816667"}, {"lat": "-41.866667", "city": "Mirza", "lon": "174.116667"}, {"lat": "-46.433333", "city": "Mokoreta", "lon": "169.066667"}, {"lat": "-46.45", "city": "Mokotua", "lon": "168.583333"}, {"lat": "-46.333333", "city": "Morton Mains", "lon": "168.65"}, {"lat": "-45.666667", "city": "Mossburn", "lon": "168.25"}, {"lat": "-38.283333", "city": "Motuhora", "lon": "177.533333"}, {"lat": "-45.933333", "city": "Mount Linton", "lon": "167.866667"}, {"lat": "-46.366667", "city": "Myross Bush", "lon": "168.416667"}, {"lat": "-45.9", "city": "Ngaro", "lon": "167.983333"}, {"lat": "-46.6", "city": "Niagara", "lon": "169.133333"}, {"lat": "-45.5", "city": "Nokomai", "lon": "168.666667"}, {"lat": "-45.916667", "city": "Ohai", "lon": "167.95"}, {"lat": "-45.95", "city": "Opio", "lon": "168.1"}, {"lat": "-46.05", "city": "Orawia Bridge", "lon": "167.8"}, {"lat": "-46.05", "city": "Orawia", "lon": "167.816667"}, {"lat": "-46.283333", "city": "Orepuki", "lon": "167.733333"}, {"lat": "-46.133333", "city": "Oreti Plains", "lon": "168.233333"}, {"lat": "-46.25", "city": "Otahuti", "lon": "168.2"}, {"lat": "-46.333333", "city": "Otaitai", "lon": "168.05"}, {"lat": "-46.016667", "city": "Otamita", "lon": "168.85"}, {"lat": "-46.05", "city": "Otapiri Gorge", "lon": "168.45"}, {"lat": "-39.555833", "city": "Otatara", "lon": "176.838611"}, {"lat": "-46.15", "city": "Otautau", "lon": "168"}, {"lat": "-46.15", "city": "Otautau Town District", "lon": "168"}, {"lat": "-46.333333", "city": "Pahia", "lon": "167.75"}, {"lat": "-45.55", "city": "Parawa", "lon": "168.533333"}, {"lat": "-46.116667", "city": "Piko Piko", "lon": "167.733333"}, {"lat": "-46.466667", "city": "Pine Bush", "lon": "168.8"}, {"lat": "-46.216667", "city": "Port Craig", "lon": "167.35"}, {"lat": "-46.083333", "city": "Pukemaori", "lon": "167.8"}, {"lat": "-46.55", "city": "Putangahau", "lon": "169.133333"}, {"lat": "-46.55", "city": "Quarry Hills", "lon": "169.033333"}, {"lat": "-46.316667", "city": "Rakahouka", "lon": "168.483333"}, {"lat": "-46.316667", "city": "Rakauhauka", "lon": "168.483333"}, {"lat": "-46.1", "city": "Raymonds Gap", "lon": "167.883333"}, {"lat": "-46.166667", "city": "Ringway", "lon": "168.016667"}, {"lat": "-46.35", "city": "Riverton", "lon": "168.016667"}, {"lat": "-46.35", "city": "Roslyn Bush", "lon": "168.45"}, {"lat": "-46.266667", "city": "Ryal Bush", "lon": "168.333333"}, {"lat": "-45.8", "city": "Saint Patricks", "lon": "168.5"}, {"lat": "-46.066667", "city": "Scotts Gap", "lon": "167.933333"}, {"lat": "-46.383333", "city": "Seaward Downs", "lon": "168.75"}, {"lat": "-46.666667", "city": "Slope Point", "lon": "169"}, {"lat": "-46.05", "city": "South Hillend", "lon": "168.25"}, {"lat": "-41.166667", "city": "Tawa Flat", "lon": "174.85"}, {"lat": "-41.166667", "city": "Tawa Flat Town District", "lon": "174.85"}, {"lat": "-45.416667", "city": "Te Anau", "lon": "167.716667"}, {"lat": "-46.25", "city": "Te Tumutu", "lon": "167.7"}, {"lat": "-45.55", "city": "The Key of the Lakes", "lon": "167.9"}, {"lat": "-45.55", "city": "The Key", "lon": "167.9"}, {"lat": "-46.35", "city": "Tihaka", "lon": "167.916667"}, {"lat": "-45.85", "city": "Tiromaunga", "lon": "168.15"}, {"lat": "-46.45", "city": "Tisbury", "lon": "168.4"}, {"lat": "-46.483333", "city": "Titiroa", "lon": "168.766667"}, {"lat": "-46.266667", "city": "Tuturau", "lon": "168.833333"}, {"lat": "-46.3", "city": "Venlaw", "lon": "169.033333"}, {"lat": "-46.3", "city": "Waianiwa", "lon": "168.266667"}, {"lat": "-42.65", "city": "Waiau", "lon": "173.05"}, {"lat": "-46.233333", "city": "Waihoaka", "lon": "167.7"}, {"lat": "-43.4", "city": "Waiho Gorge", "lon": "170.183333"}, {"lat": "-46.383333", "city": "Waikiwi", "lon": "168.333333"}, {"lat": "-46.1", "city": "Waikouro", "lon": "167.991667"}, {"lat": "-46.516667", "city": "Waimahaka", "lon": "168.816667"}, {"lat": "-46.3", "city": "Waimatuku", "lon": "168.166667"}, {"lat": "-46.116667", "city": "Waimumu", "lon": "168.8"}, {"lat": "-40.466667", "city": "Waione", "lon": "176.283333"}, {"lat": "-45.85", "city": "Waipounamu", "lon": "168.766667"}, {"lat": "-45.983333", "city": "Wairoto", "lon": "167.6"}, {"lat": "-46.183333", "city": "Waitane", "lon": "168.7"}, {"lat": "-45.75", "city": "Waitati", "lon": "170.566667"}, {"lat": "-39.8", "city": "Waitotara", "lon": "174.733333"}, {"lat": "-46.366667", "city": "Wakapatu", "lon": "167.8"}, {"lat": "-46.333333", "city": "Wallacetown", "lon": "168.266667"}, {"lat": "-45.716667", "city": "Warrington", "lon": "170.583333"}, {"lat": "-45.75", "city": "Wendonside", "lon": "168.733333"}, {"lat": "-45.883333", "city": "Wendon Valley", "lon": "168.966667"}, {"lat": "-45.883333", "city": "Wendon", "lon": "168.816667"}, {"lat": "-36.95", "city": "Westfield", "lon": "174.85"}, {"lat": "-46.366667", "city": "West Plains", "lon": "168.316667"}, {"lat": "-45.716667", "city": "Whenuatonga", "lon": "168.65"}, {"lat": "-46.15", "city": "Winton", "lon": "168.333333"}, {"lat": "-46.366667", "city": "Woodlands", "lon": "168.55"}, {"lat": "-46.016667", "city": "Wreys Bush", "lon": "168.1"}, {"lat": "-46.316667", "city": "Wrights Bush", "lon": "168.216667"}, {"lat": "-46.333333", "city": "Wyndham Town District", "lon": "168.85"}, {"lat": "-46.333333", "city": "Wyndham", "lon": "168.85"}], "F9": [{"lat": "-39.166667", "city": "Albert Road", "lon": "174.133333"}, {"lat": "-39.25", "city": "Aotuhia", "lon": "174.816667"}, {"lat": "-39.733333", "city": "Atene", "lon": "175.15"}, {"lat": "-38.9", "city": "Aukopae", "lon": "175.166667"}, {"lat": "-39.483333", "city": "Auroa", "lon": "174.05"}, {"lat": "-39.216667", "city": "Autawa", "lon": "174.466667"}, {"lat": "-39.45", "city": "Awatuna", "lon": "174.05"}, {"lat": "-39.033333", "city": "Bell Block", "lon": "174.15"}, {"lat": "-39.366667", "city": "Cardiff", "lon": "174.233333"}, {"lat": "-39.333333", "city": "Dawson Falls", "lon": "174.1"}, {"lat": "-39.3", "city": "Douglas", "lon": "174.466667"}, {"lat": "-46.604167", "city": "East End", "lon": "168.347222"}, {"lat": "-39.15", "city": "Egmont Village", "lon": "174.15"}, {"lat": "-39.429167", "city": "Eltham", "lon": "174.3"}, {"lat": "-39.05", "city": "Fitzroy", "lon": "174.1"}, {"lat": "-35.6", "city": "Hikurangi", "lon": "174.3"}, {"lat": "-35.6", "city": "Hikurangi Town District", "lon": "174.3"}, {"lat": "-39.35", "city": "Huinga", "lon": "174.416667"}, {"lat": "-39.05", "city": "Huirangi", "lon": "174.266667"}, {"lat": "-39.25", "city": "Huiroa", "lon": "174.466667"}, {"lat": "-39.633333", "city": "Hurleyville", "lon": "174.5"}, {"lat": "-39.566667", "city": "Inaha", "lon": "174.166667"}, {"lat": "-42.75", "city": "Jackson", "lon": "171.516667"}, {"lat": "-39.166667", "city": "Kaimata", "lon": "174.3"}, {"lat": "-39.2", "city": "Kaimiro", "lon": "174.15"}, {"lat": "-39.533333", "city": "Kapara", "lon": "174.75"}, {"lat": "-39.433333", "city": "Kaponga", "lon": "174.15"}, {"lat": "-39.433333", "city": "Kaponga Town District", "lon": "174.15"}, {"lat": "-39.483333", "city": "Kapuni", "lon": "174.133333"}, {"lat": "-39.55", "city": "Kaupokonui", "lon": "174.066667"}, {"lat": "-39.133333", "city": "Kent Road", "lon": "174.116667"}, {"lat": "-39.1", "city": "Kohuratahi", "lon": "174.766667"}, {"lat": "-39.166667", "city": "Korito", "lon": "174.1"}, {"lat": "-39.066667", "city": "Lepperton", "lon": "174.216667"}, {"lat": "-39.383333", "city": "Lowgarth", "lon": "174.216667"}, {"lat": "-39.416667", "city": "Mangatoki", "lon": "174.216667"}, {"lat": "-39.15", "city": "Mangorei", "lon": "174.083333"}, {"lat": "-38.583333", "city": "Mapiu", "lon": "175.216667"}, {"lat": "-35.333333", "city": "Maraeroa", "lon": "173.633333"}, {"lat": "-39.483333", "city": "Matapu", "lon": "174.233333"}, {"lat": "-39.166667", "city": "Matau", "lon": "174.566667"}, {"lat": "-38.75", "city": "Matiere", "lon": "175.1"}, {"lat": "-39.683333", "city": "Matukuroa", "lon": "174.533333"}, {"lat": "-39.583333", "city": "Meremere", "lon": "174.383333"}, {"lat": "-39.533333", "city": "Moeawatea", "lon": "174.65"}, {"lat": "-39.433333", "city": "Moeroa", "lon": "174.633333"}, {"lat": "-38.583333", "city": "Mokauiti", "lon": "175.166667"}, {"lat": "-38.683333", "city": "Mokau", "lon": "174.616667"}, {"lat": "-38.983333", "city": "Motunui", "lon": "174.3"}, {"lat": "-39.066667", "city": "New Plymouth City", "lon": "174.083333"}, {"lat": "-39.066667", "city": "New Plymouth", "lon": "174.083333"}, {"lat": "-39.383333", "city": "Ngaere", "lon": "174.3"}, {"lat": "-38.783333", "city": "Nihoniho", "lon": "175.05"}, {"lat": "-39.283333", "city": "North Mount Egmont", "lon": "174.1"}, {"lat": "-39.4", "city": "Oaonui", "lon": "173.816667"}, {"lat": "-39.533333", "city": "Oeo", "lon": "173.983333"}, {"lat": "-39.6", "city": "Ohangai", "lon": "174.333333"}, {"lat": "-38.833333", "city": "Ohura", "lon": "174.983333"}, {"lat": "-38.833333", "city": "Ohura Town District", "lon": "174.983333"}, {"lat": "-39.533333", "city": "Okaiawa", "lon": "174.2"}, {"lat": "-39.2", "city": "Okato", "lon": "173.883333"}, {"lat": "-38.866667", "city": "Okau", "lon": "174.65"}, {"lat": "-39.016667", "city": "Okoki", "lon": "174.483333"}, {"lat": "-39", "city": "Onaeroa", "lon": "174.35"}, {"lat": "-39", "city": "Onaero", "lon": "174.35"}, {"lat": "-39", "city": "Onairo", "lon": "174.35"}, {"lat": "-38.716667", "city": "Ongarue", "lon": "175.283333"}, {"lat": "-39.55", "city": "Otakeho", "lon": "174.05"}, {"lat": "-39.8", "city": "Parakino Pa", "lon": "175.15"}, {"lat": "-39.8", "city": "Parakino", "lon": "175.15"}, {"lat": "-39.3", "city": "Parihaka Pa", "lon": "173.833333"}, {"lat": "-39.3", "city": "Parihaka", "lon": "173.833333"}, {"lat": "-39.8", "city": "Parikino", "lon": "175.15"}, {"lat": "-39.758333", "city": "Patea", "lon": "174.483333"}, {"lat": "-44.7", "city": "Pembroke", "lon": "169.15"}, {"lat": "-39.5", "city": "Pihama", "lon": "173.933333"}, {"lat": "-38.55", "city": "Porootarao", "lon": "175.316667"}, {"lat": "-38.9", "city": "Pukearuhe", "lon": "174.5"}, {"lat": "-39.516667", "city": "Puketapu", "lon": "176.8"}, {"lat": "-39.2", "city": "Puniho", "lon": "173.833333"}, {"lat": "-39.333333", "city": "Puniwhakau", "lon": "174.616667"}, {"lat": "-39.333333", "city": "Rahotu", "lon": "173.8"}, {"lat": "-39.783333", "city": "Rangikura", "lon": "174.55"}, {"lat": "-37.433333", "city": "Rangiriri", "lon": "175.166667"}, {"lat": "-46.483333", "city": "Ratanui", "lon": "169.633333"}, {"lat": "-39.2", "city": "Ratapiko", "lon": "174.316667"}, {"lat": "-38.883333", "city": "Roto", "lon": "175.033333"}, {"lat": "-39.4", "city": "Rowan", "lon": "174.116667"}, {"lat": "-42.75", "city": "Spotswood", "lon": "173.266667"}, {"lat": "-39.433333", "city": "Takou", "lon": "174.633333"}, {"lat": "-39.233333", "city": "Tariki", "lon": "174.25"}, {"lat": "-39.083333", "city": "Tarurutangi", "lon": "174.183333"}, {"lat": "-39.166667", "city": "Tataraimaka", "lon": "173.916667"}, {"lat": "-38.9", "city": "Tatu", "lon": "174.95"}, {"lat": "-39.55", "city": "Taumatatahi", "lon": "174.8"}, {"lat": "-39.433333", "city": "Te Kiri", "lon": "174.033333"}, {"lat": "-39.266667", "city": "Te Popo", "lon": "174.366667"}, {"lat": "-39.483333", "city": "Te Roti", "lon": "174.266667"}, {"lat": "-38.933333", "city": "Tokirima", "lon": "175.016667"}, {"lat": "-38.933333", "city": "Tokorima", "lon": "175.016667"}, {"lat": "-39.333333", "city": "Toko", "lon": "174.4"}, {"lat": "-38.8", "city": "Tongaporutu", "lon": "174.6"}, {"lat": "-39.25", "city": "Tumahu", "lon": "173.916667"}, {"lat": "-39.266667", "city": "Tuna", "lon": "174.3"}, {"lat": "-39.316667", "city": "Tututawa", "lon": "174.533333"}, {"lat": "-39.283333", "city": "Uia", "lon": "174.233333"}, {"lat": "-39.783333", "city": "Upokonui", "lon": "175.216667"}, {"lat": "-39.75", "city": "Upokopoito", "lon": "175.15"}, {"lat": "-39.316667", "city": "Upper Kahui", "lon": "173.883333"}, {"lat": "-39", "city": "Urenui", "lon": "174.383333"}, {"lat": "-38.95", "city": "Uruti", "lon": "174.533333"}, {"lat": "-45.916667", "city": "Waikaka", "lon": "169.016667"}, {"lat": "-39.1", "city": "Waingona", "lon": "174.216667"}, {"lat": "-39.1", "city": "Waiongana", "lon": "174.216667"}, {"lat": "-39.1", "city": "Waiongona", "lon": "174.216667"}, {"lat": "-39.266667", "city": "Waipuku", "lon": "174.266667"}, {"lat": "-38.833333", "city": "Waitaanga", "lon": "174.833333"}, {"lat": "-38.925", "city": "Waitara", "lon": "174.25"}, {"lat": "-38.7", "city": "Waitewhena", "lon": "174.966667"}, {"lat": "-38.7", "city": "Waitewhenua", "lon": "174.966667"}, {"lat": "-38.983333", "city": "Waitoitoi", "lon": "174.433333"}, {"lat": "-44.7", "city": "Wanaka", "lon": "169.15"}, {"lat": "-39.233333", "city": "Warea", "lon": "173.816667"}, {"lat": "-39.766667", "city": "Whakaihuwaka", "lon": "175.15"}, {"lat": "-39.633333", "city": "Whakamara", "lon": "174.433333"}, {"lat": "-39.15", "city": "Whangamomona", "lon": "174.733333"}, {"lat": "-39.3", "city": "Wharehuia", "lon": "174.333333"}, {"lat": "-39.758333", "city": "White Tank", "lon": "174.466667"}], "00": [{"lat": "-43.733333", "city": "Ritchie", "lon": "176.266667"}], "F6": [{"lat": "-35.733333", "city": "Kioreroa", "lon": "174.35"}, {"lat": "-35.72", "city": "Whangarei", "lon": "174.33"}], "E9": [{"lat": "-43.55", "city": "Addington", "lon": "172.616667"}, {"lat": "-44.233333", "city": "Albury", "lon": "170.866667"}, {"lat": "-43.616667", "city": "Alford Forest", "lon": "171.5"}, {"lat": "-43.75", "city": "Anama", "lon": "171.433333"}, {"lat": "-43.383333", "city": "Annat", "lon": "172"}, {"lat": "-41.3", "city": "Appleby", "lon": "173.116667"}, {"lat": "-44.733333", "city": "Arcadia", "lon": "168.366667"}, {"lat": "-42.95", "city": "Arthur Pass", "lon": "171.566667"}, {"lat": "-42.95", "city": "Arthur's Pass", "lon": "171.566667"}, {"lat": "-43.983333", "city": "Arundel", "lon": "171.283333"}, {"lat": "-43.283333", "city": "Ashley", "lon": "172.6"}, {"lat": "-43.283333", "city": "Ashley Bank", "lon": "172.6"}, {"lat": "-44.033333", "city": "Ashton", "lon": "171.766667"}, {"lat": "-44", "city": "Ashwick Flat", "lon": "170.833333"}, {"lat": "-43.783333", "city": "Ataahua", "lon": "172.65"}, {"lat": "-43.533333", "city": "Aylesbury", "lon": "172.266667"}, {"lat": "-43.2", "city": "Balcairn", "lon": "172.7"}, {"lat": "-43.666667", "city": "Barrhill", "lon": "171.85"}, {"lat": "-43.766667", "city": "Barrys Bay", "lon": "172.9"}, {"lat": "-43.033333", "city": "Bealey", "lon": "171.6"}, {"lat": "-45.816667", "city": "Beaumont", "lon": "169.533333"}, {"lat": "-44.116667", "city": "Beautiful Valley", "lon": "171"}, {"lat": "-43.45", "city": "Belfast", "lon": "172.633333"}, {"lat": "-43.3", "city": "Bells", "lon": "172.583333"}, {"lat": "-43.3", "city": "Bennets", "lon": "172.3"}, {"lat": "-43.3", "city": "Bennetts", "lon": "172.3"}, {"lat": "-43.35", "city": "Bexley", "lon": "172.066667"}, {"lat": "-42.25", "city": "Blackwater", "lon": "171.766667"}, {"lat": "-45.883333", "city": "Bluespur", "lon": "169.683333"}, {"lat": "-43.55", "city": "Bromley", "lon": "172.7"}, {"lat": "-44.083333", "city": "Burkes Pass", "lon": "170.65"}, {"lat": "-43.616667", "city": "Burnham", "lon": "172.316667"}, {"lat": "-43.5", "city": "Burwood", "lon": "172.7"}, {"lat": "-41.85", "city": "Camden", "lon": "173.683333"}, {"lat": "-44.883333", "city": "Cardrona", "lon": "169"}, {"lat": "-44.316667", "city": "Care", "lon": "170.95"}, {"lat": "-43.966667", "city": "Carew", "lon": "171.366667"}, {"lat": "-43.033333", "city": "Cass", "lon": "171.75"}, {"lat": "-44.316667", "city": "Cave", "lon": "170.95"}, {"lat": "-43.433333", "city": "Chaneys", "lon": "172.65"}, {"lat": "-43.55", "city": "Charing Cross", "lon": "172.15"}, {"lat": "-36.816667", "city": "Chelsea", "lon": "174.7"}, {"lat": "-43.8", "city": "Chertsey", "lon": "171.933333"}, {"lat": "-43.716667", "city": "Chorlton", "lon": "173.033333"}, {"lat": "-43.533333", "city": "Christchurch", "lon": "172.633333"}, {"lat": "-44.216667", "city": "Clandeboye", "lon": "171.383333"}, {"lat": "-46.05", "city": "Clarendon", "lon": "170.033333"}, {"lat": "-43.416667", "city": "Clarkville", "lon": "172.616667"}, {"lat": "-46.2", "city": "Clinton", "lon": "169.366667"}, {"lat": "-45.083333", "city": "Closeburn", "lon": "168.466667"}, {"lat": "-43.483333", "city": "Coalgate", "lon": "171.966667"}, {"lat": "-43.45", "city": "Courtenay", "lon": "172.2"}, {"lat": "-43.433333", "city": "Coutts Island", "lon": "172.616667"}, {"lat": "-45", "city": "Creighton", "lon": "168.433333"}, {"lat": "-42.766667", "city": "Culverden", "lon": "172.85"}, {"lat": "-43.316667", "city": "Cust", "lon": "172.366667"}, {"lat": "-36.829722", "city": "Devenport", "lon": "174.799444"}, {"lat": "-42.85", "city": "Domett", "lon": "173.216667"}, {"lat": "-43.883333", "city": "Dorie", "lon": "172.15"}, {"lat": "-43.75", "city": "Doyleston", "lon": "172.3"}, {"lat": "-43.85", "city": "Dromore", "lon": "171.85"}, {"lat": "-43.666667", "city": "Dunsandel", "lon": "172.183333"}, {"lat": "-43.75", "city": "Duvauchelle", "lon": "172.933333"}, {"lat": "-43.75", "city": "Duvauchelles", "lon": "172.933333"}, {"lat": "-44.05", "city": "Ealing", "lon": "171.416667"}, {"lat": "-41.3", "city": "Eastbourne", "lon": "174.9"}, {"lat": "-44.033333", "city": "Eiffelton", "lon": "171.683333"}, {"lat": "-44.533333", "city": "Esk Valley", "lon": "171.083333"}, {"lat": "-42.883333", "city": "Ethelton", "lon": "173.083333"}, {"lat": "-45.9", "city": "Evans Flat", "lon": "169.633333"}, {"lat": "-43.866667", "city": "Fairton", "lon": "171.8"}, {"lat": "-43.516667", "city": "Fendalton", "lon": "172.6"}, {"lat": "-43.35", "city": "Flaxton", "lon": "172.633333"}, {"lat": "-43.783333", "city": "French Farm", "lon": "172.9"}, {"lat": "-44.916667", "city": "Glenavy", "lon": "171.1"}, {"lat": "-45.433333", "city": "Glenpark", "lon": "170.666667"}, {"lat": "-43.9", "city": "Glentanner", "lon": "170.116667"}, {"lat": "-43.483333", "city": "Glentunnel", "lon": "171.933333"}, {"lat": "-43.683333", "city": "Greenpark", "lon": "172.5"}, {"lat": "-45.283333", "city": "Green Valley", "lon": "170.516667"}, {"lat": "-43.816667", "city": "Hackthorne", "lon": "171.566667"}, {"lat": "-44.733333", "city": "Hakataramea", "lon": "170.483333"}, {"lat": "-44.05", "city": "Hakatere", "lon": "171.8"}, {"lat": "-40.15", "city": "Halcombe", "lon": "175.5"}, {"lat": "-43.483333", "city": "Halkett", "lon": "172.3"}, {"lat": "-43.483333", "city": "Halkett Town", "lon": "172.3"}, {"lat": "-43.583333", "city": "Halswell", "lon": "172.566667"}, {"lat": "-42.516667", "city": "Hanmer", "lon": "172.816667"}, {"lat": "-42.516667", "city": "Hanmer Springs", "lon": "172.816667"}, {"lat": "-43.766667", "city": "Hatfield", "lon": "171.966667"}, {"lat": "-39.616667", "city": "Haumoana", "lon": "176.95"}, {"lat": "-43.483333", "city": "Hawkins", "lon": "172.033333"}, {"lat": "-44.2", "city": "Hazelburn", "lon": "170.983333"}, {"lat": "-43.583333", "city": "Heathcote Valley", "lon": "172.716667"}, {"lat": "-43.616667", "city": "Highbank", "lon": "171.75"}, {"lat": "-45.883333", "city": "Highcliffe", "lon": "170.583333"}, {"lat": "-44.15", "city": "Hilton", "lon": "171.166667"}, {"lat": "-44", "city": "Hinds", "lon": "171.566667"}, {"lat": "-44.683333", "city": "Hook", "lon": "171.133333"}, {"lat": "-43.55", "city": "Hornby", "lon": "172.533333"}, {"lat": "-43.533333", "city": "Hororata", "lon": "171.95"}, {"lat": "-43.333333", "city": "Horrelville", "lon": "172.333333"}, {"lat": "-44.616667", "city": "Hunter", "lon": "171.05"}, {"lat": "-44.866667", "city": "Ikawai", "lon": "170.85"}, {"lat": "-43.716667", "city": "Irwell", "lon": "172.333333"}, {"lat": "-41.333333", "city": "Island Bay", "lon": "174.783333"}, {"lat": "-44.6", "city": "Kaingapai Hakataramea Station", "lon": "170.566667"}, {"lat": "-44.6", "city": "Kaingapai", "lon": "170.566667"}, {"lat": "-44.15", "city": "Kakahu Bush", "lon": "171.116667"}, {"lat": "-45.65", "city": "Karitane", "lon": "170.666667"}, {"lat": "-44.783333", "city": "Kelchers", "lon": "170.85"}, {"lat": "-44.283333", "city": "Kerrytown", "lon": "171.2"}, {"lat": "-43.733333", "city": "Killinchy", "lon": "172.25"}, {"lat": "-44.05", "city": "Kimbell", "lon": "170.75"}, {"lat": "-44.466667", "city": "Kingsdown", "lon": "171.216667"}, {"lat": "-43.5", "city": "Kirwee", "lon": "172.216667"}, {"lat": "-43.3", "city": "Kowai Bush", "lon": "171.916667"}, {"lat": "-44.566667", "city": "Kowhatu", "lon": "170.666667"}, {"lat": "-44.733333", "city": "Kurow", "lon": "170.466667"}, {"lat": "-43.916667", "city": "Kyle", "lon": "172.1"}, {"lat": "-43.616667", "city": "Ladbrooks", "lon": "172.533333"}, {"lat": "-43.883333", "city": "Lagmhor", "lon": "171.633333"}, {"lat": "-43.366667", "city": "Lake Coleridge", "lon": "171.533333"}, {"lat": "-44.183333", "city": "Lake Pukaki", "lon": "170.15"}, {"lat": "-44.016667", "city": "Lake Tekapo", "lon": "170.5"}, {"lat": "-43.75", "city": "Le Bons Bay", "lon": "173.083333"}, {"lat": "-43.766667", "city": "Leeston", "lon": "172.3"}, {"lat": "-43.766667", "city": "Leeston Town District", "lon": "172.3"}, {"lat": "-43.2", "city": "Leithfield", "lon": "172.733333"}, {"lat": "-44.333333", "city": "Levels", "lon": "171.216667"}, {"lat": "-43.9", "city": "Lismore", "lon": "171.483333"}, {"lat": "-43.683333", "city": "Little Akaloa", "lon": "172.983333"}, {"lat": "-43.766667", "city": "Little River", "lon": "172.783333"}, {"lat": "-43.25", "city": "Loburn", "lon": "172.533333"}, {"lat": "-44.1", "city": "Longbeach", "lon": "171.7"}, {"lat": "-41.783333", "city": "Longford", "lon": "172.366667"}, {"lat": "-46.333333", "city": "Longwood", "lon": "167.933333"}, {"lat": "-44.116667", "city": "Lowcliffe", "lon": "171.583333"}, {"lat": "-44.116667", "city": "Lowcliff", "lon": "171.583333"}, {"lat": "-44.5", "city": "Lyalldale", "lon": "171.083333"}, {"lat": "-43.7", "city": "Lyndhurst", "lon": "171.716667"}, {"lat": "-44.016667", "city": "Lynnford", "lon": "171.6"}, {"lat": "-45.983333", "city": "Maitland", "lon": "169.016667"}, {"lat": "-44.633333", "city": "Makikihi", "lon": "171.15"}, {"lat": "-43.383333", "city": "Mandeville North", "lon": "172.533333"}, {"lat": "-41.614444", "city": "Mangamate", "lon": "175.296944"}, {"lat": "-46.066667", "city": "Manuka Creek", "lon": "169.816667"}, {"lat": "-43.483333", "city": "Marshland", "lon": "172.65"}, {"lat": "-42.9", "city": "Masons Flat", "lon": "172.55"}, {"lat": "-44.633333", "city": "Maungatiro", "lon": "170.616667"}, {"lat": "-44.3", "city": "Mawaro", "lon": "170.883333"}, {"lat": "-42.866667", "city": "Medbury", "lon": "172.666667"}, {"lat": "-42.616667", "city": "Mendip Hills", "lon": "173.283333"}, {"lat": "-39.3", "city": "Midhirst", "lon": "174.266667"}, {"lat": "-39.3", "city": "Midhurst", "lon": "174.266667"}, {"lat": "-46.083333", "city": "Milburn", "lon": "170"}, {"lat": "-42.816667", "city": "Mina", "lon": "173.233333"}, {"lat": "-43.75", "city": "Mitcham", "lon": "171.85"}, {"lat": "-43.733333", "city": "Motukarara", "lon": "172.583333"}, {"lat": "-42.966667", "city": "Motunau", "lon": "172.966667"}, {"lat": "-43.716667", "city": "Mount Somers", "lon": "171.4"}, {"lat": "-37.133333", "city": "New Brighton", "lon": "175.283333"}, {"lat": "-43.883333", "city": "Newland", "lon": "171.85"}, {"lat": "-39.533333", "city": "Normanby", "lon": "174.283333"}, {"lat": "-39.533333", "city": "Normanby Town District", "lon": "174.283333"}, {"lat": "-36.827778", "city": "North Head", "lon": "174.808333"}, {"lat": "-43.216667", "city": "North Loburn", "lon": "172.5"}, {"lat": "-43.366667", "city": "Ohoka", "lon": "172.566667"}, {"lat": "-43.716667", "city": "Okains Bay", "lon": "173.033333"}, {"lat": "-43.716667", "city": "Okains", "lon": "173.033333"}, {"lat": "-43.016667", "city": "Omihi", "lon": "172.85"}, {"lat": "-44.133333", "city": "Orari", "lon": "171.3"}, {"lat": "-44.583333", "city": "Otaio", "lon": "171.166667"}, {"lat": "-44.433333", "city": "Otipua", "lon": "171.166667"}, {"lat": "-43.45", "city": "Ouruhia", "lon": "172.65"}, {"lat": "-43.783333", "city": "Overdale", "lon": "171.983333"}, {"lat": "-44.066667", "city": "Owersby", "lon": "170.95"}, {"lat": "-34.533333", "city": "Parenga", "lon": "172.916667"}, {"lat": "-44.5", "city": "Pareora", "lon": "171.2"}, {"lat": "-44.433333", "city": "Pareora West", "lon": "171.133333"}, {"lat": "-46.333333", "city": "Paretai", "lon": "169.783333"}, {"lat": "-45.816667", "city": "Park Hill", "lon": "169.216667"}, {"lat": "-42.716667", "city": "Parnassus", "lon": "173.3"}, {"lat": "-43.916667", "city": "Peel Forest", "lon": "171.266667"}, {"lat": "-42.766667", "city": "Phoebe", "lon": "173.233333"}, {"lat": "-43.816667", "city": "Poranui", "lon": "172.7"}, {"lat": "-42.866667", "city": "Port Robinson", "lon": "173.3"}, {"lat": "-43.583333", "city": "Prebbleton", "lon": "172.516667"}, {"lat": "-43.75", "city": "Puaha", "lon": "172.833333"}, {"lat": "-43.75", "city": "Puaho", "lon": "172.833333"}, {"lat": "-44.183333", "city": "Pukaki", "lon": "170.15"}, {"lat": "-45.666667", "city": "Puketeraki", "lon": "170.65"}, {"lat": "-45.033333", "city": "Pukeuri Junction", "lon": "171.033333"}, {"lat": "-44.05", "city": "Pusey", "lon": "170.916667"}, {"lat": "-45.01", "city": "Queenstown", "lon": "168.40"}, {"lat": "-43.516667", "city": "Rakaia Gorge", "lon": "171.65"}, {"lat": "-44.133333", "city": "Rangitata Island", "lon": "171.466667"}, {"lat": "-44.466667", "city": "Raorao", "lon": "171.216667"}, {"lat": "-44.166667", "city": "Rapuwai", "lon": "171.05"}, {"lat": "-41.540556", "city": "Rat Hill", "lon": "175.410556"},