{"PE": {"22": [{"lat": "-6.4166667", "city": "Achinamisa", "lon": "-75.9"}, {"lat": "-7.75", "city": "Achiras", "lon": "-77.0666667"}, {"lat": "-6.7166667", "city": "Agua Bianca", "lon": "-76.5833333"}, {"lat": "-6.7166667", "city": "Agua Blanca", "lon": "-76.5833333"}, {"lat": "-6.6166667", "city": "Aguana Muyuna", "lon": "-76.1666667"}, {"lat": "-6.6166667", "city": "Aguanana Muyuna", "lon": "-76.1666667"}, {"lat": "-6.6166667", "city": "Aguano Muyuna", "lon": "-76.1666667"}, {"lat": "-6.5066667", "city": "Ahuashiyacu", "lon": "-76.3369444"}, {"lat": "-8.3011111", "city": "Aj\u00ed", "lon": "-76.6713889"}, {"lat": "-6.5", "city": "Alao", "lon": "-76.7166667"}, {"lat": "-6.2666667", "city": "Almendral", "lon": "-76.3"}, {"lat": "-7.0458333", "city": "Armellari", "lon": "-76.4294444"}, {"lat": "-6.4", "city": "Asansa", "lon": "-76.8166667"}, {"lat": "-6.2833333", "city": "Asuncion", "lon": "-75.7333333"}, {"lat": "-7.2", "city": "Atahualpa", "lon": "-76.8"}, {"lat": "-7.2280556", "city": "Bagaz\u00e1n", "lon": "-76.4911111"}, {"lat": "-7.8166667", "city": "Balsayaco", "lon": "-76.7166667"}, {"lat": "-7.8166667", "city": "Balsayacu", "lon": "-76.7166667"}, {"lat": "-6.7388889", "city": "Ba\u00f1os", "lon": "-76.3547222"}, {"lat": "-7.2758333", "city": "Barranca", "lon": "-76.4680556"}, {"lat": "-6.2666667", "city": "Barranquita", "lon": "-76.0166667"}, {"lat": "-7.0666667", "city": "Bellavista", "lon": "-76.5333333"}, {"lat": "-6.5286111", "city": "Bello Horizonte", "lon": "-76.3016667"}, {"lat": "-7.1280556", "city": "Bombonajillo", "lon": "-76.2836111"}, {"lat": "-6.4", "city": "Buenos Aires", "lon": "-75.7666667"}, {"lat": "-6.45", "city": "Cacatache", "lon": "-76.5"}, {"lat": "-6.45", "city": "Cacatachi", "lon": "-76.5"}, {"lat": "-6.1166667", "city": "Cainaranchi", "lon": "-76.25"}, {"lat": "-6.3166667", "city": "Calaveras", "lon": "-76.8166667"}, {"lat": "-6.5666667", "city": "Callahuac\u00e1n", "lon": "-75.85"}, {"lat": "-6.5666667", "city": "Callehuacana", "lon": "-75.85"}, {"lat": "-6.0333333", "city": "Calzada", "lon": "-77.0333333"}, {"lat": "-6.4833333", "city": "Campanilla", "lon": "-76.6833333"}, {"lat": "-7.1094444", "city": "Canoa Saquina", "lon": "-76.4713889"}, {"lat": "-6.9569444", "city": "Caspisapa", "lon": "-76.4180556"}, {"lat": "-6.9569444", "city": "Caspizapa", "lon": "-76.4180556"}, {"lat": "-7.55", "city": "Cayumba", "lon": "-76.7833333"}, {"lat": "-6.85", "city": "Cedropampa", "lon": "-76.0833333"}, {"lat": "-6.5741667", "city": "Chasuta", "lon": "-76.1366667"}, {"lat": "-6.5741667", "city": "Chazuta", "lon": "-76.1366667"}, {"lat": "-7.9", "city": "Chiclayo", "lon": "-77.2833333"}, {"lat": "-6.55", "city": "Chipeda", "lon": "-75.9833333"}, {"lat": "-6.5833333", "city": "Chonta", "lon": "-76.1333333"}, {"lat": "-6.5486111", "city": "Codo", "lon": "-76.4691667"}, {"lat": "-6.2666667", "city": "Convento", "lon": "-76.25"}, {"lat": "-8.0491667", "city": "Cotomono", "lon": "-76.7325"}, {"lat": "-8.5333333", "city": "Crisnejas", "lon": "-76.4166667"}, {"lat": "-8.1144444", "city": "Crisnejilla", "lon": "-76.8658333"}, {"lat": "-8.35", "city": "Cueva Arellana", "lon": "-76.8166667"}, {"lat": "-8.1958333", "city": "Cueva Chunchi", "lon": "-76.5947222"}, {"lat": "-8.4158333", "city": "Cueva", "lon": "-76.7508333"}, {"lat": "-8.1958333", "city": "Cueva de Chunchi", "lon": "-76.5947222"}, {"lat": "-8.35", "city": "Cueva Pintada", "lon": "-76.7666667"}, {"lat": "-6.4833333", "city": "Cu\u00f1umbuque", "lon": "-76.5666667"}, {"lat": "-6.4833333", "city": "Cu\u00f1umbuqui", "lon": "-76.5666667"}, {"lat": "-7.2583333", "city": "Cusco", "lon": "-76.4766667"}, {"lat": "-6.9833333", "city": "Cuzco", "lon": "-76.4666667"}, {"lat": "-8.6833333", "city": "D\u00edaz", "lon": "-76.1666667"}, {"lat": "-7.1", "city": "Dos de Mayo", "lon": "-77.0666667"}, {"lat": "-7.0333333", "city": "El Eslab\u00f3n", "lon": "-76.7666667"}, {"lat": "-7.0536111", "city": "El Sol", "lon": "-76.4308333"}, {"lat": "-7.5333333", "city": "El Valle", "lon": "-76.8"}, {"lat": "-7.0166667", "city": "Eslab\u00f3n", "lon": "-76.75"}, {"lat": "-6.9922222", "city": "Esperanza", "lon": "-76.4191667"}, {"lat": "-6.5397222", "city": "Estero", "lon": "-76.4613889"}, {"lat": "-6.5", "city": "Galladuana", "lon": "-75.9333333"}, {"lat": "-6.1", "city": "Habana", "lon": "-77.1"}, {"lat": "-7.75", "city": "Huacamayo", "lon": "-76.75"}, {"lat": "-7.3", "city": "Huauna", "lon": "-76.8166667"}, {"lat": "-7.25", "city": "Huayabamba", "lon": "-76.7333333"}, {"lat": "-8.0166667", "city": "Hucascocha", "lon": "-77.3333333"}, {"lat": "-7.2833333", "city": "Huicungo", "lon": "-76.8"}, {"lat": "-6.25", "city": "Huimbayoc", "lon": "-75.7833333"}, {"lat": "-6.5738889", "city": "Huruhuasha", "lon": "-76.3286111"}, {"lat": "-7.15", "city": "Inahuaya", "lon": "-75.2833333"}, {"lat": "-6.5438889", "city": "Intilliquihui", "lon": "-76.4886111"}, {"lat": "-7.9166667", "city": "Iucusbamba", "lon": "-77.1666667"}, {"lat": "-7.9166667", "city": "Jacusbamba", "lon": "-77.1666667"}, {"lat": "-6.1166667", "city": "Jepelacio", "lon": "-76.95"}, {"lat": "-6.1166667", "city": "Jepelecio", "lon": "-76.95"}, {"lat": "-6.0833333", "city": "Jes\u00fas del Monte", "lon": "-76.8333333"}, {"lat": "-7.4833333", "city": "Jes\u00fas de Pajat\u00e9n", "lon": "-77.3666667"}, {"lat": "-7.0363889", "city": "Jos\u00e9 G\u00e1lvez", "lon": "-76.4230556"}, {"lat": "-7.5833333", "city": "Jos\u00e9 Olaya", "lon": "-76.4"}, {"lat": "-6.5827778", "city": "Juan Guerra", "lon": "-76.33"}, {"lat": "-7.1833333", "city": "Juanju\u00ed", "lon": "-76.75"}, {"lat": "-7.9166667", "city": "Jucusbamba", "lon": "-77.1666667"}, {"lat": "-7.2475", "city": "La Campesina", "lon": "-76.4808333"}, {"lat": "-6.5433333", "city": "La Cumbre de La Alianza", "lon": "-76.455"}, {"lat": "-6.5838889", "city": "La Florida", "lon": "-76.4638889"}, {"lat": "-6.2666667", "city": "Lahuarpia", "lon": "-76.8333333"}, {"lat": "-6.4166667", "city": "Lamas", "lon": "-76.5333333"}, {"lat": "-6.615", "city": "Las Delicias", "lon": "-76.4688889"}, {"lat": "-6.6636111", "city": "Las Flores de Mamonaquihua", "lon": "-76.4669444"}, {"lat": "-6.5336111", "city": "Las Palmas", "lon": "-76.3422222"}, {"lat": "-6.5055556", "city": "La Uni\u00f3n", "lon": "-76.3172222"}, {"lat": "-8.0166667", "city": "Lazate", "lon": "-77.35"}, {"lat": "-6.4833333", "city": "Leche", "lon": "-75.7333333"}, {"lat": "-7.1722222", "city": "Lechugal", "lon": "-76.3697222"}, {"lat": "-6.55", "city": "Leticia", "lon": "-75.9"}, {"lat": "-7.0352778", "city": "Libertad", "lon": "-76.4669444"}, {"lat": "-6.7169444", "city": "Lim\u00f3n", "lon": "-76.2802778"}, {"lat": "-7.25", "city": "Lopuna", "lon": "-76.7333333"}, {"lat": "-6.6841667", "city": "Machungo", "lon": "-76.2733333"}, {"lat": "-8.8333333", "city": "Madre Mia", "lon": "-76.1666667"}, {"lat": "-8.4394444", "city": "Mam\u00e1n", "lon": "-76.8544444"}, {"lat": "-6.6488889", "city": "Mamonaquihua", "lon": "-76.4322222"}, {"lat": "-6.7244444", "city": "Mariscal Castilla", "lon": "-76.3980556"}, {"lat": "-6.6841667", "city": "Mechungo", "lon": "-76.2733333"}, {"lat": "-6.62", "city": "Mego", "lon": "-76.3252778"}, {"lat": "-7.0377778", "city": "Miraflores", "lon": "-76.4566667"}, {"lat": "-6.7875", "city": "Misquiyacu", "lon": "-76.2602778"}, {"lat": "-6.4666667", "city": "Morales", "lon": "-76.4666667"}, {"lat": "-6.05", "city": "Moyobamba", "lon": "-76.9666667"}, {"lat": "-6.25", "city": "Naranjal", "lon": "-76.8333333"}, {"lat": "-6.25", "city": "Naranja", "lon": "-76.8333333"}, {"lat": "-6.3333333", "city": "Navarro", "lon": "-75.75"}, {"lat": "-7.1094444", "city": "Nueva Lima", "lon": "-76.4713889"}, {"lat": "-7.0358333", "city": "Nuevo Arica", "lon": "-76.4916667"}, {"lat": "-7.1094444", "city": "Nuevo Control", "lon": "-76.3247222"}, {"lat": "-7.1094444", "city": "Nuevo Lima", "lon": "-76.4713889"}, {"lat": "-7.1980556", "city": "Nuevo Tarapoto", "lon": "-76.4994444"}, {"lat": "-6.5563889", "city": "Ojo de Agua", "lon": "-76.4716667"}, {"lat": "-7.25", "city": "Osil\u00edn", "lon": "-76.9"}, {"lat": "-7.2666667", "city": "Pachisa", "lon": "-76.7666667"}, {"lat": "-7.2666667", "city": "Pachiza", "lon": "-76.7666667"}, {"lat": "-7.4833333", "city": "Pajat\u00e9n", "lon": "-77.3666667"}, {"lat": "-6.2166667", "city": "Palejo Isla", "lon": "-75.8166667"}, {"lat": "-8.0911111", "city": "Palina", "lon": "-76.8183333"}, {"lat": "-8.0911111", "city": "Palma", "lon": "-76.8183333"}, {"lat": "-7.0983333", "city": "Pampa Al\u00e9gre", "lon": "-76.4313889"}, {"lat": "-6.5205556", "city": "Pampa Hermosa", "lon": "-76.4894444"}, {"lat": "-6.2333333", "city": "Papa Playa", "lon": "-75.7666667"}, {"lat": "-6.45", "city": "Parcada", "lon": "-75.8666667"}, {"lat": "-8.2136111", "city": "Pashurungo", "lon": "-76.6058333"}, {"lat": "-6.2166667", "city": "Pelejo", "lon": "-75.8166667"}, {"lat": "-8.2558333", "city": "Pellejo", "lon": "-76.63"}, {"lat": "-6.9163889", "city": "Picota", "lon": "-76.3330556"}, {"lat": "-6.7775", "city": "Pilluana", "lon": "-76.2905556"}, {"lat": "-8.1388889", "city": "Pi\u00f1a", "lon": "-76.9222222"}, {"lat": "-8.0038889", "city": "Pisana", "lon": "-76.65"}, {"lat": "-6.9666667", "city": "Piscoyacu", "lon": "-76.7833333"}, {"lat": "-8.0038889", "city": "Pizana", "lon": "-76.65"}, {"lat": "-6.5527778", "city": "Poloponta", "lon": "-76.4886111"}, {"lat": "-7.9666667", "city": "P\u00f3lvora", "lon": "-76.6841667"}, {"lat": "-7.1380556", "city": "Pomacocha", "lon": "-76.4980556"}, {"lat": "-6.1166667", "city": "Pongo del Caynarachi", "lon": "-76.25"}, {"lat": "-6.4166667", "city": "Pongo", "lon": "-75.9"}, {"lat": "-6.0333333", "city": "P\u00f3sic", "lon": "-77.15"}, {"lat": "-6.5272222", "city": "Propiedad", "lon": "-76.4497222"}, {"lat": "-7.085", "city": "Providencia", "lon": "-76.4619444"}, {"lat": "-6.8516667", "city": "Pucacaca", "lon": "-76.3416667"}, {"lat": "-6.5466667", "city": "Pucayacu", "lon": "-76.32"}, {"lat": "-8.0038889", "city": "Puente Pisana", "lon": "-76.65"}, {"lat": "-7.0513889", "city": "Puerto Amazonas", "lon": "-76.4611111"}, {"lat": "-7.1236111", "city": "Puerto Arturo", "lon": "-76.4961111"}, {"lat": "-7.0333333", "city": "Puerto Billinghurst", "lon": "-77.1666667"}, {"lat": "-8.45", "city": "Puerto Huicote", "lon": "-76.35"}, {"lat": "-8.45", "city": "Puerto Huicte", "lon": "-76.35"}, {"lat": "-6.7386111", "city": "Puerto L\u00f3pez", "lon": "-76.29"}, {"lat": "-7.1630556", "city": "Puerto Nuevo", "lon": "-76.3936111"}, {"lat": "-8.0038889", "city": "Puerto Pisana", "lon": "-76.65"}, {"lat": "-8.0038889", "city": "Puerto Pizana", "lon": "-76.65"}, {"lat": "-6.9922222", "city": "Puerto Rico", "lon": "-76.4191667"}, {"lat": "-6.4166667", "city": "Quillacaca", "lon": "-75.7833333"}, {"lat": "-5.8833333", "city": "Quilluallpa", "lon": "-76.9166667"}, {"lat": "-6.4166667", "city": "Quillucaca", "lon": "-75.7833333"}, {"lat": "-6.15", "city": "Quinayacu", "lon": "-76.8833333"}, {"lat": "-6.15", "city": "Quinua-yacu", "lon": "-76.8833333"}, {"lat": "-6.2", "city": "Ram\u00edrez", "lon": "-76.8666667"}, {"lat": "-6.5261111", "city": "Reforma Porvenir", "lon": "-76.4730556"}, {"lat": "-6.0833333", "city": "Rioja", "lon": "-77.15"}, {"lat": "-6.4", "city": "Roque", "lon": "-76.8"}, {"lat": "-6.4666667", "city": "Rumisapa", "lon": "-76.5333333"}, {"lat": "-7.0833333", "city": "Sacanche", "lon": "-76.7333333"}, {"lat": "-6.3", "city": "Sacareto", "lon": "-75.7333333"}, {"lat": "-6.7791667", "city": "San Antonio de Paujilzapa", "lon": "-76.4236111"}, {"lat": "-6.3666667", "city": "San Antonio", "lon": "-76.35"}, {"lat": "-6.6369444", "city": "San Carlos", "lon": "-76.4252778"}, {"lat": "-7.1833333", "city": "Sanchima", "lon": "-76.9666667"}, {"lat": "-7.005", "city": "San Crist\u00f3bal de Sisa", "lon": "-76.4411111"}, {"lat": "-6.1833333", "city": "San Crist\u00f3bal", "lon": "-76.2333333"}, {"lat": "-6.6008333", "city": "San Fernando", "lon": "-76.4544444"}, {"lat": "-6.5783333", "city": "San Francisco", "lon": "-76.4230556"}, {"lat": "-7.0175", "city": "San Hilari\u00f3n", "lon": "-76.4586111"}, {"lat": "-6.6166667", "city": "San Jos\u00e9 de Sisa", "lon": "-76.65"}, {"lat": "-8.1841667", "city": "San Juan de Tocache", "lon": "-76.5125"}, {"lat": "-6.5327778", "city": "San Juan", "lon": "-76.3691667"}, {"lat": "-7.6833333", "city": "San Juli\u00e1n", "lon": "-76.7666667"}, {"lat": "-6.5013889", "city": "San Martin", "lon": "-76.3655556"}, {"lat": "-6.3833333", "city": "San Miguel", "lon": "-76.6666667"}, {"lat": "-6.8", "city": "San Pablo", "lon": "-76.5833333"}, {"lat": "-7.3763889", "city": "San Pedro", "lon": "-76.4280556"}, {"lat": "-7.0372222", "city": "San Rafael", "lon": "-76.4702778"}, {"lat": "-7.1833333", "city": "Santa B\u00e1rbara", "lon": "-76.9666667"}, {"lat": "-6.35", "city": "Santa Cruz de Shanao", "lon": "-76.6666667"}, {"lat": "-6.2166667", "city": "Santa Elena", "lon": "-75.75"}, {"lat": "-6.3333333", "city": "Santa Luc\u00eda", "lon": "-75.7"}, {"lat": "-6.5586111", "city": "Santa Luisa", "lon": "-76.3330556"}, {"lat": "-6.5272222", "city": "Santa Rosa de Cumbaza", "lon": "-76.3786111"}, {"lat": "-6.6333333", "city": "Santa Rosa", "lon": "-75.6333333"}, {"lat": "-6.7280556", "city": "Santa Rosita de Upaquihua", "lon": "-76.4183333"}, {"lat": "-6.5797222", "city": "Santa Zenobia", "lon": "-76.2955556"}, {"lat": "-6.9333333", "city": "Saposoa", "lon": "-76.8"}, {"lat": "-6.6913889", "city": "Sauce", "lon": "-76.2147222"}, {"lat": "-6.6913889", "city": "Sausi", "lon": "-76.2147222"}, {"lat": "-6.2833333", "city": "Setico Tipisca", "lon": "-75.6666667"}, {"lat": "-6.2833333", "city": "Setico Tipishca", "lon": "-75.6666667"}, {"lat": "-6.9972222", "city": "Shambayacu", "lon": "-76.165"}, {"lat": "-7.1333333", "city": "Shamboyacu", "lon": "-76.0333333"}, {"lat": "-6.35", "city": "Shanao", "lon": "-76.6666667"}, {"lat": "-6.1166667", "city": "Shanusi", "lon": "-76.25"}, {"lat": "-6.5797222", "city": "Shapaja", "lon": "-76.2627778"}, {"lat": "-6.5797222", "city": "Shapaya", "lon": "-76.2627778"}, {"lat": "-6.5722222", "city": "Shatuyacu", "lon": "-76.3075"}, {"lat": "-7.4166667", "city": "Shepte", "lon": "-76.8166667"}, {"lat": "-8.4383333", "city": "Shilco", "lon": "-76.8113889"}, {"lat": "-8.4383333", "city": "Silco", "lon": "-76.8113889"}, {"lat": "-7.65", "city": "Sion", "lon": "-76.7666667"}, {"lat": "-6.6166667", "city": "Sisa", "lon": "-76.65"}, {"lat": "-6.1", "city": "Soritor", "lon": "-77.0666667"}, {"lat": "-5.95", "city": "Sucllaquiro", "lon": "-76.9"}, {"lat": "-6.35", "city": "Tabalosos", "lon": "-76.6833333"}, {"lat": "-7.4666667", "city": "Tambillo", "lon": "-76.6166667"}, {"lat": "-6.0333333", "city": "Tambo Rio Negro", "lon": "-77.15"}, {"lat": "-6.5", "city": "Tangarana", "lon": "-75.6666667"}, {"lat": "-6.5013889", "city": "Tarapoto", "lon": "-76.3655556"}, {"lat": "-7.1166667", "city": "Tingo de Saposoa", "lon": "-76.6333333"}, {"lat": "-7.1", "city": "Tingo Jelache", "lon": "-77.0666667"}, {"lat": "-8.1841667", "city": "Tocache Nuevo", "lon": "-76.5125"}, {"lat": "-8.1841667", "city": "Tocache", "lon": "-76.5125"}, {"lat": "-8.1880556", "city": "Tocache Viejo", "lon": "-76.5502778"}, {"lat": "-6.6833333", "city": "Traguillo", "lon": "-76.3166667"}, {"lat": "-6.6833333", "city": "Traquillo", "lon": "-76.3166667"}, {"lat": "-6.5461111", "city": "Tres de Octubre", "lon": "-76.3441667"}, {"lat": "-6.505", "city": "Tres Unidos", "lon": "-76.465"}, {"lat": "-7.4875", "city": "Trujillo", "lon": "-76.4358333"}, {"lat": "-8.4166667", "city": "Uchisa", "lon": "-76.3833333"}, {"lat": "-8.4166667", "city": "Uchiza", "lon": "-76.3833333"}, {"lat": "-6.5883333", "city": "Uchumullaca", "lon": "-76.4963889"}, {"lat": "-6.5116667", "city": "Ucsha", "lon": "-76.3127778"}, {"lat": "-8.2166667", "city": "Utcubamba", "lon": "-77.1333333"}, {"lat": "-6.6630556", "city": "Utcurarca", "lon": "-76.2866667"}, {"lat": "-7.0666667", "city": "Vainilla Trapiche", "lon": "-76.5666667"}, {"lat": "-7.9166667", "city": "Ventanilla", "lon": "-77.4"}, {"lat": "-6.5977778", "city": "Victoria", "lon": "-76.4038889"}, {"lat": "-6.2833333", "city": "Villaje", "lon": "-75.7333333"}, {"lat": "-6.0", "city": "Visitador", "lon": "-77.2166667"}, {"lat": "-6.5222222", "city": "Vista Alegre", "lon": "-76.4697222"}, {"lat": "-6.6772222", "city": "Yacucatina", "lon": "-76.3191667"}, {"lat": "-6.7305556", "city": "Yanacachi", "lon": "-76.2841667"}, {"lat": "-6.0833333", "city": "Yana-yacu", "lon": "-76.9"}, {"lat": "-6.5666667", "city": "Yanayacu", "lon": "-75.6333333"}, {"lat": "-6.0", "city": "Yantal\u00f3", "lon": "-77.0"}, {"lat": "-6.4166667", "city": "Yarina", "lon": "-75.9"}, {"lat": "-5.8166667", "city": "Yorongos", "lon": "-77.35"}, {"lat": "-6.3333333", "city": "Yumbatos", "lon": "-76.3"}, {"lat": "-6.1166667", "city": "Yumbite", "lon": "-77.2666667"}, {"lat": "-5.95", "city": "Yuracyacu", "lon": "-77.1833333"}, {"lat": "-6.7166667", "city": "Yurac Yacu", "lon": "-76.5833333"}, {"lat": "-6.5297222", "city": "Zapatero", "lon": "-76.4925"}], "02": [{"lat": "-9.1166667", "city": "3 De Octubre", "lon": "-78.55"}, {"lat": "-10.45", "city": "Acas", "lon": "-77.3166667"}, {"lat": "-9.0666667", "city": "Acco", "lon": "-77.1"}, {"lat": "-9.2833333", "city": "Acco-Pampa", "lon": "-77.6"}, {"lat": "-9.1166667", "city": "Achacuas", "lon": "-78.0333333"}, {"lat": "-10.5", "city": "Aco", "lon": "-77.2333333"}, {"lat": "-9.2833333", "city": "Acopampa", "lon": "-77.6"}, {"lat": "-9.2166667", "city": "Aczo", "lon": "-76.9666667"}, {"lat": "-8.9", "city": "Aguaquita", "lon": "-78.1666667"}, {"lat": "-10.0666667", "city": "Aiguay", "lon": "-78.1"}, {"lat": "-9.7666667", "city": "Aija", "lon": "-77.6333333"}, {"lat": "-8.4166667", "city": "Alaypampa", "lon": "-78.0"}, {"lat": "-9.1333333", "city": "Algarrobal", "lon": "-78.1833333"}, {"lat": "-10.05", "city": "Alizo", "lon": "-77.4666667"}, {"lat": "-8.2666667", "city": "Allaymucha", "lon": "-78.0333333"}, {"lat": "-10.15", "city": "Alonso", "lon": "-77.5333333"}, {"lat": "-10.6333333", "city": "Alpas", "lon": "-77.5333333"}, {"lat": "-10.6333333", "city": "Alpas Hacienda", "lon": "-77.5333333"}, {"lat": "-9.2333333", "city": "Amashca", "lon": "-77.65"}, {"lat": "-9.9166667", "city": "Ampan\u00fa", "lon": "-78.1666667"}, {"lat": "-8.9166667", "city": "Anaspampa", "lon": "-78.1666667"}, {"lat": "-8.4833333", "city": "Ancos", "lon": "-78.1"}, {"lat": "-8.6666667", "city": "Andamayo", "lon": "-77.6333333"}, {"lat": "-8.6666667", "city": "Andaymayo", "lon": "-77.6333333"}, {"lat": "-8.6666667", "city": "Andaymayo Hacienda", "lon": "-77.6333333"}, {"lat": "-8.95", "city": "Anguy", "lon": "-78.1166667"}, {"lat": "-9.25", "city": "Anta", "lon": "-78.05"}, {"lat": "-9.7666667", "city": "Antamina", "lon": "-77.1"}, {"lat": "-9.9833333", "city": "Antarraga", "lon": "-77.3333333"}, {"lat": "-8.85", "city": "Apartadero", "lon": "-78.2666667"}, {"lat": "-10.0833333", "city": "Aquia", "lon": "-77.1333333"}, {"lat": "-10.0666667", "city": "Arenal", "lon": "-78.1333333"}, {"lat": "-9.6333333", "city": "Arhuacancha", "lon": "-77.3333333"}, {"lat": "-9.2666667", "city": "Ataco Pampa", "lon": "-78.0166667"}, {"lat": "-9.25", "city": "Ataquero", "lon": "-77.7166667"}, {"lat": "-8.7333333", "city": "Atun Tranca", "lon": "-78.0833333"}, {"lat": "-10.5166667", "city": "Aucaico", "lon": "-77.7166667"}, {"lat": "-8.9333333", "city": "Azulrangra", "lon": "-78.1333333"}, {"lat": "-8.6", "city": "Bambas", "lon": "-78.0"}, {"lat": "-10.1333333", "city": "Ba\u00f1os", "lon": "-77.25"}, {"lat": "-10.0166667", "city": "Barbacay", "lon": "-77.9833333"}, {"lat": "-10.3833333", "city": "Bellavista", "lon": "-77.4166667"}, {"lat": "-10.5666667", "city": "Bermejo", "lon": "-77.9"}, {"lat": "-8.8833333", "city": "Boc\u00f3n", "lon": "-78.2"}, {"lat": "-8.35", "city": "Bolognesi", "lon": "-78.0666667"}, {"lat": "-9.1666667", "city": "Bre\u00f1a", "lon": "-78.0666667"}, {"lat": "-9.45", "city": "Buena Vista Baja", "lon": "-78.2"}, {"lat": "-10.2333333", "city": "Buena Vista", "lon": "-77.4666667"}, {"lat": "-8.9666667", "city": "Buenavista", "lon": "-78.1166667"}, {"lat": "-8.9", "city": "Buena Vista", "lon": "-78.4166667"}, {"lat": "-9.45", "city": "Buenavista", "lon": "-78.2"}, {"lat": "-8.4", "city": "Cabana", "lon": "-78.0333333"}, {"lat": "-10.55", "city": "Cabrillas", "lon": "-77.45"}, {"lat": "-9.0", "city": "Caceres del Peru", "lon": "-78.1666667"}, {"lat": "-8.8333333", "city": "Cachap", "lon": "-78.05"}, {"lat": "-10.1666667", "city": "Cachicurana", "lon": "-77.2833333"}, {"lat": "-10.2", "city": "Cachi Huarana Cucho", "lon": "-77.2333333"}, {"lat": "-9.5166667", "city": "Cachipampa", "lon": "-78.0333333"}, {"lat": "-9.1", "city": "Cactuy", "lon": "-78.1833333"}, {"lat": "-9.4", "city": "Cahuacucho", "lon": "-78.2166667"}, {"lat": "-10.1666667", "city": "Cajacay", "lon": "-77.4333333"}, {"lat": "-8.5333333", "city": "Cajamala", "lon": "-78.0833333"}, {"lat": "-10.35", "city": "Cajamarquilla", "lon": "-77.2"}, {"lat": "-9.5666667", "city": "Calavera Chico", "lon": "-78.1666667"}, {"lat": "-9.55", "city": "Calavera Grande", "lon": "-78.1666667"}, {"lat": "-9.1166667", "city": "Calcabamba", "lon": "-77.3"}, {"lat": "-8.9666667", "city": "Calcap", "lon": "-78.0666667"}, {"lat": "-9.2166667", "city": "Calera", "lon": "-78.1166667"}, {"lat": "-9.1666667", "city": "Calla", "lon": "-77.75"}, {"lat": "-8.8666667", "city": "Callhuas", "lon": "-78.15"}, {"lat": "-8.8666667", "city": "Callhuas Hacienda", "lon": "-78.15"}, {"lat": "-10.3333333", "city": "Camapuichqui", "lon": "-77.3666667"}, {"lat": "-8.3666667", "city": "Camball", "lon": "-78.0833333"}, {"lat": "-8.9833333", "city": "Cambio Puente", "lon": "-78.5666667"}, {"lat": "-10.1333333", "city": "Campamento Yanamarca", "lon": "-77.2333333"}, {"lat": "-8.9833333", "city": "Canchas", "lon": "-78.1"}, {"lat": "-10.3333333", "city": "Canis", "lon": "-77.1666667"}, {"lat": "-10.4833333", "city": "Ca\u00f1\u00f3n", "lon": "-77.1666667"}, {"lat": "-8.2333333", "city": "Canta Gallo", "lon": "-78.0"}, {"lat": "-9.5333333", "city": "Cantina", "lon": "-78.2333333"}, {"lat": "-8.8833333", "city": "Canto", "lon": "-78.1666667"}, {"lat": "-9.2", "city": "Capellan\u00eda", "lon": "-78.3666667"}, {"lat": "-9.2666667", "city": "Capilla", "lon": "-78.4666667"}, {"lat": "-9.2666667", "city": "Capilla Hacienda", "lon": "-78.4666667"}, {"lat": "-9.1", "city": "Captuy", "lon": "-78.1833333"}, {"lat": "-10.5333333", "city": "Caracha", "lon": "-77.4333333"}, {"lat": "-9.0666667", "city": "Caras", "lon": "-77.8166667"}, {"lat": "-9.4833333", "city": "Carash", "lon": "-77.1833333"}, {"lat": "-9.0666667", "city": "Caraz", "lon": "-77.8166667"}, {"lat": "-9.9833333", "city": "Carcarrillo", "lon": "-77.1166667"}, {"lat": "-10.1", "city": "Carcas", "lon": "-77.1666667"}, {"lat": "-10.25", "city": "Carhuac", "lon": "-77.4"}, {"lat": "-10.3166667", "city": "Carhuajara", "lon": "-77.1833333"}, {"lat": "-10.4666667", "city": "Carhuapampa", "lon": "-77.2333333"}, {"lat": "-9.2666667", "city": "Carhu\u00e1s", "lon": "-77.6333333"}, {"lat": "-9.2666667", "city": "Carhuaz", "lon": "-77.6333333"}, {"lat": "-9.8166667", "city": "Carpa", "lon": "-77.3"}, {"lat": "-9.9166667", "city": "Carricillo", "lon": "-78.1833333"}, {"lat": "-9.6666667", "city": "Carrizal", "lon": "-78.2833333"}, {"lat": "-10.0833333", "city": "Casa Blanca", "lon": "-77.2333333"}, {"lat": "-10.4333333", "city": "Casa Vieja", "lon": "-77.5"}, {"lat": "-8.8666667", "city": "Casca", "lon": "-77.4166667"}, {"lat": "-8.8833333", "city": "Cascajal Derecho", "lon": "-78.4833333"}, {"lat": "-9.2166667", "city": "Cascapara", "lon": "-77.7166667"}, {"lat": "-10.3666667", "city": "Cashacoto", "lon": "-77.4333333"}, {"lat": "-9.9833333", "city": "Cashuahuay", "lon": "-77.15"}, {"lat": "-9.2166667", "city": "Caskapara", "lon": "-77.7166667"}, {"lat": "-9.4666667", "city": "Casma", "lon": "-78.3166667"}, {"lat": "-8.9333333", "city": "Castillo", "lon": "-78.5833333"}, {"lat": "-9.8", "city": "Catac", "lon": "-77.4333333"}, {"lat": "-10.2", "city": "Caulla", "lon": "-77.05"}, {"lat": "-9.0666667", "city": "Cav\u00e1s", "lon": "-77.8166667"}, {"lat": "-9.1666667", "city": "Caya", "lon": "-77.75"}, {"lat": "-8.8", "city": "Cayan", "lon": "-78.1"}, {"lat": "-8.9333333", "city": "Cerro Colorado", "lon": "-78.45"}, {"lat": "-8.95", "city": "Chacana", "lon": "-78.15"}, {"lat": "-9.2333333", "city": "Chacas", "lon": "-77.3833333"}, {"lat": "-8.8", "city": "Chachas", "lon": "-78.15"}, {"lat": "-8.1833333", "city": "Chal\u00e1n", "lon": "-77.6666667"}, {"lat": "-8.1833333", "city": "Chalan Hacienda", "lon": "-77.6666667"}, {"lat": "-10.2", "city": "Chamana", "lon": "-77.5666667"}, {"lat": "-9.1666667", "city": "Chambara", "lon": "-76.9833333"}, {"lat": "-9.8333333", "city": "Champa", "lon": "-78.0"}, {"lat": "-9.3166667", "city": "Chancos", "lon": "-77.5666667"}, {"lat": "-9.55", "city": "Chanquillo", "lon": "-78.2166667"}, {"lat": "-10.3", "city": "Chasquitambo", "lon": "-77.6"}, {"lat": "-10.1833333", "city": "Chaucayan", "lon": "-77.5666667"}, {"lat": "-9.5833333", "city": "Chav\u00edn", "lon": "-77.25"}, {"lat": "-9.5833333", "city": "Chav\u00edn de Huantar", "lon": "-77.25"}, {"lat": "-8.9", "city": "Cheques", "lon": "-78.1666667"}, {"lat": "-9.5666667", "city": "Chichucancha", "lon": "-77.2666667"}, {"lat": "-9.5833333", "city": "Chil\u00e1n", "lon": "-77.5333333"}, {"lat": "-10.45", "city": "Chilca", "lon": "-77.3666667"}, {"lat": "-10.0166667", "city": "Chilcal", "lon": "-78.05"}, {"lat": "-9.0833333", "city": "Chimbote", "lon": "-78.6"}, {"lat": "-10.3166667", "city": "Chimu", "lon": "-77.5833333"}, {"lat": "-10.0666667", "city": "Chinchipi", "lon": "-77.5166667"}, {"lat": "-8.6666667", "city": "Chinchobamba", "lon": "-77.5833333"}, {"lat": "-8.6666667", "city": "Chinchobamba Hacienda", "lon": "-77.5833333"}, {"lat": "-8.35", "city": "Chingalpa", "lon": "-77.55"}, {"lat": "-8.35", "city": "Chingalpo", "lon": "-77.55"}, {"lat": "-9.0666667", "city": "Chingas", "lon": "-76.9666667"}, {"lat": "-10.3333333", "city": "Chiquiahuanca", "lon": "-77.6166667"}, {"lat": "-10.15", "city": "Chiqui\u00e1n", "lon": "-77.1833333"}, {"lat": "-10.15", "city": "Chiqui\u00f3n", "lon": "-77.1833333"}, {"lat": "-9.2833333", "city": "Chirimoyo", "lon": "-78.0166667"}, {"lat": "-9.5666667", "city": "Choloque", "lon": "-78.2"}, {"lat": "-10.1833333", "city": "Chopac", "lon": "-77.4833333"}, {"lat": "-10.4333333", "city": "Choque", "lon": "-77.5"}, {"lat": "-10.2666667", "city": "Chua", "lon": "-77.1166667"}, {"lat": "-9.0833333", "city": "Chullhuay", "lon": "-78.1666667"}, {"lat": "-8.6", "city": "Chunyay", "lon": "-78.0333333"}, {"lat": "-8.6666667", "city": "Chuquicara", "lon": "-78.25"}, {"lat": "-10.1166667", "city": "Churap", "lon": "-77.4833333"}, {"lat": "-10.1333333", "city": "Chururo", "lon": "-77.5333333"}, {"lat": "-8.5", "city": "Cocabal", "lon": "-78.1333333"}, {"lat": "-9.4833333", "city": "Cochabamba", "lon": "-77.8666667"}, {"lat": "-9.85", "city": "Coch\u00e1n", "lon": "-78.0833333"}, {"lat": "-9.9833333", "city": "Cochapet\u00ed", "lon": "-77.65"}, {"lat": "-10.35", "city": "Cochco Pampa", "lon": "-77.3666667"}, {"lat": "-9.5333333", "city": "Cocopoto", "lon": "-78.0666667"}, {"lat": "-9.0166667", "city": "Coisco", "lon": "-78.6333333"}, {"lat": "-9.0166667", "city": "Coishco", "lon": "-78.6333333"}, {"lat": "-9.5833333", "city": "Colcabamba", "lon": "-77.8166667"}, {"lat": "-8.9666667", "city": "Colcap", "lon": "-78.0666667"}, {"lat": "-9.3", "city": "Colcas", "lon": "-78.0333333"}, {"lat": "-8.7666667", "city": "Collota", "lon": "-77.6166667"}, {"lat": "-10.2833333", "city": "Colquioc", "lon": "-77.5333333"}, {"lat": "-9.4666667", "city": "Comte Noel", "lon": "-78.4"}, {"lat": "-8.8333333", "city": "Conchas", "lon": "-78.15"}, {"lat": "-8.8333333", "city": "Conchas Hacienda", "lon": "-78.15"}, {"lat": "-8.2666667", "city": "Conchucos", "lon": "-77.85"}, {"lat": "-10.3333333", "city": "Congas", "lon": "-77.45"}, {"lat": "-9.9", "city": "Congoncillo", "lon": "-78.1333333"}, {"lat": "-10.0333333", "city": "Cong\u00f3n", "lon": "-78.0833333"}, {"lat": "-10.1166667", "city": "Conococha", "lon": "-77.3"}, {"lat": "-8.7666667", "city": "Conocuarmi", "lon": "-78.1666667"}, {"lat": "-10.3666667", "city": "Copa", "lon": "-77.5"}, {"lat": "-10.4333333", "city": "Copavilca", "lon": "-77.5333333"}, {"lat": "-8.9333333", "city": "Copray", "lon": "-78.2166667"}, {"lat": "-10.4", "city": "Corimanta", "lon": "-77.25"}, {"lat": "-9.8333333", "city": "Coris", "lon": "-77.75"}, {"lat": "-9.0333333", "city": "Coro", "lon": "-76.9666667"}, {"lat": "-8.5833333", "city": "Corongo", "lon": "-77.9166667"}, {"lat": "-10.2833333", "city": "Corpanqui", "lon": "-77.2"}, {"lat": "-9.0166667", "city": "Coshco", "lon": "-78.6333333"}, {"lat": "-9.05", "city": "Cosma", "lon": "-78.0166667"}, {"lat": "-10.0", "city": "Cotaparaco", "lon": "-77.6"}, {"lat": "-10.0166667", "city": "Coto", "lon": "-77.6"}, {"lat": "-10.5", "city": "Coy-coy", "lon": "-77.6666667"}, {"lat": "-8.9", "city": "Cruz Pampa", "lon": "-78.25"}, {"lat": "-10.2833333", "city": "Cuartel Corral", "lon": "-77.25"}, {"lat": "-8.9833333", "city": "Cucco", "lon": "-78.0833333"}, {"lat": "-10.55", "city": "Cuchillas", "lon": "-77.4166667"}, {"lat": "-9.5166667", "city": "Cuchipuro", "lon": "-78.05"}, {"lat": "-9.2333333", "city": "Cucul\u00ed", "lon": "-78.1"}, {"lat": "-9.8833333", "city": "Culebras", "lon": "-78.1"}, {"lat": "-9.8833333", "city": "Culebras Hacienda", "lon": "-78.1"}, {"lat": "-8.9", "city": "Cunca", "lon": "-78.15"}, {"lat": "-10.1166667", "city": "Cuncush", "lon": "-76.9333333"}, {"lat": "-8.8833333", "city": "Cupsi", "lon": "-78.3666667"}, {"lat": "-10.2166667", "city": "Curcuy", "lon": "-77.2166667"}, {"lat": "-8.5166667", "city": "Cusca", "lon": "-77.8666667"}, {"lat": "-9.85", "city": "Cusmo", "lon": "-78.0166667"}, {"lat": "-10.2333333", "city": "Cusp\u00f3n", "lon": "-77.1666667"}, {"lat": "-10.0666667", "city": "Cutacancha", "lon": "-77.2"}, {"lat": "-10.0833333", "city": "Cutahuayi", "lon": "-77.0"}, {"lat": "-9.1333333", "city": "Cuyash Cunca", "lon": "-78.0"}, {"lat": "-10.0666667", "city": "Cuz-Cuz", "lon": "-78.1166667"}, {"lat": "-9.8333333", "city": "Cuzmo", "lon": "-78.0166667"}, {"lat": "-9.4666667", "city": "Desmotadora", "lon": "-78.3833333"}, {"lat": "-8.9", "city": "El Arrozal", "lon": "-78.4166667"}, {"lat": "-9.4666667", "city": "El Camello", "lon": "-78.1333333"}, {"lat": "-8.9333333", "city": "El Castillo", "lon": "-78.5833333"}, {"lat": "-9.4333333", "city": "El Doce", "lon": "-78.35"}, {"lat": "-10.25", "city": "El Dorado", "lon": "-77.4166667"}, {"lat": "-9.25", "city": "El Huarangal", "lon": "-76.9833333"}, {"lat": "-9.9333333", "city": "El Mirador", "lon": "-78.2166667"}, {"lat": "-8.3166667", "city": "El Portaquas", "lon": "-78.0833333"}, {"lat": "-8.3166667", "city": "El Portugu\u00e9s", "lon": "-78.0833333"}, {"lat": "-8.5", "city": "El Porvenir", "lon": "-78.0666667"}, {"lat": "-8.9833333", "city": "El Porvenir Hacienda", "lon": "-78.65"}, {"lat": "-9.9666667", "city": "Equiparco", "lon": "-77.65"}, {"lat": "-9.1833333", "city": "Escal\u00f3n", "lon": "-78.05"}, {"lat": "-10.65", "city": "Espach\u00edn Alto", "lon": "-77.5666667"}, {"lat": "-10.65", "city": "Espach\u00edn Alto Hacienda", "lon": "-77.5666667"}, {"lat": "-10.65", "city": "Espach\u00edn Bajo", "lon": "-77.5833333"}, {"lat": "-10.65", "city": "Espach\u00edn Bajo Hacienda", "lon": "-77.5833333"}, {"lat": "-10.0833333", "city": "Flor de Nieve", "lon": "-77.2166667"}, {"lat": "-9.0833333", "city": "Florida Alta", "lon": "-78.5666667"}, {"lat": "-9.4166667", "city": "Fundo Tarao Grande", "lon": "-78.2166667"}, {"lat": "-8.4666667", "city": "Galgada", "lon": "-78.15"}, {"lat": "-10.4", "city": "Gorgorilla", "lon": "-77.1833333"}, {"lat": "-10.4", "city": "Gorgorillo", "lon": "-77.1833333"}, {"lat": "-10.3333333", "city": "Gorgorrillo", "lon": "-77.1"}, {"lat": "-10.3833333", "city": "Gramadal", "lon": "-77.9833333"}, {"lat": "-9.0", "city": "Guadalupe", "lon": "-78.05"}, {"lat": "-10.8166667", "city": "Guaralica", "lon": "-77.6666667"}, {"lat": "-10.8166667", "city": "Guaralica Hacienda", "lon": "-77.6666667"}, {"lat": "-10.0666667", "city": "Hacienda Alguay", "lon": "-78.1"}, {"lat": "-10.0166667", "city": "Hacienda Barbacay", "lon": "-77.9833333"}, {"lat": "-9.1833333", "city": "Hacienda Cajay", "lon": "-78.0333333"}, {"lat": "-9.5166667", "city": "Hacienda Canchapampa", "lon": "-78.0333333"}, {"lat": "-9.2", "city": "Hacienda Capillama", "lon": "-78.3666667"}, {"lat": "-9.3333333", "city": "Hacienda Carhua Pampa", "lon": "-78.05"}, {"lat": "-9.4833333", "city": "Hacienda Carrizal", "lon": "-78.2833333"}, {"lat": "-9.5", "city": "Hacienda Casa Blanca", "lon": "-78.1333333"}, {"lat": "-9.1833333", "city": "Hacienda Cerro Blanco", "lon": "-78.3333333"}, {"lat": "-10.0166667", "city": "Hacienda Chilcal", "lon": "-78.05"}, {"lat": "-9.0333333", "city": "Hacienda Condici\u00f3n", "lon": "-78.1333333"}, {"lat": "-9.5166667", "city": "Hacienda Condor Arma", "lon": "-78.1166667"}, {"lat": "-10.0666667", "city": "Hacienda Cruz Cancha", "lon": "-77.2666667"}, {"lat": "-9.8833333", "city": "Hacienda Culebras", "lon": "-78.1"}, {"lat": "-9.2333333", "city": "Hacienda Huacatambo", "lon": "-78.4166667"}, {"lat": "-9.2666667", "city": "Hacienda Huacuy", "lon": "-78.0"}, {"lat": "-9.35", "city": "Hacienda Huanchuy", "lon": "-78.1666667"}, {"lat": "-9.1333333", "city": "Hacienda Huaracpampa", "lon": "-78.0"}, {"lat": "-9.5166667", "city": "Hacienda Huaraspampa", "lon": "-78.1333333"}, {"lat": "-8.85", "city": "Hacienda Huasquil", "lon": "-78.15"}, {"lat": "-10.0666667", "city": "Hacienda Huayi", "lon": "-77.05"}, {"lat": "-9.5333333", "city": "Hacienda Jaigua Baja", "lon": "-78.0833333"}, {"lat": "-9.2666667", "city": "Hacienda la Capilla", "lon": "-78.4666667"}, {"lat": "-9.3666667", "city": "Hacienda la Vi\u00f1a", "lon": "-78.1666667"}, {"lat": "-10.2833333", "city": "Hacienda la Zorra", "lon": "-78.0333333"}, {"lat": "-10.0666667", "city": "Hacienda Mandinga", "lon": "-78.1"}, {"lat": "-10.0", "city": "Hacienda Mar\u00eda Cristina", "lon": "-77.9"}, {"lat": "-9.5333333", "city": "Hacienda Mojeque", "lon": "-78.2333333"}, {"lat": "-9.8833333", "city": "Hacienda Molina", "lon": "-78.1166667"}, {"lat": "-8.9", "city": "Hacienda Rinconada", "lon": "-78.5666667"}, {"lat": "-8.8833333", "city": "Hacienda Salitre", "lon": "-78.3"}, {"lat": "-8.9666667", "city": "Hacienda San Dionicio", "lon": "-78.6"}, {"lat": "-9.1333333", "city": "Hacienda San Jacinto", "lon": "-78.2833333"}, {"lat": "-9.0166667", "city": "Hacienda San Jose", "lon": "-78.55"}, {"lat": "-8.7833333", "city": "Hacienda San Juan", "lon": "-78.05"}, {"lat": "-9.4333333", "city": "Hacienda San Miguel", "lon": "-78.35"}, {"lat": "-10.0833333", "city": "Hacienda San N\u00edcol\u00e1s", "lon": "-78.1666667"}, {"lat": "-9.5333333", "city": "Hacienda San Rafael", "lon": "-78.2333333"}, {"lat": "-9.0666667", "city": "Hacienda Santa Clemencia", "lon": "-78.55"}, {"lat": "-9.4", "city": "Hacienda Santa Rosa del Olivar", "lon": "-78.1833333"}, {"lat": "-10.0", "city": "Hacienda Santa Rosa", "lon": "-77.95"}, {"lat": "-8.7", "city": "Hacienda Suchimancillo", "lon": "-78.3833333"}, {"lat": "-8.7166667", "city": "Hacienda Suchiman", "lon": "-78.4333333"}, {"lat": "-8.9666667", "city": "Hacienda Tambo Real", "lon": "-78.5833333"}, {"lat": "-8.6833333", "city": "Hacienda Taquilp\u00f3n", "lon": "-78.15"}, {"lat": "-10.0166667", "city": "Hacienda Tincoc", "lon": "-77.2666667"}, {"lat": "-9.4", "city": "Hacienda Tucushuanca", "lon": "-78.2"}, {"lat": "-9.1666667", "city": "Hacienda Virahuanca", "lon": "-78.2"}, {"lat": "-10.2833333", "city": "Harquis", "lon": "-77.6"}, {"lat": "-9.1", "city": "Hornillos", "lon": "-78.0666667"}, {"lat": "-9.2666667", "city": "Huacachi", "lon": "-76.9"}, {"lat": "-8.9333333", "city": "Huacapampa", "lon": "-78.05"}, {"lat": "-8.3", "city": "Huacaschuque", "lon": "-78.0"}, {"lat": "-9.2333333", "city": "Huacatambo Hacienda", "lon": "-78.4166667"}, {"lat": "-9.2333333", "city": "Huacatambo", "lon": "-78.4166667"}, {"lat": "-9.1666667", "city": "Huachis", "lon": "-76.8"}, {"lat": "-9.8", "city": "Huacll\u00e1n", "lon": "-77.6833333"}, {"lat": "-9.2666667", "city": "Huacuy", "lon": "-78.0"}, {"lat": "-8.3333333", "city": "Huadoval", "lon": "-77.9833333"}, {"lat": "-8.8666667", "city": "Huailas", "lon": "-77.9"}, {"lat": "-10.6", "city": "Huailillas", "lon": "-77.4333333"}, {"lat": "-10.25", "city": "Huaillacay\u00e1n", "lon": "-77.4333333"}, {"lat": "-10.0333333", "city": "Huaillapampa", "lon": "-77.5666667"}, {"lat": "-9.5166667", "city": "Hualhuayoc", "lon": "-78.1166667"}, {"lat": "-10.2833333", "city": "Huallac", "lon": "-77.3166667"}, {"lat": "-8.8166667", "city": "Huallanca", "lon": "-77.8666667"}, {"lat": "-8.5333333", "city": "Huallobamba", "lon": "-77.5333333"}, {"lat": "-10.1", "city": "Huamancay", "lon": "-77.5166667"}, {"lat": "-9.0166667", "city": "Huamanhuanco", "lon": "-77.3666667"}, {"lat": "-9.2666667", "city": "Huambacho", "lon": "-78.4333333"}, {"lat": "-9.25", "city": "Huambacho Nuevo", "lon": "-78.45"}, {"lat": "-9.2666667", "city": "Huambacho Viejo", "lon": "-78.4333333"}, {"lat": "-9.95", "city": "Huamba", "lon": "-77.8666667"}, {"lat": "-10.1333333", "city": "Huambo", "lon": "-77.3833333"}, {"lat": "-9.25", "city": "Huanbachonuevo", "lon": "-78.45"}, {"lat": "-9.2666667", "city": "Huanbachoviejo", "lon": "-78.4333333"}, {"lat": "-9.45", "city": "Huancamu\u00f1a", "lon": "-78.2166667"}, {"lat": "-10.0833333", "city": "Huanchaquito", "lon": "-78.1666667"}, {"lat": "-10.2833333", "city": "Huanchay", "lon": "-77.2833333"}, {"lat": "-8.9833333", "city": "Huanchuy", "lon": "-78.0666667"}, {"lat": "-9.9833333", "city": "Huancuato", "lon": "-77.7"}, {"lat": "-8.3333333", "city": "Huandoval", "lon": "-77.9833333"}, {"lat": "-8.4666667", "city": "Huangamaca", "lon": "-78.05"}, {"lat": "-10.4333333", "city": "Huanri", "lon": "-77.2"}, {"lat": "-9.4333333", "city": "Hu\u00e1ntar", "lon": "-77.25"}, {"lat": "-9.0666667", "city": "Huantaspampa", "lon": "-78.1666667"}, {"lat": "-8.2", "city": "Huantaullo", "lon": "-77.6166667"}, {"lat": "-9.3333333", "city": "Huantor", "lon": "-78.05"}, {"lat": "-8.7833333", "city": "Huaquia", "lon": "-78.05"}, {"lat": "-10.1", "city": "Huaqui\u00f3n", "lon": "-77.6"}, {"lat": "-10.2833333", "city": "Huaquish", "lon": "-77.6"}, {"lat": "-10.2833333", "city": "Huaquis", "lon": "-77.6"}, {"lat": "-10.2", "city": "Huarancallo", "lon": "-77.0666667"}, {"lat": "-9.5333333", "city": "Huaras", "lon": "-77.5333333"}, {"lat": "-9.5333333", "city": "Huaraz", "lon": "-77.5333333"}, {"lat": "-8.9833333", "city": "Huarchuy", "lon": "-78.0666667"}, {"lat": "-9.1333333", "city": "Huarcos", "lon": "-78.15"}, {"lat": "-9.3333333", "city": "Huari", "lon": "-77.2333333"}, {"lat": "-8.95", "city": "Huaripampa", "lon": "-77.8333333"}, {"lat": "-10.0666667", "city": "Huarmei", "lon": "-78.1666667"}, {"lat": "-10.0666667", "city": "Huarmey", "lon": "-78.1666667"}, {"lat": "-8.85", "city": "Huasgull", "lon": "-78.15"}, {"lat": "-8.9833333", "city": "Huashcayan", "lon": "-78.0166667"}, {"lat": "-10.2", "city": "Huaspec", "lon": "-77.65"}, {"lat": "-8.85", "city": "Huasquilde Hacienda", "lon": "-78.15"}, {"lat": "-8.85", "city": "Huasquil Hacienda", "lon": "-78.15"}, {"lat": "-8.85", "city": "Huasquil", "lon": "-78.15"}, {"lat": "-10.15", "city": "Huasta", "lon": "-77.15"}, {"lat": "-9.0166667", "city": "Huata", "lon": "-77.85"}, {"lat": "-9.0666667", "city": "Huataspampa", "lon": "-78.1666667"}, {"lat": "-8.2", "city": "Huataullo Hacienda", "lon": "-77.6166667"}, {"lat": "-8.2", "city": "Huataullo", "lon": "-77.6166667"}, {"lat": "-8.85", "city": "Huatsquil", "lon": "-78.15"}, {"lat": "-10.6", "city": "Huayacocha", "lon": "-77.4333333"}, {"lat": "-9.8666667", "city": "Huay\u00e1n", "lon": "-77.7333333"}, {"lat": "-8.8666667", "city": "Huaylas", "lon": "-77.9"}, {"lat": "-10.6", "city": "Huaylillas Grande", "lon": "-77.4333333"}, {"lat": "-10.6166667", "city": "Huaylillos Chico", "lon": "-77.4333333"}, {"lat": "-8.5333333", "city": "Huayllabamba", "lon": "-77.5333333"}, {"lat": "-10.25", "city": "Huayllacay\u00e1n", "lon": "-77.4333333"}, {"lat": "-10.0333333", "city": "Huayllapampa", "lon": "-77.5666667"}, {"lat": "-9.9166667", "city": "Huayup", "lon": "-77.8333333"}, {"lat": "-10.1166667", "city": "Huertas", "lon": "-77.5833333"}, {"lat": "-9.9833333", "city": "Huichay", "lon": "-77.7666667"}, {"lat": "-9.6", "city": "Huinac", "lon": "-77.6666667"}, {"lat": "-9.15", "city": "Huisco", "lon": "-78.0833333"}, {"lat": "-10.0", "city": "Ichichuanuco", "lon": "-77.2833333"}, {"lat": "-10.1333333", "city": "Ichoca", "lon": "-77.45"}, {"lat": "-10.25", "city": "Ingenio Viejo", "lon": "-77.0166667"}, {"lat": "-8.8166667", "city": "Ircahuay", "lon": "-78.2166667"}, {"lat": "-8.9", "city": "Irhua", "lon": "-78.2"}, {"lat": "-7.2666667", "city": "Jacos", "lon": "-78.2666667"}, {"lat": "-10.2333333", "city": "Jahuaccocha", "lon": "-76.9833333"}, {"lat": "-13.2333333", "city": "Jahuilca", "lon": "-74.0333333"}, {"lat": "-9.5333333", "city": "Jaigua", "lon": "-78.0833333"}, {"lat": "-10.1666667", "city": "Jancahuayi", "lon": "-76.9"}, {"lat": "-9.4", "city": "Jancas", "lon": "-77.5833333"}, {"lat": "-9.3833333", "city": "Jangas", "lon": "-77.5833333"}, {"lat": "-10.2166667", "city": "Jarachacra", "lon": "-77.4833333"}, {"lat": "-10.0833333", "city": "Jecanca", "lon": "-77.1333333"}, {"lat": "-9.45", "city": "Jecanga", "lon": "-77.6333333"}, {"lat": "-9.0", "city": "Jimbe", "lon": "-78.1666667"}, {"lat": "-10.0", "city": "Juito Cocha", "lon": "-77.0666667"}, {"lat": "-10.5333333", "city": "Julquillas", "lon": "-77.7333333"}, {"lat": "-9.85", "city": "Junco", "lon": "-78.0333333"}, {"lat": "-9.2166667", "city": "Kascapara", "lon": "-77.7166667"}, {"lat": "-8.9166667", "city": "La Aguada", "lon": "-78.4333333"}, {"lat": "-9.2666667", "city": "La Boquita", "lon": "-78.5166667"}, {"lat": "-8.9166667", "city": "Labor", "lon": "-78.5166667"}, {"lat": "-8.2666667", "city": "Lacabamba", "lon": "-77.9"}, {"lat": "-10.4666667", "city": "Lacchas", "lon": "-77.45"}, {"lat": "-8.9166667", "city": "Lachiguas", "lon": "-78.1666667"}, {"lat": "-10.35", "city": "Laclla", "lon": "-77.25"}, {"lat": "-8.8833333", "city": "Lacramarca Hacienda", "lon": "-78.2666667"}, {"lat": "-8.8833333", "city": "Lacramarca", "lon": "-78.2666667"}, {"lat": "-10.0666667", "city": "La Cruz", "lon": "-78.15"}, {"lat": "-9.2", "city": "La Cumbre", "lon": "-78.4666667"}, {"lat": "-9.4166667", "city": "La Empedrada", "lon": "-78.2166667"}, {"lat": "-8.4666667", "city": "La Galgada", "lon": "-78.15"}, {"lat": "-9.4666667", "city": "Laguna", "lon": "-78.25"}, {"lat": "-8.9833333", "city": "La Huaca", "lon": "-78.6166667"}, {"lat": "-9.7333333", "city": "La Merced", "lon": "-77.6166667"}, {"lat": "-8.95", "city": "La Mora", "lon": "-78.55"}, {"lat": "-8.9333333", "city": "Lampamin", "lon": "-78.15"}, {"lat": "-8.9333333", "city": "Lampanin", "lon": "-78.15"}, {"lat": "-9.3333333", "city": "La Palma", "lon": "-78.0166667"}, {"lat": "-8.65", "city": "La Pampa", "lon": "-77.9"}, {"lat": "-9.6166667", "city": "La Ponderosa", "lon": "-78.3333333"}, {"lat": "-9.1", "city": "Laria Hacienda", "lon": "-78.1666667"}, {"lat": "-9.1", "city": "Laria", "lon": "-78.1666667"}, {"lat": "-9.0333333", "city": "La Rinconada", "lon": "-78.55"}, {"lat": "-8.8833333", "city": "Las Cruces", "lon": "-78.3666667"}, {"lat": "-10.65", "city": "Las Virgenes Hacienda", "lon": "-77.5666667"}, {"lat": "-10.65", "city": "Las V\u00edrgenes", "lon": "-77.5666667"}, {"lat": "-10.2833333", "city": "Las Zorras", "lon": "-78.0333333"}, {"lat": "-10.35", "city": "La Union", "lon": "-77.4833333"}, {"lat": "-8.8666667", "city": "La V\u00edbora", "lon": "-78.5833333"}, {"lat": "-9.3166667", "city": "La Victoria", "lon": "-78.0333333"}, {"lat": "-9.3666667", "city": "La Vi\u00f1a", "lon": "-78.1666667"}, {"lat": "-10.2833333", "city": "La Zorra", "lon": "-78.0333333"}, {"lat": "-10.0833333", "city": "Lecheral", "lon": "-78.15"}, {"lat": "-10.35", "city": "Llaclla", "lon": "-77.25"}, {"lat": "-10.0666667", "city": "Llacllin", "lon": "-77.6166667"}, {"lat": "-10.6", "city": "Llamachup\u00e1n Hacienda", "lon": "-77.4166667"}, {"lat": "-10.6", "city": "Llamachup\u00e1n", "lon": "-77.4166667"}, {"lat": "-10.2", "city": "Llamac", "lon": "-77.0333333"}, {"lat": "-10.0166667", "city": "Llama Huashan", "lon": "-77.6166667"}, {"lat": "-8.8833333", "city": "Llama", "lon": "-77.3"}, {"lat": "-10.2333333", "city": "Llama Rumi", "lon": "-77.5666667"}, {"lat": "-9.1333333", "city": "Llamell\u00edn", "lon": "-77.0166667"}, {"lat": "-10.2166667", "city": "Llampa", "lon": "-77.0833333"}, {"lat": "-10.0833333", "city": "Llanqui", "lon": "-77.6166667"}, {"lat": "-8.5333333", "city": "Llapo", "lon": "-78.0666667"}, {"lat": "-8.9", "city": "Llimpamacay", "lon": "-78.25"}, {"lat": "-10.3833333", "city": "Llipa", "lon": "-77.2"}, {"lat": "-10.4166667", "city": "Lliplipa Hacienda", "lon": "-77.4333333"}, {"lat": "-10.4166667", "city": "Lliplipa", "lon": "-77.4333333"}, {"lat": "-8.9166667", "city": "Llumpa", "lon": "-77.3666667"}, {"lat": "-9.3166667", "city": "Los Chim\u00fa", "lon": "-78.4666667"}, {"lat": "-9.3166667", "city": "Los Chinos", "lon": "-78.4666667"}, {"lat": "-8.8833333", "city": "Los Cruces", "lon": "-78.3666667"}, {"lat": "-9.4166667", "city": "Lucma Hacienda", "lon": "-77.5666667"}, {"lat": "-8.9166667", "city": "Lucma", "lon": "-77.4166667"}, {"lat": "-8.8666667", "city": "Lupahuari Hacienda", "lon": "-78.2833333"}, {"lat": "-8.8666667", "city": "Lupahuari", "lon": "-78.2833333"}, {"lat": "-10.0666667", "city": "Lusga", "lon": "-77.3166667"}, {"lat": "-9.2833333", "city": "Macar\u00e1", "lon": "-77.6"}, {"lat": "-8.7666667", "city": "Macate", "lon": "-78.0833333"}, {"lat": "-9.6833333", "city": "Machacc", "lon": "-77.2166667"}, {"lat": "-9.6833333", "city": "Machac", "lon": "-77.2166667"}, {"lat": "-9.6833333", "city": "Machay", "lon": "-77.2166667"}, {"lat": "-10.15", "city": "Mahuay", "lon": "-77.0166667"}, {"lat": "-8.2833333", "city": "Mallas", "lon": "-77.6666667"}, {"lat": "-8.8833333", "city": "Mallay", "lon": "-78.1833333"}, {"lat": "-8.8833333", "city": "Malley", "lon": "-78.1833333"}, {"lat": "-10.0166667", "city": "Malpaso", "lon": "-77.8833333"}, {"lat": "-9.9166667", "city": "Malvas", "lon": "-77.6833333"}, {"lat": "-10.0666667", "city": "Manache", "lon": "-78.1833333"}, {"lat": "-9.1833333", "city": "Mancos", "lon": "-77.7166667"}, {"lat": "-10.0666667", "city": "Mandinga", "lon": "-78.1"}, {"lat": "-10.1166667", "city": "Maquia", "lon": "-77.6333333"}, {"lat": "-10.2833333", "city": "Maravilla", "lon": "-77.45"}, {"lat": "-10.0833333", "city": "Marca", "lon": "-77.5"}, {"lat": "-9.2833333", "city": "Marcar\u00e1", "lon": "-77.6"}, {"lat": "-8.9166667", "city": "Marco", "lon": "-78.1333333"}, {"lat": "-8.9666667", "city": "Maribamba", "lon": "-77.2833333"}, {"lat": "-10.4", "city": "Marihuacha", "lon": "-77.5"}, {"lat": "-8.8166667", "city": "Masapuquio Hacienda", "lon": "-78.15"}, {"lat": "-8.8166667", "city": "Masapuquio", "lon": "-78.15"}, {"lat": "-10.25", "city": "Mascash", "lon": "-77.1333333"}, {"lat": "-10.1833333", "city": "Matacancha", "lon": "-76.9333333"}, {"lat": "-9.2666667", "city": "Matibamba", "lon": "-77.1833333"}, {"lat": "-8.2833333", "city": "Mayas Hacienda", "lon": "-77.6666667"}, {"lat": "-8.2833333", "city": "Mayas", "lon": "-77.6666667"}, {"lat": "-10.25", "city": "Mayocancha", "lon": "-77.3"}, {"lat": "-10.4166667", "city": "Membrillo", "lon": "-77.4166667"}, {"lat": "-10.05", "city": "Minas Tucu", "lon": "-77.1666667"}, {"lat": "-8.9666667", "city": "Mirabamba", "lon": "-77.2833333"}, {"lat": "-8.6666667", "city": "Mirador", "lon": "-78.1166667"}, {"lat": "-10.3166667", "city": "Miramar", "lon": "-77.4666667"}, {"lat": "-9.0", "city": "Mirgas", "lon": "-77.0333333"}, {"lat": "-8.6666667", "city": "Mitobamba Hacienda", "lon": "-77.6"}, {"lat": "-8.6666667", "city": "Mitobamba", "lon": "-77.6"}, {"lat": "-10.15", "city": "Mogote", "lon": "-77.5"}, {"lat": "-9.5333333", "city": "Mojeque", "lon": "-78.2333333"}, {"lat": "-10.0833333", "city": "Moj\u00f3n", "lon": "-77.2166667"}, {"lat": "-10.4", "city": "Molino", "lon": "-77.4166667"}, {"lat": "-8.0833333", "city": "Mollebambita", "lon": "-77.7166667"}, {"lat": "-9.4666667", "city": "Monterrey", "lon": "-77.5166667"}, {"lat": "-9.1333333", "city": "Moro", "lon": "-78.2"}, {"lat": "-9.1333333", "city": "Motocache Hacienda", "lon": "-78.2166667"}, {"lat": "-9.1333333", "city": "Motocache", "lon": "-78.2166667"}, {"lat": "-9.3333333", "city": "Muccha", "lon": "-77.1833333"}, {"lat": "-8.8833333", "city": "Nahuin", "lon": "-78.15"}, {"lat": "-10.0833333", "city": "Napan", "lon": "-77.4"}, {"lat": "-8.85", "city": "Naranjo", "lon": "-78.2333333"}, {"lat": "-9.5333333", "city": "Nav\u00edn", "lon": "-78.1333333"}, {"lat": "-9.1666667", "city": "Nepe\u00f1a", "lon": "-78.3833333"}, {"lat": "-8.3333333", "city": "Ninabamba", "lon": "-78.0166667"}, {"lat": "-9.5333333", "city": "Nivin", "lon": "-78.1333333"}, {"lat": "-10.4", "city": "Ocros", "lon": "-77.4"}, {"lat": "-9.4", "city": "Olivar", "lon": "-78.1833333"}, {"lat": "-9.35", "city": "Olladacunca", "lon": "-78.1333333"}, {"lat": "-9.6333333", "city": "Olleros", "lon": "-77.4833333"}, {"lat": "-9.8833333", "city": "Oyos", "lon": "-78.1166667"}, {"lat": "-10.1166667", "city": "Pacan", "lon": "-77.6833333"}, {"lat": "-10.05", "city": "Pacarenca", "lon": "-77.1166667"}, {"lat": "-10.0833333", "city": "Pacar", "lon": "-77.5"}, {"lat": "-10.55", "city": "Pacayal", "lon": "-77.7333333"}, {"lat": "-9.5333333", "city": "Pacay", "lon": "-78.15"}, {"lat": "-8.9833333", "city": "Paccha", "lon": "-78.0333333"}, {"lat": "-8.9", "city": "Pachaco", "lon": "-78.2166667"}, {"lat": "-9.8666667", "city": "Pachacoto Hacienda", "lon": "-77.4166667"}, {"lat": "-9.8666667", "city": "Pachacoto", "lon": "-77.4166667"}, {"lat": "-9.9333333", "city": "Pachapaque", "lon": "-77.0833333"}, {"lat": "-10.3", "city": "Pacllan", "lon": "-77.1166667"}, {"lat": "-10.3", "city": "Pacll\u00f3n", "lon": "-77.1166667"}, {"lat": "-9.15", "city": "Paderones", "lon": "-78.2"}, {"lat": "-9.3666667", "city": "Pader\u00f3n", "lon": "-78.15"}, {"lat": "-8.9833333", "city": "Palillo", "lon": "-78.1666667"}, {"lat": "-8.25", "city": "Pallasca", "lon": "-78.0166667"}, {"lat": "-10.1833333", "city": "Pallca", "lon": "-76.95"}, {"lat": "-8.8333333", "city": "Pamabamba", "lon": "-77.4666667"}, {"lat": "-10.1166667", "city": "Pampa Huay Grande", "lon": "-77.0"}, {"lat": "-10.0333333", "city": "Pampa Huay", "lon": "-77.2666667"}, {"lat": "-9.0833333", "city": "Pamparoma", "lon": "-77.9833333"}, {"lat": "-9.0833333", "city": "Pamparom\u00e1s", "lon": "-77.9833333"}, {"lat": "-10.1166667", "city": "Pampas Chico", "lon": "-77.4"}, {"lat": "-8.2", "city": "Pampas", "lon": "-77.9"}, {"lat": "-8.9166667", "city": "Pamtoc", "lon": "-78.2"}, {"lat": "-10.3666667", "city": "Panahuaray", "lon": "-77.2333333"}, {"lat": "-8.9166667", "city": "Pantoc", "lon": "-78.2"}, {"lat": "-10.2166667", "city": "Papu", "lon": "-77.1333333"}, {"lat": "-10.3666667", "city": "Parapaco", "lon": "-77.5"}, {"lat": "-10.05", "city": "Parar\u00edn", "lon": "-77.6833333"}, {"lat": "-8.95", "city": "Paras", "lon": "-77.1"}, {"lat": "-9.2", "city": "Pariacaca", "lon": "-76.95"}, {"lat": "-9.2", "city": "Pariacancha", "lon": "-76.95"}, {"lat": "-9.3333333", "city": "Pariacolca Hacienda", "lon": "-78.0166667"}, {"lat": "-9.3333333", "city": "Pariacolca", "lon": "-78.0166667"}, {"lat": "-9.5166667", "city": "Pariacoto", "lon": "-77.8833333"}, {"lat": "-9.3666667", "city": "Pariahuanca", "lon": "-77.5833333"}, {"lat": "-8.7", "city": "Parobamba", "lon": "-77.3833333"}, {"lat": "-9.5333333", "city": "Pasae", "lon": "-78.15"}, {"lat": "-9.55", "city": "Patazca", "lon": "-78.2"}, {"lat": "-8.9", "city": "Pato Hacienda", "lon": "-77.85"}, {"lat": "-8.9", "city": "Pato", "lon": "-77.85"}, {"lat": "-9.1333333", "city": "Paucas", "lon": "-76.9"}, {"lat": "-10.0833333", "city": "Pay-Pay", "lon": "-78.15"}, {"lat": "-9.05", "city": "Pensa Cola", "lon": "-78.5833333"}, {"lat": "-9.0166667", "city": "Piedra Grande", "lon": "-78.1666667"}, {"lat": "-10.6166667", "city": "Piedra Hueca", "lon": "-77.4666667"}, {"lat": "-9.35", "city": "Piedra Parada", "lon": "-78.1333333"}, {"lat": "-9.5666667", "city": "Pira", "lon": "-77.7166667"}, {"lat": "-9.9833333", "city": "Pirauya", "lon": "-77.75"}, {"lat": "-8.8833333", "city": "Piscobamba", "lon": "-77.35"}, {"lat": "-8.8", "city": "Piscos", "lon": "-77.3833333"}, {"lat": "-8.9666667", "city": "Pisin", "lon": "-78.1666667"}, {"lat": "-10.0833333", "city": "Pitec", "lon": "-77.55"}, {"lat": "-9.45", "city": "Piura", "lon": "-78.3666667"}, {"lat": "-9.7666667", "city": "Playa Grande", "lon": "-78.2333333"}, {"lat": "-9.9333333", "city": "Pochapaqui", "lon": "-77.0833333"}, {"lat": "-10.2666667", "city": "Pocor", "lon": "-77.5833333"}, {"lat": "-9.1333333", "city": "Pocos", "lon": "-78.15"}, {"lat": "-10.1833333", "city": "Pocpa", "lon": "-77.0"}, {"lat": "-9.3166667", "city": "Pocso", "lon": "-78.05"}, {"lat": "-9.5333333", "city": "Poctao", "lon": "-78.0666667"}, {"lat": "-9.7333333", "city": "Poihu\u00e1n", "lon": "-77.35"}, {"lat": "-8.8333333", "city": "Pomabamba", "lon": "-77.4666667"}, {"lat": "-9.4", "city": "Pomachaca", "lon": "-77.2333333"}, {"lat": "-9.0333333", "city": "Pomallocoy", "lon": "-77.3666667"}, {"lat": "-10.0333333", "city": "Pomapampa", "lon": "-77.1333333"}, {"lat": "-10.1333333", "city": "Pomapata", "lon": "-77.05"}, {"lat": "-10.1666667", "city": "Pomay", "lon": "-77.55"}, {"lat": "-9.2833333", "city": "Poneaj", "lon": "-78.0166667"}, {"lat": "-9.2666667", "city": "Ponto", "lon": "-76.9666667"}, {"lat": "-9.5166667", "city": "Portada Alta", "lon": "-78.1"}, {"lat": "-10.4666667", "city": "Pucalpa", "lon": "-77.4"}, {"lat": "-9.1666667", "city": "Pucapampa", "lon": "-78.0833333"}, {"lat": "-10.0166667", "city": "Puca Ranca Fundo", "lon": "-77.5666667"}, {"lat": "-8.8833333", "city": "Pucushimin", "lon": "-78.2333333"}, {"lat": "-9.1166667", "city": "Pueblo Libre", "lon": "-77.8166667"}, {"lat": "-10.3", "city": "Pueblo Viejo Colquioc", "lon": "-77.5666667"}, {"lat": "-8.7", "city": "Pueblo Viejo", "lon": "-78.1333333"}, {"lat": "-9.4666667", "city": "Puerto Casma", "lon": "-78.3166667"}, {"lat": "-9.4666667", "city": "Puerto de Casma", "lon": "-78.4"}, {"lat": "-10.0666667", "city": "Puerto de Huarmey", "lon": "-78.1666667"}, {"lat": "-10.1", "city": "Puerto Huarmey", "lon": "-78.1833333"}, {"lat": "-9.4333333", "city": "Puerto Pobre", "lon": "-78.3833333"}, {"lat": "-9.2666667", "city": "Puerto Samanco", "lon": "-78.5"}, {"lat": "-8.9833333", "city": "Puerto Santa", "lon": "-78.65"}, {"lat": "-9.4", "city": "Pumachaca", "lon": "-77.2333333"}, {"lat": "-10.4333333", "city": "Punhuas", "lon": "-77.4"}, {"lat": "-10.0333333", "city": "Punta Huayi", "lon": "-77.0"}, {"lat": "-9.5666667", "city": "Puquio Grande", "lon": "-78.2"}, {"lat": "-9.5666667", "city": "Puquio", "lon": "-78.2"}, {"lat": "-9.5333333", "city": "Purgatorio", "lon": "-78.2166667"}, {"lat": "-9.25", "city": "Purhuash", "lon": "-77.9"}, {"lat": "-9.3833333", "city": "Puyar", "lon": "-78.1833333"}, {"lat": "-9.3833333", "city": "Puyor", "lon": "-78.1833333"}, {"lat": "-8.95", "city": "Quepancoto", "lon": "-78.05"}, {"lat": "-8.9166667", "city": "Querocancha", "lon": "-78.1333333"}, {"lat": "-10.1833333", "city": "Quero", "lon": "-77.0833333"}, {"lat": "-8.4166667", "city": "Quiches Heights", "lon": "-77.45"}, {"lat": "-8.4166667", "city": "Quiches", "lon": "-77.45"}, {"lat": "-8.7666667", "city": "Quilcay Grande", "lon": "-78.1"}, {"lat": "-10.0666667", "city": "Quilipe", "lon": "-78.1666667"}, {"lat": "-9.85", "city": "Quillapampa", "lon": "-78.0166667"}, {"lat": "-9.85", "city": "Quillipampa", "lon": "-78.0166667"}, {"lat": "-9.3166667", "city": "Quillo", "lon": "-78.0333333"}, {"lat": "-8.7333333", "city": "Quinuabamba", "lon": "-77.3666667"}, {"lat": "-9.2", "city": "Quishar", "lon": "-77.8166667"}, {"lat": "-9.2", "city": "Quishuar", "lon": "-77.8166667"}, {"lat": "-9.5", "city": "Quisquis", "lon": "-78.0166667"}, {"lat": "-10.3166667", "city": "Quisuar Cancha", "lon": "-77.4166667"}, {"lat": "-9.9333333", "city": "Quita Sombrero", "lon": "-78.2"}, {"lat": "-8.9833333", "city": "Raccha", "lon": "-78.0333333"}, {"lat": "-9.3833333", "city": "Rahuapampa", "lon": "-77.15"}, {"lat": "-9.65", "city": "Raipa", "lon": "-77.9166667"}, {"lat": "-10.3833333", "city": "Rajan", "lon": "-77.2166667"}, {"lat": "-9.3666667", "city": "Rancap", "lon": "-78.0333333"}, {"lat": "-9.1666667", "city": "Rangrairca", "lon": "-77.7333333"}, {"lat": "-8.6333333", "city": "Ranhuas", "lon": "-77.8833333"}, {"lat": "-9.1666667", "city": "Ranrahirca", "lon": "-77.7333333"}, {"lat": "-9.9833333", "city": "Ranra Ragra", "lon": "-77.5333333"}, {"lat": "-10.15", "city": "Raqu\u00eda", "lon": "-77.4833333"}, {"lat": "-10.4666667", "city": "Ray\u00e1n", "lon": "-77.2833333"}, {"lat": "-9.2833333", "city": "Recodo", "lon": "-77.1166667"}, {"lat": "-9.7166667", "city": "Recuai", "lon": "-77.4666667"}, {"lat": "-8.8833333", "city": "Recuaybamba", "lon": "-78.0666667"}, {"lat": "-9.7166667", "city": "Recuay", "lon": "-77.4666667"}, {"lat": "-9.7166667", "city": "Requay", "lon": "-77.4666667"}, {"lat": "-10.1166667", "city": "Rinau Pata", "lon": "-77.2333333"}, {"lat": "-8.9", "city": "Rinconada Hacienda", "lon": "-78.5666667"}, {"lat": "-10.4833333", "city": "Rinconada", "lon": "-77.4333333"}, {"lat": "-10.2166667", "city": "Roca", "lon": "-77.2166667"}, {"lat": "-10.0", "city": "Rodeo Grande", "lon": "-77.2166667"}, {"lat": "-9.9666667", "city": "Rumahuain", "lon": "-77.4"}, {"lat": "-9.35", "city": "Rumipallana", "lon": "-78.1166667"}, {"lat": "-9.35", "city": "Rumipayana", "lon": "-78.1166667"}, {"lat": "-8.9", "city": "Ruris", "lon": "-77.1166667"}, {"lat": "-8.3", "city": "Sacaycacha", "lon": "-78.1"}, {"lat": "-9.2333333", "city": "Sacras", "lon": "-78.0833333"}, {"lat": "-10.0666667", "city": "Sacsa", "lon": "-77.7"}, {"lat": "-10.0833333", "city": "Salitral", "lon": "-78.1666667"}, {"lat": "-9.05", "city": "Salitre Hacienda", "lon": "-78.1666667"}, {"lat": "-9.05", "city": "Salitre", "lon": "-78.1666667"}, {"lat": "-9.2666667", "city": "Samanco", "lon": "-78.5"}, {"lat": "-9.2666667", "city": "Samancos", "lon": "-78.5"}, {"lat": "-10.1666667", "city": "San Antonio de Quislpata", "lon": "-77.1833333"}, {"lat": "-9.4666667", "city": "San Diego Hacienda", "lon": "-78.35"}, {"lat": "-9.4666667", "city": "San Diego", "lon": "-78.35"}, {"lat": "-8.9666667", "city": "San Dionisio Hacienda", "lon": "-78.6"}, {"lat": "-8.9666667", "city": "San Dionisio", "lon": "-78.6"}, {"lat": "-8.9166667", "city": "San Eusebio", "lon": "-78.5833333"}, {"lat": "-8.8833333", "city": "San Francisco", "lon": "-78.5166667"}, {"lat": "-9.2166667", "city": "San Gregorio", "lon": "-78.3833333"}, {"lat": "-10.0", "city": "San Isidro", "lon": "-77.7166667"}, {"lat": "-9.1333333", "city": "San Jacinto Hacienda", "lon": "-78.2833333"}, {"lat": "-9.1333333", "city": "San Jacinto", "lon": "-78.2833333"}, {"lat": "-9.15", "city": "San Jos\u00e9 Hacienda", "lon": "-78.3333333"}, {"lat": "-9.15", "city": "San Jos\u00e9", "lon": "-78.3333333"}, {"lat": "-9.0833333", "city": "San Luis", "lon": "-77.35"}, {"lat": "-9.5166667", "city": "San Marcos", "lon": "-77.2333333"}, {"lat": "-10.0166667", "city": "San Miguel", "lon": "-77.65"}, {"lat": "-10.0833333", "city": "San Nicol\u00e1s", "lon": "-78.1666667"}, {"lat": "-9.5333333", "city": "San Rafael", "lon": "-78.2333333"}, {"lat": "-8.8833333", "city": "Santa Ana", "lon": "-78.2166667"}, {"lat": "-9.15", "city": "Santa Catalina Hacienda", "lon": "-77.4"}, {"lat": "-9.15", "city": "Santa Catalina", "lon": "-77.4"}, {"lat": "-8.9833333", "city": "Santa Cemencia", "lon": "-78.5333333"}, {"lat": "-8.4666667", "city": "Santa Clara", "lon": "-77.4166667"}, {"lat": "-9.4666667", "city": "Santa Cristina Hacienda", "lon": "-78.35"}, {"lat": "-9.4666667", "city": "Santa Cristina", "lon": "-78.35"}, {"lat": "-9.4666667", "city": "Santa Delfina Hacienda", "lon": "-78.3666667"}, {"lat": "-9.4666667", "city": "Santa Delfina", "lon": "-78.3666667"}, {"lat": "-9.45", "city": "Santa Elena", "lon": "-78.3333333"}, {"lat": "-9.45", "city": "Santa Melania", "lon": "-78.3333333"}, {"lat": "-9.4333333", "city": "Santa Melania-Tab\u00f3n", "lon": "-78.3333333"}, {"lat": "-8.5166667", "city": "Santa Rosa", "lon": "-77.7666667"}, {"lat": "-8.9833333", "city": "Santa", "lon": "-78.6"}, {"lat": "-10.4666667", "city": "Santiago de Chilcas", "lon": "-77.4"}, {"lat": "-9.0166667", "city": "Santo Domingo", "lon": "-78.1333333"}, {"lat": "-10.15", "city": "Sapahua\u00edn", "lon": "-77.2666667"}, {"lat": "-10.3", "city": "Saruiccocha", "lon": "-77.0"}, {"lat": "-10.0333333", "city": "Sausal", "lon": "-78.0833333"}, {"lat": "-9.45", "city": "Sechin Alto", "lon": "-78.2333333"}, {"lat": "-10.15", "city": "Shamllau", "lon": "-77.6"}, {"lat": "-10.0333333", "city": "Shara Machay", "lon": "-77.4"}, {"lat": "-9.2333333", "city": "Shilla", "lon": "-77.6666667"}, {"lat": "-10.2166667", "city": "Shinuac", "lon": "-77.2666667"}, {"lat": "-9.2", "city": "Shupluy", "lon": "-77.6833333"}, {"lat": "-10.1833333", "city": "Shurac", "lon": "-77.6333333"}, {"lat": "-8.8", "city": "Shushun", "lon": "-78.2"}, {"lat": "-8.6333333", "city": "Sicsibamba", "lon": "-77.6"}, {"lat": "-9.05", "city": "Sider\u00fargica", "lon": "-78.6333333"}, {"lat": "-8.5666667", "city": "Sihuas", "lon": "-77.6166667"}, {"lat": "-8.5833333", "city": "Sinsacape", "lon": "-78.05"}, {"lat": "-9.0166667", "city": "Socorro", "lon": "-78.1333333"}, {"lat": "-9.05", "city": "Sogesa", "lon": "-78.6"}, {"lat": "-8.6666667", "city": "Soledad", "lon": "-78.0"}, {"lat": "-10.0166667", "city": "Son Son", "lon": "-78.0166667"}, {"lat": "-9.4166667", "city": "Succha", "lon": "-77.2166667"}, {"lat": "-8.7166667", "city": "Suchiman Hacienda", "lon": "-78.4333333"}, {"lat": "-8.7166667", "city": "Suchiman", "lon": "-78.4333333"}, {"lat": "-8.95", "city": "Sucre", "lon": "-77.85"}, {"lat": "-9.2", "city": "Suplay", "lon": "-77.6833333"}, {"lat": "-10.0166667", "city": "Suyan", "lon": "-77.1333333"}, {"lat": "-10.3666667", "city": "Tacra", "lon": "-77.3166667"}, {"lat": "-10.0166667", "city": "Taica", "lon": "-78.0833333"}, {"lat": "-10.0333333", "city": "Tallenga", "lon": "-77.1"}, {"lat": "-9.15", "city": "Tambar", "lon": "-78.1333333"}, {"lat": "-9.3833333", "city": "Tambillos", "lon": "-78.1666667"}, {"lat": "-8.9666667", "city": "Tambo Real Hacienda", "lon": "-78.5833333"}, {"lat": "-8.9666667", "city": "Tambo Real", "lon": "-78.5833333"}, {"lat": "-8.9", "city": "Tampatin", "lon": "-78.2"}, {"lat": "-8.9", "city": "Tamputin", "lon": "-78.2"}, {"lat": "-8.7333333", "city": "Tanguche Hacienda", "lon": "-78.5166667"}, {"lat": "-8.7333333", "city": "Tanguche", "lon": "-78.5166667"}, {"lat": "-10.0166667", "city": "Tapacocha", "lon": "-77.5833333"}, {"lat": "-8.6833333", "city": "Taquilp\u00f3n Hacienda", "lon": "-78.15"}, {"lat": "-8.6833333", "city": "Taquilp\u00f3n", "lon": "-78.15"}, {"lat": "-8.6", "city": "Tarica", "lon": "-77.7666667"}, {"lat": "-8.4833333", "city": "Tauca", "lon": "-78.05"}, {"lat": "-10.3", "city": "Taullacsh", "lon": "-77.35"}, {"lat": "-10.3", "city": "Tauripan", "lon": "-77.1666667"}, {"lat": "-10.3", "city": "Taurip\u00f3n", "lon": "-77.1666667"}, {"lat": "-9.65", "city": "Tayapampa", "lon": "-77.4833333"}, {"lat": "-10.0333333", "city": "Tellenga", "lon": "-77.1"}, {"lat": "-9.8666667", "city": "Ten-Ten", "lon": "-78.1"}, {"lat": "-9.75", "city": "Ticapampa", "lon": "-77.45"}, {"lat": "-10.2666667", "city": "Ticllos", "lon": "-77.1666667"}, {"lat": "-9.2833333", "city": "Tinco", "lon": "-77.6666667"}, {"lat": "-9.2333333", "city": "Tinga", "lon": "-77.6833333"}, {"lat": "-10.3", "city": "Tingo", "lon": "-77.4"}, {"lat": "-9.2333333", "city": "Tingua", "lon": "-77.6833333"}, {"lat": "-10.0333333", "city": "Toma Pampa", "lon": "-77.5333333"}, {"lat": "-8.8333333", "city": "Toma", "lon": "-78.5666667"}, {"lat": "-9.1666667", "city": "Tomeque", "lon": "-78.2333333"}, {"lat": "-9.3666667", "city": "Tortuga", "lon": "-78.4166667"}, {"lat": "-10.05", "city": "Tranca", "lon": "-77.0666667"}, {"lat": "-8.7666667", "city": "Trebol", "lon": "-78.2333333"}, {"lat": "-10.5666667", "city": "Tres Cruces", "lon": "-77.4333333"}, {"lat": "-9.85", "city": "Trinchera", "lon": "-78.0833333"}, {"lat": "-9.9833333", "city": "Tuco Macray", "lon": "-77.2"}, {"lat": "-9.35", "city": "Tuctupill\u00edn", "lon": "-78.1"}, {"lat": "-9.4", "city": "Tucuchuanca", "lon": "-78.2"}, {"lat": "-9.4", "city": "Tucushuanca", "lon": "-78.2"}, {"lat": "-10.4833333", "city": "Tunas", "lon": "-77.3166667"}, {"lat": "-10.1833333", "city": "Tupuc", "lon": "-77.6666667"}, {"lat": "-10.0166667", "city": "Tuquilla", "lon": "-78.1833333"}, {"lat": "-10.0166667", "city": "Tuquillo", "lon": "-78.1833333"}, {"lat": "-10.25", "city": "Turpa", "lon": "-77.0"}, {"lat": "-9.85", "city": "Turripampa", "lon": "-78.0666667"}, {"lat": "-9.1333333", "city": "Uca", "lon": "-76.9"}, {"lat": "-8.0666667", "city": "Uchupampa", "lon": "-77.6666667"}, {"lat": "-9.2833333", "city": "Uchupata", "lon": "-77.1"}, {"lat": "-8.0666667", "city": "Uchu", "lon": "-77.6666667"}, {"lat": "-9.1333333", "city": "Uco", "lon": "-76.9"}, {"lat": "-9.1", "city": "Ullpan", "lon": "-78.0333333"}, {"lat": "-10.1666667", "city": "Umas", "lon": "-77.4"}, {"lat": "-8.65", "city": "Umbe", "lon": "-77.5833333"}, {"lat": "-8.85", "city": "Unchucoto Hacienda", "lon": "-78.1666667"}, {"lat": "-8.85", "city": "Unchucoto", "lon": "-78.1666667"}, {"lat": "-8.8833333", "city": "Unchuhuaray", "lon": "-78.3333333"}, {"lat": "-9.3333333", "city": "Unto", "lon": "-78.0833333"}, {"lat": "-10.2333333", "city": "Upapampa", "lon": "-77.25"}, {"lat": "-9.1166667", "city": "Urbanizacion Buenos Aires", "lon": "-78.5333333"}, {"lat": "-8.5833333", "city": "Urcon Hacienda", "lon": "-77.8"}, {"lat": "-8.5833333", "city": "Urc\u00f3n", "lon": "-77.8"}, {"lat": "-8.95", "city": "Ure\u00f1a", "lon": "-78.6333333"}, {"lat": "-10.05", "city": "Ushcu Ragra", "lon": "-77.2166667"}, {"lat": "-9.8166667", "city": "Utcuyacu Hacienda", "lon": "-77.45"}, {"lat": "-9.8166667", "city": "Utcuyacu", "lon": "-77.45"}, {"lat": "-10.1833333", "city": "Vado Pata", "lon": "-77.3"}, {"lat": "-10.1", "city": "Ventana", "lon": "-77.85"}, {"lat": "-10.0", "city": "Ventanilla", "lon": "-77.5166667"}, {"lat": "-9.2166667", "city": "Vesique", "lon": "-78.4833333"}, {"lat": "-9.3333333", "city": "Vicos Hacienda", "lon": "-77.55"}, {"lat": "-9.3333333", "city": "Vicos", "lon": "-77.55"}, {"lat": "-9.9333333", "city": "Villa Culebras", "lon": "-78.2166667"}, {"lat": "-9.1166667", "city": "Villa Maria Baja", "lon": "-78.55"}, {"lat": "-8.8666667", "city": "Villa Sucre", "lon": "-77.9"}, {"lat": "-9.15", "city": "Vinchamarca Chica", "lon": "-78.2166667"}, {"lat": "-9.15", "city": "Vinchamarca Chico", "lon": "-78.2166667"}, {"lat": "-9.15", "city": "Vinchamarca Grande", "lon": "-78.1833333"}, {"lat": "-8.8", "city": "Vincos", "lon": "-78.5666667"}, {"lat": "-10.2666667", "city": "Vindoc", "lon": "-77.5"}, {"lat": "-9.3333333", "city": "Vinocota", "lon": "-77.15"}, {"lat": "-8.8", "city": "Vinsos", "lon": "-78.5666667"}, {"lat": "-8.8", "city": "Vinzos Hacienda", "lon": "-78.5666667"}, {"lat": "-8.8", "city": "Vinzos", "lon": "-78.5666667"}, {"lat": "-10.1833333", "city": "Vista Alegre", "lon": "-77.3333333"}, {"lat": "-9.3833333", "city": "Yacuchacana", "lon": "-78.0166667"}, {"lat": "-9.0333333", "city": "Yahuarpampa", "lon": "-78.1666667"}, {"lat": "-10.2", "city": "Yamor", "lon": "-77.45"}, {"lat": "-8.6166667", "city": "Yanac", "lon": "-77.8666667"}, {"lat": "-9.0333333", "city": "Yanama", "lon": "-77.4833333"}, {"lat": "-10.0333333", "city": "Yanampa", "lon": "-77.5"}, {"lat": "-9.1666667", "city": "Yapacay\u00e1n", "lon": "-78.0666667"}, {"lat": "-9.5166667", "city": "Yaut\u00e1n", "lon": "-78.0"}, {"lat": "-8.9833333", "city": "Yauya", "lon": "-77.3"}, {"lat": "-10.5166667", "city": "Yerbabuena", "lon": "-77.4166667"}, {"lat": "-8.9333333", "city": "Yerba Buena", "lon": "-78.2166667"}, {"lat": "-9.5166667", "city": "Yuat\u00e1n", "lon": "-78.0"}, {"lat": "-10.25", "city": "Yumpe", "lon": "-77.4833333"}, {"lat": "-8.9", "city": "Yuncay", "lon": "-77.2"}, {"lat": "-9.3666667", "city": "Yungar", "lon": "-77.6"}, {"lat": "-9.15", "city": "Yungay", "lon": "-77.7333333"}, {"lat": "-9.25", "city": "Yunguilla", "lon": "-77.0166667"}, {"lat": "-8.6166667", "city": "Yup\u00e1n", "lon": "-77.9666667"}, {"lat": "-8.75", "city": "Yuramarca", "lon": "-77.9"}], "03": [{"lat": "-13.6338889", "city": "Abancai", "lon": "-72.8813889"}, {"lat": "-13.6338889", "city": "Abancay", "lon": "-72.8813889"}, {"lat": "-13.85", "city": "Accpit\u00e1n", "lon": "-72.4333333"}, {"lat": "-13.85", "city": "Achancayra", "lon": "-72.2333333"}, {"lat": "-14.25", "city": "Acobamba", "lon": "-72.2"}, {"lat": "-14.25", "city": "Acobamba Hacienda", "lon": "-72.2"}, {"lat": "-14.0", "city": "Acoyra", "lon": "-72.0833333"}, {"lat": "-14.3833333", "city": "Acoyto", "lon": "-72.2166667"}, {"lat": "-13.9666667", "city": "Aguaytane", "lon": "-72.5333333"}, {"lat": "-14.1047222", "city": "Airihuanca", "lon": "-72.6125"}, {"lat": "-13.65", "city": "Alejo Pata", "lon": "-73.5"}, {"lat": "-14.8", "city": "Alhacone", "lon": "-73.55"}, {"lat": "-13.5333333", "city": "Allacro", "lon": "-73.7333333"}, {"lat": "-14.3166667", "city": "Allauca", "lon": "-72.5333333"}, {"lat": "-13.4833333", "city": "Amancaes", "lon": "-73.55"}, {"lat": "-14.1713889", "city": "Anaccocha", "lon": "-73.6230556"}, {"lat": "-13.7", "city": "Anarqui", "lon": "-72.4166667"}, {"lat": "-13.7", "city": "Anarqui Hacienda", "lon": "-72.4166667"}, {"lat": "-13.55", "city": "Ancahuachana", "lon": "-72.7333333"}, {"lat": "-14.0166667", "city": "Anchapillay", "lon": "-72.4"}, {"lat": "-13.9833333", "city": "Anchicha", "lon": "-73.0"}, {"lat": "-14.0491667", "city": "Ancobamba", "lon": "-73.0938889"}, {"lat": "-13.6605556", "city": "Andahuailas", "lon": "-73.3866667"}, {"lat": "-13.6605556", "city": "Andahuavlas", "lon": "-73.3866667"}, {"lat": "-13.6605556", "city": "Andahuaylas", "lon": "-73.3866667"}, {"lat": "-13.5277778", "city": "Andarapa", "lon": "-73.3633333"}, {"lat": "-14.05", "city": "Angasjucha", "lon": "-73.5333333"}, {"lat": "-14.0647222", "city": "Angasjuclia", "lon": "-73.5311111"}, {"lat": "-13.75", "city": "Angaypahua", "lon": "-73.55"}, {"lat": "-13.9666667", "city": "A\u00f1ocalla", "lon": "-72.2666667"}, {"lat": "-14.3833333", "city": "A\u00f1occalla", "lon": "-72.5333333"}, {"lat": "-14.2333333", "city": "Anta Anta", "lon": "-72.2833333"}, {"lat": "-13.4872222", "city": "Antabamba", "lon": "-73.5119444"}, {"lat": "-13.5", "city": "Antaccasa", "lon": "-72.9666667"}, {"lat": "-14.2666667", "city": "Antapunco", "lon": "-72.1833333"}, {"lat": "-13.7", "city": "Antasco", "lon": "-73.65"}, {"lat": "-13.7666667", "city": "Antasgo", "lon": "-73.5333333"}, {"lat": "-13.65", "city": "Antilla", "lon": "-72.5666667"}, {"lat": "-14.0833333", "city": "Antio", "lon": "-72.2666667"}, {"lat": "-14.2833333", "city": "Anyo", "lon": "-72.2833333"}, {"lat": "-13.5", "city": "Apayhuana", "lon": "-72.8166667"}, {"lat": "-13.5", "city": "Apayhuana Hacienda", "lon": "-72.8166667"}, {"lat": "-13.9333333", "city": "Apumarca", "lon": "-72.0833333"}, {"lat": "-13.5666667", "city": "Arapoto", "lon": "-72.85"}, {"lat": "-13.4302778", "city": "Artilleria", "lon": "-73.8252778"}, {"lat": "-13.9833333", "city": "Asacasi", "lon": "-72.2666667"}, {"lat": "-13.5333333", "city": "Asil", "lon": "-72.8166667"}, {"lat": "-13.5166667", "city": "Ataccara", "lon": "-73.7"}, {"lat": "-13.5666667", "city": "Atajara", "lon": "-73.5"}, {"lat": "-13.8833333", "city": "Atocsajco", "lon": "-73.5333333"}, {"lat": "-13.7833333", "city": "Atumpampa", "lon": "-72.45"}, {"lat": "-14.2833333", "city": "Auacayo", "lon": "-72.2"}, {"lat": "-14.2", "city": "Auquillapata", "lon": "-72.2833333"}, {"lat": "-14.0805556", "city": "Auquimarca", "lon": "-73.5522222"}, {"lat": "-14.0", "city": "Ayaccasi", "lon": "-72.25"}, {"lat": "-14.05", "city": "Ayagua", "lon": "-72.2333333"}, {"lat": "-14.2077778", "city": "Ayahuay", "lon": "-73.0663889"}, {"lat": "-14.2088889", "city": "Ayapampa", "lon": "-73.5352778"}, {"lat": "-14.1047222", "city": "Ayrihuanca", "lon": "-72.6125"}, {"lat": "-13.8833333", "city": "Ayumaque", "lon": "-72.3666667"}, {"lat": "-14.0333333", "city": "Barriendos", "lon": "-73.5"}, {"lat": "-13.7666667", "city": "Bellavista", "lon": "-72.35"}, {"lat": "-13.7666667", "city": "Bellavista Hacienda", "lon": "-72.35"}, {"lat": "-14.15", "city": "Bocabamba", "lon": "-72.1333333"}, {"lat": "-13.5", "city": "Bombon", "lon": "-73.7666667"}, {"lat": "-13.3744444", "city": "Cabracancha", "lon": "-73.6925"}, {"lat": "-13.7333333", "city": "Cacce", "lon": "-73.55"}, {"lat": "-13.8166667", "city": "Cachahuiri", "lon": "-72.25"}, {"lat": "-13.7747222", "city": "Cachi", "lon": "-73.6038889"}, {"lat": "-13.8333333", "city": "Cachiyaurej", "lon": "-73.6833333"}, {"lat": "-13.5133333", "city": "Cachora", "lon": "-72.81"}, {"lat": "-13.6333333", "city": "Cajamarca", "lon": "-73.5"}, {"lat": "-13.8", "city": "Cajimarca", "lon": "-72.55"}, {"lat": "-14.8166667", "city": "Calane", "lon": "-73.5166667"}, {"lat": "-14.3833333", "city": "Calasuyo", "lon": "-72.4"}, {"lat": "-14.45", "city": "Calcauso", "lon": "-72.9166667"}, {"lat": "-14.3005556", "city": "Calhuanca", "lon": "-73.2308333"}, {"lat": "-14.1166667", "city": "Callahuacho", "lon": "-72.25"}, {"lat": "-14.2", "city": "Callanca", "lon": "-72.3166667"}, {"lat": "-13.9666667", "city": "Callasoque", "lon": "-72.5333333"}, {"lat": "-13.8333333", "city": "Callauro", "lon": "-72.4333333"}, {"lat": "-14.1166667", "city": "Calluahuacho", "lon": "-72.25"}, {"lat": "-13.5333333", "city": "Calzada", "lon": "-72.6833333"}, {"lat": "-13.5333333", "city": "Calzada Hacienda", "lon": "-72.6833333"}, {"lat": "-13.7666667", "city": "Campanayoc", "lon": "-73.6166667"}, {"lat": "-14.0", "city": "Cantuyoc", "lon": "-72.0833333"}, {"lat": "-14.0", "city": "Cantuyoc Hacienda", "lon": "-72.0833333"}, {"lat": "-14.1", "city": "Capapujro", "lon": "-72.2666667"}, {"lat": "-14.2177778", "city": "Capara", "lon": "-73.5308333"}, {"lat": "-14.1194444", "city": "Capaya", "lon": "-73.3180556"}, {"lat": "-13.5405556", "city": "Carahuasi", "lon": "-72.6941667"}, {"lat": "-14.4", "city": "Caraibamba", "lon": "-73.1833333"}, {"lat": "-13.7666667", "city": "Caranca", "lon": "-72.3666667"}, {"lat": "-14.3772222", "city": "Caraybamba", "lon": "-73.1613889"}, {"lat": "-13.5833333", "city": "Carhua", "lon": "-72.5666667"}, {"lat": "-13.5833333", "city": "Carhua Hacienda", "lon": "-72.5666667"}, {"lat": "-13.55", "city": "Carmen", "lon": "-72.6166667"}, {"lat": "-13.55", "city": "Carmen Hacienda", "lon": "-72.6166667"}, {"lat": "-13.4666667", "city": "Carqueque", "lon": "-73.05"}, {"lat": "-13.4666667", "city": "Carqueque Hacienda", "lon": "-73.05"}, {"lat": "-13.9833333", "city": "Casa-cancha", "lon": "-72.2833333"}, {"lat": "-13.9666667", "city": "Casahuasa", "lon": "-72.2833333"}, {"lat": "-14.0666667", "city": "Casanca", "lon": "-72.5333333"}, {"lat": "-13.6833333", "city": "Cascabamba", "lon": "-73.5833333"}, {"lat": "-14.35", "city": "Casca\u00f1e", "lon": "-72.5833333"}, {"lat": "-13.8", "city": "Cautia", "lon": "-72.5166667"}, {"lat": "-13.55", "city": "Cayara", "lon": "-73.7166667"}, {"lat": "-13.7", "city": "Cayranca", "lon": "-72.35"}, {"lat": "-13.7", "city": "Cayranca Hacienda", "lon": "-72.35"}, {"lat": "-13.7833333", "city": "Ccapcca", "lon": "-73.65"}, {"lat": "-13.9166667", "city": "Ccapo", "lon": "-72.3166667"}, {"lat": "-14.2069444", "city": "Ccas\u00edmam", "lon": "-73.54"}, {"lat": "-14.1666667", "city": "Ccatahuasi", "lon": "-72.3166667"}, {"lat": "-13.5", "city": "Ccellupate", "lon": "-73.8166667"}, {"lat": "-14.1", "city": "Ccerohuasi", "lon": "-72.55"}, {"lat": "-13.3666667", "city": "Ccesccecunioc", "lon": "-73.8"}, {"lat": "-14.1505556", "city": "Ccicaucha", "lon": "-73.6105556"}, {"lat": "-14.1833333", "city": "Ccocha", "lon": "-72.1166667"}, {"lat": "-14.1166667", "city": "Ccochasayhuas", "lon": "-72.4833333"}, {"lat": "-13.7166667", "city": "Ccollpa", "lon": "-72.5"}, {"lat": "-13.85", "city": "Ccomerococha", "lon": "-72.3666667"}, {"lat": "-14.4977778", "city": "Ccopa", "lon": "-73.5063889"}, {"lat": "-14.0666667", "city": "Ccotancaire", "lon": "-72.4833333"}, {"lat": "-14.2125", "city": "Ccoto Pisquio", "lon": "-73.5036111"}, {"lat": "-13.9666667", "city": "Ccullco", "lon": "-72.5"}, {"lat": "-14.3666667", "city": "Cento-cocha", "lon": "-72.3333333"}, {"lat": "-14.9725", "city": "Cerro Huilachiri", "lon": "-72.9769444"}, {"lat": "-14.5138889", "city": "Cerro Surapata", "lon": "-73.0063889"}, {"lat": "-14.1166667", "city": "Chacamachay", "lon": "-72.1666667"}, {"lat": "-14.0166667", "city": "Chacapampa", "lon": "-72.5"}, {"lat": "-13.85", "city": "Chacaro", "lon": "-72.15"}, {"lat": "-13.9333333", "city": "Chacayo", "lon": "-72.15"}, {"lat": "-13.9333333", "city": "Chacayo Hacienda", "lon": "-72.15"}, {"lat": "-13.3788889", "city": "Chacchahua", "lon": "-73.7855556"}, {"lat": "-13.95", "city": "Chaccrampa", "lon": "-73.6"}, {"lat": "-13.8333333", "city": "Chacnillayoj", "lon": "-73.5666667"}, {"lat": "-13.9477778", "city": "Chacoche", "lon": "-72.9913889"}, {"lat": "-13.9477778", "city": "Chacochi", "lon": "-72.9913889"}, {"lat": "-13.9241667", "city": "Chag\u00f1a", "lon": "-73.1822222"}, {"lat": "-13.75", "city": "Chahuarqui", "lon": "-72.2166667"}, {"lat": "-13.75", "city": "Chahuarqui Hacienda", "lon": "-72.2166667"}, {"lat": "-13.8666667", "city": "Chahuay", "lon": "-72.4333333"}, {"lat": "-14.3005556", "city": "Chalhuanca", "lon": "-73.2308333"}, {"lat": "-14.1166667", "city": "Challahuacho", "lon": "-72.25"}, {"lat": "-14.1166667", "city": "Challhuahuacho", "lon": "-72.25"}, {"lat": "-14.3005556", "city": "Challhuanca", "lon": "-73.2308333"}, {"lat": "-13.4666667", "city": "Challhuane", "lon": "-73.5666667"}, {"lat": "-14.3166667", "city": "Challuapujo", "lon": "-72.2833333"}, {"lat": "-14.3166667", "city": "Challuapujo Hacienda", "lon": "-72.2833333"}, {"lat": "-13.7666667", "city": "Chaman", "lon": "-72.3666667"}, {"lat": "-13.8333333", "city": "Chancara Pucro", "lon": "-72.2333333"}, {"lat": "-13.9736111", "city": "Chapimarca", "lon": "-73.0627778"}, {"lat": "-14.25", "city": "Chaquipata", "lon": "-72.4"}, {"lat": "-14.2166667", "city": "Charamoray", "lon": "-72.0833333"}, {"lat": "-13.75", "city": "Chaupic", "lon": "-72.4333333"}, {"lat": "-13.75", "city": "Chaupic Hacienda", "lon": "-72.4333333"}, {"lat": "-14.0358333", "city": "Checchipampa", "lon": "-73.5425"}, {"lat": "-14.0833333", "city": "Chequello", "lon": "-72.1833333"}, {"lat": "-14.15", "city": "Chiaca", "lon": "-72.3166667"}, {"lat": "-13.8716667", "city": "Chiara", "lon": "-73.6697222"}, {"lat": "-13.8166667", "city": "Chicchehuayjo", "lon": "-73.55"}, {"lat": "-14.2208333", "city": "Chicha", "lon": "-73.5341667"}, {"lat": "-14.1333333", "city": "Chicuro", "lon": "-72.2833333"}, {"lat": "-14.1166667", "city": "Chila", "lon": "-72.2333333"}, {"lat": "-13.4769444", "city": "Chilcabamba", "lon": "-73.5530556"}, {"lat": "-13.9", "city": "Chilmay", "lon": "-73.6666667"}, {"lat": "-13.95", "city": "Chilque", "lon": "-72.4666667"}, {"lat": "-13.6166667", "city": "Chimpaccechua", "lon": "-73.7666667"}, {"lat": "-13.5133333", "city": "Chincheros", "lon": "-73.7130556"}, {"lat": "-13.8833333", "city": "Chinchuacancha", "lon": "-73.5333333"}, {"lat": "-13.3511111", "city": "Chingaray", "lon": "-73.7605556"}, {"lat": "-14.4", "city": "Chipana", "lon": "-72.4833333"}, {"lat": "-14.0708333", "city": "Chirihuasi", "lon": "-73.5036111"}, {"lat": "-13.8166667", "city": "Chiscahuaya", "lon": "-72.4333333"}, {"lat": "-14.2166667", "city": "Choccollo", "lon": "-72.3666667"}, {"lat": "-13.8166667", "city": "Chocllampa", "lon": "-73.6833333"}, {"lat": "-14.1166667", "city": "Chog\u00f1acota", "lon": "-72.4166667"}, {"lat": "-13.5333333", "city": "Chojepuquio", "lon": "-73.5166667"}, {"lat": "-13.4686111", "city": "Chojocra", "lon": "-73.5633333"}, {"lat": "-14.2333333", "city": "Chontaclla", "lon": "-73.5166667"}, {"lat": "-14.0333333", "city": "Choqueca", "lon": "-72.2333333"}, {"lat": "-14.1666667", "city": "Choquechaca", "lon": "-72.2333333"}, {"lat": "-13.7166667", "city": "Choquemarca", "lon": "-72.5333333"}, {"lat": "-13.9", "city": "Choroccasa", "lon": "-72.4333333"}, {"lat": "-14.0", "city": "Chuchaiccasa", "lon": "-72.5333333"}, {"lat": "-14.1166667", "city": "Chuicune", "lon": "-72.3"}, {"lat": "-14.1166667", "city": "Chuicune Hacienda", "lon": "-72.3"}, {"lat": "-13.9833333", "city": "Chullipata", "lon": "-72.2166667"}, {"lat": "-13.8", "city": "Chullizana", "lon": "-73.6166667"}, {"lat": "-13.7833333", "city": "Chulluillo", "lon": "-72.4333333"}, {"lat": "-14.0833333", "city": "Chumille", "lon": "-72.2166667"}, {"lat": "-14.2", "city": "Chumulle", "lon": "-72.4"}, {"lat": "-13.4333333", "city": "Chuncallque", "lon": "-72.9833333"}, {"lat": "-14.0225", "city": "Chuno Pata", "lon": "-73.5719444"}, {"lat": "-14.1019444", "city": "Chuquibambilla", "lon": "-72.7066667"}, {"lat": "-14.15", "city": "Churama", "lon": "-72.2833333"}, {"lat": "-13.7833333", "city": "Churoc", "lon": "-72.2"}, {"lat": "-13.6333333", "city": "Churrupallana", "lon": "-73.7"}, {"lat": "-14.06", "city": "Chusicani", "lon": "-73.5733333"}, {"lat": "-13.8833333", "city": "Cielo Orco", "lon": "-72.4333333"}, {"lat": "-13.8741667", "city": "Circa", "lon": "-72.8727778"}, {"lat": "-13.4666667", "city": "Cocas", "lon": "-73.4"}, {"lat": "-13.5833333", "city": "Cocha", "lon": "-72.85"}, {"lat": "-13.7666667", "city": "Cochacochayoc", "lon": "-72.1833333"}, {"lat": "-13.7333333", "city": "Cochapata", "lon": "-72.35"}, {"lat": "-13.7333333", "city": "Cochapata Hacienda", "lon": "-72.35"}, {"lat": "-13.9833333", "city": "Cochapucro", "lon": "-73.5333333"}, {"lat": "-13.6113889", "city": "Cocharcas", "lon": "-73.7402778"}, {"lat": "-13.6333333", "city": "Cocharquina", "lon": "-73.7666667"}, {"lat": "-14.3166667", "city": "Cochasasi", "lon": "-72.3166667"}, {"lat": "-14.1166667", "city": "Cochasayhuas", "lon": "-72.4833333"}, {"lat": "-14.1577778", "city": "Cointa", "lon": "-73.5605556"}, {"lat": "-14.0077778", "city": "Colcabamba", "lon": "-73.2477778"}, {"lat": "-13.75", "city": "Colca", "lon": "-72.2833333"}, {"lat": "-13.9", "city": "Collantayo", "lon": "-72.35"}, {"lat": "-13.5833333", "city": "Collpa", "lon": "-73.2"}, {"lat": "-13.5833333", "city": "Collpa Hacienda", "lon": "-73.2"}, {"lat": "-13.5166667", "city": "Collpa Pampa", "lon": "-73.7"}, {"lat": "-13.8366667", "city": "Collurque", "lon": "-72.4313889"}, {"lat": "-13.5833333", "city": "Colpa", "lon": "-73.2"}, {"lat": "-13.3938889", "city": "Comun Pampa", "lon": "-73.6788889"}, {"lat": "-14.3833333", "city": "Co\u00f1agmarca", "lon": "-72.3166667"}, {"lat": "-13.5666667", "city": "Concacha", "lon": "-72.8"}, {"lat": "-13.5666667", "city": "Concacha Hacienda", "lon": "-72.8"}, {"lat": "-14.2", "city": "Conchacota", "lon": "-72.4"}, {"lat": "-14.4333333", "city": "Condorillo", "lon": "-73.4833333"}, {"lat": "-14.35", "city": "Condorpata", "lon": "-72.35"}, {"lat": "-13.4069444", "city": "Congoma", "lon": "-73.8"}, {"lat": "-14.0333333", "city": "Congota", "lon": "-72.1"}, {"lat": "-13.75", "city": "Contugna", "lon": "-73.5"}, {"lat": "-13.9833333", "city": "Corichichina", "lon": "-72.4833333"}, {"lat": "-13.7333333", "city": "Corral Pata", "lon": "-72.4333333"}, {"lat": "-13.7333333", "city": "Corral Pata Hacienda", "lon": "-72.4333333"}, {"lat": "-13.5333333", "city": "Cotabamba", "lon": "-72.8666667"}, {"lat": "-13.7513889", "city": "Cotabambas", "lon": "-72.3527778"}, {"lat": "-14.4158333", "city": "Cotarosi", "lon": "-73.2077778"}, {"lat": "-14.4158333", "city": "Cotaruse", "lon": "-73.2077778"}, {"lat": "-13.5333333", "city": "Coterna", "lon": "-73.1833333"}, {"lat": "-13.8366667", "city": "Coyllurqui", "lon": "-72.4313889"}, {"lat": "-13.8166667", "city": "Cruz Pata", "lon": "-72.5833333"}, {"lat": "-13.6166667", "city": "Cuay", "lon": "-73.7333333"}, {"lat": "-14.1022222", "city": "Cuchimachi", "lon": "-73.5616667"}, {"lat": "-13.8833333", "city": "Cullahuare", "lon": "-72.4833333"}, {"lat": "-13.8833333", "city": "Cullahuare Hacienda", "lon": "-72.4833333"}, {"lat": "-14.3666667", "city": "Cullumani", "lon": "-72.3666667"}, {"lat": "-13.7", "city": "Culluni", "lon": "-73.6"}, {"lat": "-13.65", "city": "Cullunipampa", "lon": "-73.5166667"}, {"lat": "-13.8166667", "city": "Cullusqui", "lon": "-72.5833333"}, {"lat": "-13.85", "city": "Cunamuro", "lon": "-72.25"}, {"lat": "-13.3530556", "city": "Cunyac", "lon": "-73.7275"}, {"lat": "-13.55", "city": "Curahuasi", "lon": "-72.7"}, {"lat": "-13.3894444", "city": "Curampa", "lon": "-73.7136111"}, {"lat": "-14.0166667", "city": "Curasco", "lon": "-72.5666667"}, {"lat": "-14.0622222", "city": "Curpahuasi", "lon": "-72.6697222"}, {"lat": "-13.7166667", "city": "Cutuctay", "lon": "-72.2666667"}, {"lat": "-13.7166667", "city": "Cutuctay Hacienda", "lon": "-72.2666667"}, {"lat": "-13.8366667", "city": "Cuyllurqui", "lon": "-72.4313889"}, {"lat": "-13.4263889", "city": "Durasnioc", "lon": "-73.7616667"}, {"lat": "-13.4666667", "city": "Eknay", "lon": "-73.0"}, {"lat": "-13.4666667", "city": "Eknay Hacienda", "lon": "-73.0"}, {"lat": "-14.0725", "city": "El Progreso", "lon": "-72.4727778"}, {"lat": "-13.95", "city": "Esquiruanuyoj", "lon": "-73.5166667"}, {"lat": "-13.8333333", "city": "Facu", "lon": "-72.4666667"}, {"lat": "-13.75", "city": "Fas\u00e1n", "lon": "-72.3166667"}, {"lat": "-13.75", "city": "Fas\u00e1n Hacienda", "lon": "-72.3166667"}, {"lat": "-14.3166667", "city": "Fierropunco", "lon": "-72.2833333"}, {"lat": "-13.7333333", "city": "Florida del C\u00e1rman Hacienda", "lon": "-72.4833333"}, {"lat": "-13.7333333", "city": "Florida del Carmen", "lon": "-72.4833333"}, {"lat": "-13.4980556", "city": "Florida", "lon": "-73.5494444"}, {"lat": "-13.4977778", "city": "Generosa", "lon": "-73.8080556"}, {"lat": "-13.7166667", "city": "Gentegente", "lon": "-72.3166667"}, {"lat": "-13.7166667", "city": "Gentegente Hacienda", "lon": "-72.3166667"}, {"lat": "-14.0172222", "city": "Gracgrasja", "lon": "-73.5169444"}, {"lat": "-13.4833333", "city": "Hacienda Aguairo", "lon": "-73.8166667"}, {"lat": "-13.5333333", "city": "Hacienda Aurora", "lon": "-73.8"}, {"lat": "-13.4208333", "city": "Hacienda Chacabamba", "lon": "-73.6477778"}, {"lat": "-13.35", "city": "Hacienda Chullana", "lon": "-73.8"}, {"lat": "-13.5833333", "city": "Hacienda Colpa", "lon": "-73.2"}, {"lat": "-13.5833333", "city": "Hacienda Corral", "lon": "-73.6833333"}, {"lat": "-13.7833333", "city": "Hacienda Cula", "lon": "-73.6666667"}, {"lat": "-13.4047222", "city": "Hacienda Estanque", "lon": "-73.5566667"}, {"lat": "-13.4333333", "city": "Hacienda Ingui\u00f1o", "lon": "-73.6166667"}, {"lat": "-13.75", "city": "Hacienda Matara", "lon": "-72.9"}, {"lat": "-13.4333333", "city": "Hacienda Mozobamba", "lon": "-73.6166667"}, {"lat": "-13.4025", "city": "Hacienda Orurillo", "lon": "-73.5275"}, {"lat": "-13.3144444", "city": "Hacienda Pulcay", "lon": "-73.7975"}, {"lat": "-13.4302778", "city": "Hacienda R\u00edo Blanco", "lon": "-73.8130556"}, {"lat": "-13.55", "city": "Hacienda San Cristobal", "lon": "-73.8"}, {"lat": "-13.3608333", "city": "Hacienda San Jos\u00e9", "lon": "-73.7491667"}, {"lat": "-14.2127778", "city": "Haquira", "lon": "-72.19"}, {"lat": "-13.4802778", "city": "Hornopampa", "lon": "-73.5505556"}, {"lat": "-13.9833333", "city": "Huacaisiqui", "lon": "-72.4333333"}, {"lat": "-14.3833333", "city": "Huacarcia", "lon": "-72.3833333"}, {"lat": "-13.3875", "city": "Huaccana", "lon": "-73.6902778"}, {"lat": "-14.1480556", "city": "Huaccoto", "lon": "-73.6055556"}, {"lat": "-14.0108333", "city": "Huachihuayllo", "lon": "-73.5261111"}, {"lat": "-14.5166667", "city": "Huachuccasa", "lon": "-73.5"}, {"lat": "-13.8666667", "city": "Huacollo", "lon": "-72.1666667"}, {"lat": "-14.3313889", "city": "Huadquirca", "lon": "-72.8902778"}, {"lat": "-14.1741667", "city": "Huaichau", "lon": "-73.6205556"}, {"lat": "-14.0722222", "city": "Huaijo Huasi", "lon": "-73.5280556"}, {"lat": "-14.0333333", "city": "Huaillac Hacienda", "lon": "-72.5333333"}, {"lat": "-14.0333333", "city": "Huaillac", "lon": "-72.5333333"}, {"lat": "-13.95", "city": "Huaillapampa", "lon": "-72.4833333"}, {"lat": "-14.0833333", "city": "Huaillatay", "lon": "-72.5166667"}, {"lat": "-14.0833333", "city": "Huaillate", "lon": "-72.5166667"}, {"lat": "-13.9269444", "city": "Huaillati", "lon": "-72.4741667"}, {"lat": "-14.0972222", "city": "Huairanga", "lon": "-73.5916667"}, {"lat": "-13.3875", "city": "Huajana", "lon": "-73.6902778"}, {"lat": "-14.2833333", "city": "Huallamoco", "lon": "-72.5333333"}, {"lat": "-14.0833333", "city": "Huallconta", "lon": "-72.3"}, {"lat": "-13.95", "city": "Huallhuac", "lon": "-72.0833333"}, {"lat": "-13.4888889", "city": "Huallhuay", "lon": "-73.5233333"}, {"lat": "-14.0333333", "city": "Huallio Hacienda", "lon": "-72.1833333"}, {"lat": "-14.0333333", "city": "Huallio", "lon": "-72.1833333"}, {"lat": "-14.1833333", "city": "Huallpamayo", "lon": "-72.3"}, {"lat": "-14.3166667", "city": "Huamanmarca", "lon": "-72.5333333"}, {"lat": "-14.3666667", "city": "Huamanmillo", "lon": "-72.4666667"}, {"lat": "-14.3", "city": "Huamanripa", "lon": "-72.75"}, {"lat": "-14.1", "city": "Huamaraccasa", "lon": "-72.3166667"}, {"lat": "-14.0333333", "city": "Huamas", "lon": "-73.5522222"}, {"lat": "-13.5833333", "city": "Huambo Hacienda", "lon": "-73.1"}, {"lat": "-13.5833333", "city": "Huambo", "lon": "-73.1"}, {"lat": "-13.3975", "city": "Huamburqui", "lon": "-73.5933333"}, {"lat": "-14.15", "city": "Huanacopampa", "lon": "-72.2833333"}, {"lat": "-14.15", "city": "Huanacupampa", "lon": "-72.2833333"}, {"lat": "-13.7333333", "city": "Huancabamba", "lon": "-73.35"}, {"lat": "-13.6666667", "city": "Huanca Huacho", "lon": "-73.7166667"}, {"lat": "-13.7", "city": "Huancan\u00e9", "lon": "-73.6333333"}, {"lat": "-14.4766667", "city": "Huancapata", "lon": "-73.5030556"}, {"lat": "-13.645", "city": "Huancarama", "lon": "-73.0875"}, {"lat": "-13.7602778", "city": "Huancaray", "lon": "-73.5333333"}, {"lat": "-14.3166667", "city": "Huancasca", "lon": "-72.25"}, {"lat": "-13.4925", "city": "Huancayo", "lon": "-73.5444444"}, {"lat": "-13.5", "city": "Huanchulla", "lon": "-73.0333333"}, {"lat": "-13.5", "city": "Huanipaca", "lon": "-72.9333333"}, {"lat": "-13.9", "city": "Huanipayaurecc", "lon": "-73.65"}, {"lat": "-14.2166667", "city": "Huanquere", "lon": "-72.3"}, {"lat": "-13.7666667", "city": "Huantana", "lon": "-73.6166667"}, {"lat": "-13.95", "city": "Huaquere", "lon": "-72.3833333"}, {"lat": "-14.3313889", "city": "Huaquirca", "lon": "-72.8902778"}, {"lat": "-14.5333333", "city": "Huaraccoyoc", "lon": "-73.5166667"}, {"lat": "-14.3666667", "city": "Huaraco", "lon": "-72.5833333"}, {"lat": "-14.3666667", "city": "Huaraiuito", "lon": "-72.4833333"}, {"lat": "-13.9333333", "city": "Huarampasi", "lon": "-73.5"}, {"lat": "-13.3558333", "city": "Huarango Paja", "lon": "-73.7991667"}, {"lat": "-13.3558333", "city": "Huarango Pata", "lon": "-73.7991667"}, {"lat": "-13.7333333", "city": "Huaranhuay", "lon": "-73.6"}, {"lat": "-14.05", "city": "Huaraquere", "lon": "-72.1166667"}, {"lat": "-14.0333333", "city": "Huarco Lucre Hacienda", "lon": "-72.5833333"}, {"lat": "-14.0333333", "city": "Huarco Lucre", "lon": "-72.5833333"}, {"lat": "-13.7833333", "city": "Huarcoy", "lon": "-72.35"}, {"lat": "-14.2333333", "city": "Huarcoyo", "lon": "-72.3333333"}, {"lat": "-13.8333333", "city": "Huarocopata", "lon": "-72.25"}, {"lat": "-14.2583333", "city": "Huaruchaca", "lon": "-72.5544444"}, {"lat": "-13.5", "city": "Huascatay Hacienda", "lon": "-73.1833333"}, {"lat": "-13.5", "city": "Huascatay", "lon": "-73.1833333"}, {"lat": "-14.5166667", "city": "Huashuacasa", "lon": "-73.5"}, {"lat": "-14.5166667", "city": "Huashuajasa", "lon": "-73.5"}, {"lat": "-14.0319444", "city": "Huasipampa", "lon": "-73.585"}, {"lat": "-13.9333333", "city": "Huata", "lon": "-72.1833333"}, {"lat": "-14.0483333", "city": "Huayana", "lon": "-73.6097222"}, {"lat": "-14.3397222", "city": "Huayllapinto", "lon": "-73.5255556"}, {"lat": "-14.0833333", "city": "Huayllati", "lon": "-72.5166667"}, {"lat": "-14.1325", "city": "Huayllo", "lon": "-73.2686111"}, {"lat": "-13.8", "city": "Huayure", "lon": "-73.6333333"}, {"lat": "-14.0", "city": "Huchapata", "lon": "-72.5333333"}, {"lat": "-14.1944444", "city": "Huichihua", "lon": "-72.7983333"}, {"lat": "-14.3486111", "city": "Huijopampa", "lon": "-73.5202778"}, {"lat": "-14.0755556", "city": "Huilcabamba", "lon": "-72.6258333"}, {"lat": "-13.9", "city": "Huillcaihua", "lon": "-73.6333333"}, {"lat": "-13.8166667", "city": "Huinchos Hacienda", "lon": "-72.2666667"}, {"lat": "-13.8166667", "city": "Huinchos", "lon": "-72.2666667"}, {"lat": "-14.05", "city": "Huinchu", "lon": "-72.2833333"}, {"lat": "-13.7666667", "city": "Huinton", "lon": "-73.6"}, {"lat": "-14.1", "city": "Huirabamba", "lon": "-72.3"}, {"lat": "-14.11", "city": "Huiracochan", "lon": "-73.5575"}, {"lat": "-14.0527778", "city": "Humamarca", "lon": "-73.5655556"}, {"lat": "-14.2333333", "city": "Humapalca", "lon": "-72.3"}, {"lat": "-14.3666667", "city": "Humuito", "lon": "-72.2666667"}, {"lat": "-13.4166667", "city": "Huncaya Hacienda", "lon": "-72.95"}, {"lat": "-13.4166667", "city": "Huncaya", "lon": "-72.95"}, {"lat": "-13.6666667", "city": "Huran Marca", "lon": "-73.6666667"}, {"lat": "-13.7833333", "city": "Huypara", "lon": "-72.5666667"}, {"lat": "-13.4155556", "city": "Illapacancha", "lon": "-73.6752778"}, {"lat": "-14.15", "city": "Illio", "lon": "-72.3166667"}, {"lat": "-13.45", "city": "Incahuasi", "lon": "-72.8333333"}, {"lat": "-13.3427778", "city": "Incaraccay", "lon": "-73.8072222"}, {"lat": "-13.3427778", "city": "Incarajay", "lon": "-73.8072222"}, {"lat": "-14.1675", "city": "Irachamoc", "lon": "-73.5622222"}, {"lat": "-14.3858333", "city": "Iscahuaijo", "lon": "-73.5213889"}, {"lat": "-14.205", "city": "Iscayhuanca", "lon": "-73.5272222"}, {"lat": "-14.0994444", "city": "Ischujahua", "lon": "-73.5116667"}, {"lat": "-14.1666667", "city": "Jahuanhuire", "lon": "-72.3666667"}, {"lat": "-14.3833333", "city": "Jancoa", "lon": "-72.4833333"}, {"lat": "-13.6333333", "city": "Japacca Hacienda", "lon": "-72.55"}, {"lat": "-13.6333333", "city": "Japacca", "lon": "-72.55"}, {"lat": "-13.7333333", "city": "Japllac", "lon": "-73.6166667"}, {"lat": "-14.3333333", "city": "Japupampa", "lon": "-72.25"}, {"lat": "-14.4338889", "city": "Japuta", "lon": "-73.5141667"}, {"lat": "-13.8666667", "city": "Jaquire Hacienda", "lon": "-72.4"}, {"lat": "-13.8666667", "city": "Jaquire", "lon": "-72.4"}, {"lat": "-14.3458333", "city": "Jasahuasi", "lon": "-73.52"}, {"lat": "-14.0825", "city": "Jasapata", "lon": "-73.5452778"}, {"lat": "-14.0355556", "city": "Jatahua", "lon": "-73.5272222"}, {"lat": "-13.7", "city": "Jatunpata", "lon": "-73.5833333"}, {"lat": "-14.0566667", "city": "Jatun Pucro", "lon": "-73.515"}, {"lat": "-14.0102778", "city": "Jello Huasi", "lon": "-73.5336111"}, {"lat": "-13.5333333", "city": "Jenhua", "lon": "-73.5833333"}, {"lat": "-13.6666667", "city": "Je\u00f1ua", "lon": "-73.5166667"}, {"lat": "-13.6666667", "city": "Jeshua", "lon": "-73.6833333"}, {"lat": "-13.7666667", "city": "Jes-Hue", "lon": "-73.5666667"}, {"lat": "-13.3666667", "city": "Jesjesnioc", "lon": "-73.8"}, {"lat": "-13.55", "city": "Jesus Mar\u00eda Hacienda", "lon": "-72.6666667"}, {"lat": "-13.55", "city": "Jes\u00fas Mar\u00eda", "lon": "-72.6666667"}, {"lat": "-13.5666667", "city": "Jochacalla", "lon": "-73.55"}, {"lat": "-13.5166667", "city": "Jochapampa", "lon": "-73.5333333"}, {"lat": "-13.6", "city": "Jocha Pampa", "lon": "-73.5333333"}, {"lat": "-13.5666667", "city": "Joju\u00e1 Hacienda", "lon": "-72.6833333"}, {"lat": "-13.5666667", "city": "Joju\u00e1", "lon": "-72.6833333"}, {"lat": "-13.5333333", "city": "Jonac", "lon": "-73.55"}, {"lat": "-14.065", "city": "Jotahuani", "lon": "-73.5163889"}, {"lat": "-14.7", "city": "Kello", "lon": "-73.55"}, {"lat": "-14.15", "city": "Kenco Ccasa", "lon": "-72.3166667"}, {"lat": "-13.7", "city": "Kishuara", "lon": "-73.1"}, {"lat": "-14.1777778", "city": "Lacalla", "lon": "-73.6155556"}, {"lat": "-14.3833333", "city": "La Capilla", "lon": "-72.4333333"}, {"lat": "-14.0061111", "city": "Lacinia", "lon": "-73.5841667"}, {"lat": "-14.0833333", "city": "Lahuaccenta", "lon": "-72.5333333"}, {"lat": "-14.7833333", "city": "Lahualahua", "lon": "-73.5"}, {"lat": "-13.7166667", "city": "Lahuanqui Hacienda", "lon": "-72.4666667"}, {"lat": "-13.7166667", "city": "Lahuanqui", "lon": "-72.4666667"}, {"lat": "-13.7", "city": "Lamaypampa", "lon": "-73.5833333"}, {"lat": "-13.55", "city": "Lamblamayo", "lon": "-73.7166667"}, {"lat": "-13.8666667", "city": "Lambrama", "lon": "-72.7666667"}, {"lat": "-14.0833333", "city": "Lambraspata", "lon": "-72.5333333"}, {"lat": "-13.8666667", "city": "Lanbrama", "lon": "-72.7666667"}, {"lat": "-13.7", "city": "Larata Hacienda", "lon": "-72.4666667"}, {"lat": "-13.6833333", "city": "Larata", "lon": "-72.4666667"}, {"lat": "-14.2", "city": "Laupay", "lon": "-72.1166667"}, {"lat": "-13.9166667", "city": "Licchivilca", "lon": "-72.5166667"}, {"lat": "-13.7833333", "city": "Lirio", "lon": "-73.7166667"}, {"lat": "-14.2833333", "city": "Llactabamba", "lon": "-72.5333333"}, {"lat": "-13.95", "city": "Llactacuna", "lon": "-72.1166667"}, {"lat": "-13.8166667", "city": "Llactahua", "lon": "-72.45"}, {"lat": "-13.9", "city": "Llactahue", "lon": "-72.3833333"}, {"lat": "-14.2", "city": "Llahuane", "lon": "-72.35"}, {"lat": "-14.2333333", "city": "Llajua", "lon": "-72.15"}, {"lat": "-13.8", "city": "Llocce", "lon": "-72.5333333"}, {"lat": "-14.0833333", "city": "Lloco-Iloco", "lon": "-72.3"}, {"lat": "-13.3916667", "city": "Llojepata", "lon": "-73.8069444"}, {"lat": "-13.4613889", "city": "Lorenzayoc", "lon": "-73.5830556"}, {"lat": "-13.45", "city": "Lucero Hacienda", "lon": "-73.0"}, {"lat": "-13.45", "city": "Lucero", "lon": "-73.0"}, {"lat": "-13.55", "city": "Lucmo Hacienda", "lon": "-72.7166667"}, {"lat": "-13.55", "city": "Lucmo", "lon": "-72.7166667"}, {"lat": "-13.9505556", "city": "Lucre", "lon": "-73.2277778"}, {"lat": "-13.75", "city": "Lucuchanga", "lon": "-72.9666667"}, {"lat": "-13.55", "city": "Lucumos", "lon": "-72.7166667"}, {"lat": "-13.9666667", "city": "Machaipata", "lon": "-72.4"}, {"lat": "-14.2294444", "city": "Mamara", "lon": "-72.5861111"}, {"lat": "-13.9166667", "city": "Manasqui", "lon": "-72.4666667"}, {"lat": "-14.05", "city": "Mancahuara", "lon": "-72.5666667"}, {"lat": "-14.0627778", "city": "Mano Pata", "lon": "-73.5361111"}, {"lat": "-13.9333333", "city": "Manzanayoc", "lon": "-73.6166667"}, {"lat": "-14.0852778", "city": "Mara", "lon": "-72.1080556"}, {"lat": "-13.3386111", "city": "Mara Mara", "lon": "-73.6783333"}, {"lat": "-13.7166667", "city": "Maray", "lon": "-73.6166667"}, {"lat": "-14.1663889", "city": "Marca", "lon": "-73.5738889"}, {"lat": "-14.0597222", "city": "Marcobamba", "lon": "-73.5280556"}, {"lat": "-13.5333333", "city": "Marcopata", "lon": "-72.8"}, {"lat": "-13.8666667", "city": "Matalla Hacienda", "lon": "-72.4833333"}, {"lat": "-13.8666667", "city": "Matalla", "lon": "-72.4833333"}, {"lat": "-13.75", "city": "Matar\u00e1 Hacienda", "lon": "-72.9"}, {"lat": "-13.75", "city": "Matar\u00e1", "lon": "-72.9"}, {"lat": "-13.6666667", "city": "Matibamba Hacienda", "lon": "-72.45"}, {"lat": "-13.65", "city": "Matibamba", "lon": "-72.45"}, {"lat": "-13.7166667", "city": "Matinca", "lon": "-73.5666667"},