{"PF": {"00": [{"lat": "-17.75", "city": "Afaahiti", "lon": "-149.2833333"}, {"lat": "-17.55", "city": "Afareaitu", "lon": "-149.7833333"}, {"lat": "-17.7833333", "city": "Afatauri", "lon": "-149.1333333"}, {"lat": "-27.6", "city": "Ahurei", "lon": "-144.3166667"}, {"lat": "-23.1777778", "city": "Akamaru", "lon": "-134.9147222"}, {"lat": "-23.0783333", "city": "Akaputu", "lon": "-134.9366667"}, {"lat": "-22.6333333", "city": "Amaru", "lon": "-152.8333333"}, {"lat": "-8.85", "city": "Anaho", "lon": "-140.05"}, {"lat": "-9.95", "city": "Anapoo", "lon": "-139.1"}, {"lat": "-22.6333333", "city": "Anapoto", "lon": "-152.8666667"}, {"lat": "-23.8833333", "city": "Anatonu", "lon": "-147.6333333"}, {"lat": "-16.5166667", "city": "Anau", "lon": "-151.7333333"}, {"lat": "-23.1408333", "city": "Anganui", "lon": "-135.0413889"}, {"lat": "-23.3833333", "city": "Anua", "lon": "-149.5"}, {"lat": "-17.6666667", "city": "Aoua", "lon": "-149.5833333"}, {"lat": "-17.5666667", "city": "Apaura", "lon": "-149.85"}, {"lat": "-23.0936111", "city": "Apeakava", "lon": "-134.96"}, {"lat": "-17.7666667", "city": "Apihaa", "lon": "-149.1333333"}, {"lat": "-17.75", "city": "Apomaoro", "lon": "-149.5"}, {"lat": "-17.5166667", "city": "Arahiri", "lon": "-149.5333333"}, {"lat": "-17.7666667", "city": "Araiteva", "lon": "-149.45"}, {"lat": "-17.5333333", "city": "Araito", "lon": "-149.8833333"}, {"lat": "-27.6", "city": "Area", "lon": "-144.3166667"}, {"lat": "-17.5166667", "city": "Arue", "lon": "-149.5"}, {"lat": "-17.5166667", "city": "Arve", "lon": "-149.5"}, {"lat": "-17.75", "city": "Ataiti", "lon": "-149.3833333"}, {"lat": "-23.1158333", "city": "Atiakoa", "lon": "-134.9905556"}, {"lat": "-23.1158333", "city": "Atiaoha", "lon": "-134.9905556"}, {"lat": "-17.7333333", "city": "Atihiva", "lon": "-149.2666667"}, {"lat": "-23.0902778", "city": "Atihoi", "lon": "-134.9666667"}, {"lat": "-17.7666667", "city": "Atimaono", "lon": "-149.4666667"}, {"lat": "-16.45", "city": "Atipiti", "lon": "-152.2666667"}, {"lat": "-23.0883333", "city": "Atirikigaro", "lon": "-134.9447222"}, {"lat": "-23.1305556", "city": "Atitouiti", "lon": "-134.9744444"}, {"lat": "-23.1305556", "city": "Atituiti", "lon": "-134.9744444"}, {"lat": "-17.6", "city": "Atiue", "lon": "-149.6166667"}, {"lat": "-9.8", "city": "Atouana", "lon": "-139.0333333"}, {"lat": "-9.8", "city": "Atuana", "lon": "-139.0333333"}, {"lat": "-9.8", "city": "Atuona", "lon": "-139.0333333"}, {"lat": "-17.6666667", "city": "Aua", "lon": "-149.5833333"}, {"lat": "-17.75", "city": "Auaue", "lon": "-149.1333333"}, {"lat": "-21.4833333", "city": "Auorotini", "lon": "-135.6333333"}, {"lat": "-22.4666667", "city": "Auti", "lon": "-151.3333333"}, {"lat": "-17.5833333", "city": "Avae", "lon": "-149.6"}, {"lat": "-14.9333333", "city": "Avatoru", "lon": "-147.7"}, {"lat": "-22.45", "city": "Avera", "lon": "-151.35"}, {"lat": "-22.4666667", "city": "D'Hauti", "lon": "-151.3333333"}, {"lat": "-17.55", "city": "Faaa", "lon": "-149.6"}, {"lat": "-16.45", "city": "Faanoa", "lon": "-152.2666667"}, {"lat": "-16.4833333", "city": "Faanui", "lon": "-151.75"}, {"lat": "-17.6666667", "city": "Faaone", "lon": "-149.3"}, {"lat": "-17.5166667", "city": "Faarumai", "lon": "-149.3833333"}, {"lat": "-17.6333333", "city": "Faatautia", "lon": "-149.3166667"}, {"lat": "-17.5333333", "city": "Faauanu", "lon": "-149.35"}, {"lat": "-20.7833333", "city": "Fakamaru", "lon": "-138.55"}, {"lat": "-14.7", "city": "Fakatopatere", "lon": "-145.25"}, {"lat": "-16.7", "city": "Fan\u00e9", "lon": "-151.0166667"}, {"lat": "-16.4833333", "city": "Fanui", "lon": "-151.75"}, {"lat": "-17.6666667", "city": "Faone", "lon": "-149.3"}, {"lat": "-17.7333333", "city": "Faraari", "lon": "-149.2166667"}, {"lat": "-17.8166667", "city": "Farauo", "lon": "-149.1166667"}, {"lat": "-16.7666667", "city": "Fareeru", "lon": "-150.95"}, {"lat": "-16.7", "city": "Fare", "lon": "-151.0166667"}, {"lat": "-16.7166667", "city": "Farehau", "lon": "-151.0166667"}, {"lat": "-17.7666667", "city": "Faremi", "lon": "-149.4333333"}, {"lat": "-17.7166667", "city": "Fareorea", "lon": "-149.5666667"}, {"lat": "-17.7166667", "city": "Farerea", "lon": "-149.5666667"}, {"lat": "-17.5166667", "city": "Fariipiti", "lon": "-149.5666667"}, {"lat": "-16.7333333", "city": "Fitii", "lon": "-151.0333333"}, {"lat": "-23.0783333", "city": "Gahutu", "lon": "-134.9472222"}, {"lat": "-23.075", "city": "Gahutu Tenohu", "lon": "-134.9444444"}, {"lat": "-23.0783333", "city": "Ganhutu", "lon": "-134.9472222"}, {"lat": "-23.1291667", "city": "Ganoa", "lon": "-134.9902778"}, {"lat": "-16.0166667", "city": "Garumaoa", "lon": "-142.45"}, {"lat": "-23.0852778", "city": "Gataha", "lon": "-134.9513889"}, {"lat": "-23.1172222", "city": "Gatavak\u00e9", "lon": "-134.9811111"}, {"lat": "-9.95", "city": "Haaoipu", "lon": "-139.0666667"}, {"lat": "-17.5", "city": "Haapane", "lon": "-149.4833333"}, {"lat": "-17.5", "city": "Haapape", "lon": "-149.4833333"}, {"lat": "-17.5666667", "city": "Haapiti", "lon": "-149.8666667"}, {"lat": "-16.7666667", "city": "Haapu", "lon": "-151.0"}, {"lat": "-17.5333333", "city": "Haapupuni", "lon": "-149.3833333"}, {"lat": "-17.5333333", "city": "Haapupuri", "lon": "-149.3833333"}, {"lat": "-9.3833333", "city": "Hakamui", "lon": "-140.0"}, {"lat": "-8.9333333", "city": "Hakapehi", "lon": "-140.0833333"}, {"lat": "-8.9166667", "city": "Haka Puuae", "lon": "-140.0333333"}, {"lat": "-8.95", "city": "Hakaui", "lon": "-140.1666667"}, {"lat": "-17.5166667", "city": "Hamuta", "lon": "-149.5333333"}, {"lat": "-9.95", "city": "Hanamiai", "lon": "-139.1"}, {"lat": "-9.9166667", "city": "Hana-moe-noa", "lon": "-139.1"}, {"lat": "-9.9666667", "city": "Hana te Fau", "lon": "-139.1"}, {"lat": "-9.9833333", "city": "Hana Teio", "lon": "-139.1"}, {"lat": "-9.9666667", "city": "Hanatetena", "lon": "-139.0666667"}, {"lat": "-10.0", "city": "Hana Tuuna", "lon": "-139.1166667"}, {"lat": "-9.75", "city": "Hanaui", "lon": "-139.0833333"}, {"lat": "-10.45", "city": "Hanavave", "lon": "-138.65"}, {"lat": "-8.8833333", "city": "Hanga Haa", "lon": "-140.0333333"}, {"lat": "-9.9666667", "city": "Hapatoni", "lon": "-139.1166667"}, {"lat": "-17.7666667", "city": "Hatinua", "lon": "-149.4333333"}, {"lat": "-17.75", "city": "Hauturua", "lon": "-149.35"}, {"lat": "-17.6", "city": "Hitiaa", "lon": "-149.3"}, {"lat": "-17.6", "city": "Hitia", "lon": "-149.3"}, {"lat": "-17.5", "city": "Hiti Mahana", "lon": "-149.4833333"}, {"lat": "-17.5", "city": "Hiti Mahaua", "lon": "-149.4833333"}, {"lat": "-8.9", "city": "Hooumi", "lon": "-140.0166667"}, {"lat": "-17.8666667", "city": "Hotapuu", "lon": "-149.1666667"}, {"lat": "-17.8666667", "city": "Hotopuu", "lon": "-149.1666667"}, {"lat": "-8.9", "city": "Houmi", "lon": "-140.0166667"}, {"lat": "-16.45", "city": "Houroumanou", "lon": "-152.25"}, {"lat": "-23.3833333", "city": "Huahine", "lon": "-149.4833333"}, {"lat": "-17.5166667", "city": "Huau", "lon": "-149.3833333"}, {"lat": "-16.45", "city": "Hurumanu", "lon": "-152.25"}, {"lat": "-17.8333333", "city": "Ikitake", "lon": "-140.85"}, {"lat": "-17.5333333", "city": "Iumaru", "lon": "-149.9"}, {"lat": "-9.9166667", "city": "Ivaiva Nui", "lon": "-139.1"}, {"lat": "-23.0877778", "city": "Kairori", "lon": "-134.9527778"}, {"lat": "-17.7833333", "city": "Katiro", "lon": "-149.2833333"}, {"lat": "-23.1005556", "city": "Kirimiro", "lon": "-134.9738889"}, {"lat": "-23.1208333", "city": "Kokohue", "lon": "-134.9972222"}, {"lat": "-17.75", "city": "Lauiaru", "lon": "-149.35"}, {"lat": "-17.75", "city": "Maaea", "lon": "-149.3666667"}, {"lat": "-17.5833333", "city": "Maatea", "lon": "-149.8166667"}, {"lat": "-17.5666667", "city": "Mahaena", "lon": "-149.3166667"}, {"lat": "-17.7666667", "city": "Mahaiutea", "lon": "-149.5333333"}, {"lat": "-23.8666667", "city": "Mahanatoa", "lon": "-147.6666667"}, {"lat": "-17.5833333", "city": "Mahatea", "lon": "-149.8166667"}, {"lat": "-16.6833333", "city": "Maheva", "lon": "-150.9833333"}, {"lat": "-17.5", "city": "Mahina", "lon": "-149.45"}, {"lat": "-23.4", "city": "Mahua", "lon": "-149.45"}, {"lat": "-23.4", "city": "Mahu", "lon": "-149.45"}, {"lat": "-17.7666667", "city": "Maraa", "lon": "-149.5666667"}, {"lat": "-17.7333333", "city": "Maraeapai", "lon": "-149.2666667"}, {"lat": "-17.7666667", "city": "Marae", "lon": "-149.5333333"}, {"lat": "-17.4666667", "city": "Marepa", "lon": "-149.8"}, {"lat": "-17.5833333", "city": "Mariuti", "lon": "-149.4333333"}, {"lat": "-16.75", "city": "Maroe", "lon": "-150.9833333"}, {"lat": "-17.5333333", "city": "Matahiva", "lon": "-149.3333333"}, {"lat": "-17.7666667", "city": "Mataiea", "lon": "-149.4166667"}, {"lat": "-17.75", "city": "Mataiva", "lon": "-149.1833333"}, {"lat": "-17.5833333", "city": "Mataorio", "lon": "-149.3"}, {"lat": "-23.3666667", "city": "Mataura", "lon": "-149.4666667"}, {"lat": "-17.8166667", "city": "Matiti", "lon": "-149.2833333"}, {"lat": "-9.9166667", "city": "Matopu", "lon": "-139.05"}, {"lat": "-23.8833333", "city": "Matotea", "lon": "-147.7"}, {"lat": "-17.8", "city": "Matura", "lon": "-149.2833333"}, {"lat": "-17.7333333", "city": "Mitirapa", "lon": "-149.3"}, {"lat": "-22.4333333", "city": "Moerai", "lon": "-151.3333333"}, {"lat": "-16.6833333", "city": "Moheva", "lon": "-150.9833333"}, {"lat": "-17.75", "city": "Motaiva", "lon": "-149.1833333"}, {"lat": "-9.9166667", "city": "Motopu", "lon": "-139.05"}, {"lat": "-16.7666667", "city": "Motu Taiahu", "lon": "-150.9333333"}, {"lat": "-22.65", "city": "Motu Ura", "lon": "-152.85"}, {"lat": "-9.75", "city": "Nahoe", "lon": "-138.9166667"}, {"lat": "-17.7666667", "city": "Nairiri", "lon": "-149.4333333"}, {"lat": "-8.9333333", "city": "Nakapeni", "lon": "-140.0833333"}, {"lat": "-16.0166667", "city": "Ngarumaova", "lon": "-142.45"}, {"lat": "-17.7333333", "city": "Niumaa", "lon": "-149.2333333"}, {"lat": "-17.7833333", "city": "Niuporiri", "lon": "-149.2833333"}, {"lat": "-15.5666667", "city": "Niutahi", "lon": "-146.4"}, {"lat": "-17.5166667", "city": "Nivee", "lon": "-149.4"}, {"lat": "-17.75", "city": "Nurehia", "lon": "-149.1833333"}, {"lat": "-17.7333333", "city": "Nutae", "lon": "-149.25"}, {"lat": "-16.45", "city": "Oae", "lon": "-152.25"}, {"lat": "-9.9166667", "city": "Oehau", "lon": "-139.05"}, {"lat": "-17.75", "city": "Ofaiharata", "lon": "-149.3666667"}, {"lat": "-16.45", "city": "Ohava", "lon": "-143.9666667"}, {"lat": "-15.85", "city": "Ohomo", "lon": "-142.2666667"}, {"lat": "-10.5", "city": "Omoa", "lon": "-138.6833333"}, {"lat": "-17.7166667", "city": "Omuara", "lon": "-149.5833333"}, {"lat": "-17.5333333", "city": "Onoheha", "lon": "-149.3666667"}, {"lat": "-17.5", "city": "Ootomai", "lon": "-149.8166667"}, {"lat": "-17.5666667", "city": "Opaura", "lon": "-149.85"}, {"lat": "-17.5166667", "city": "Oponu", "lon": "-149.85"}, {"lat": "-17.4666667", "city": "Oroau", "lon": "-149.8"}, {"lat": "-17.5", "city": "Orofara", "lon": "-149.4666667"}, {"lat": "-17.5", "city": "Orofura", "lon": "-149.4666667"}, {"lat": "-17.7833333", "city": "Oroiri", "lon": "-149.2833333"}, {"lat": "-17.7833333", "city": "Oroiro", "lon": "-149.2833333"}, {"lat": "-17.4666667", "city": "Orouau", "lon": "-149.8"}, {"lat": "-17.5", "city": "Orufara", "lon": "-149.85"}, {"lat": "-18.1166667", "city": "Otepa", "lon": "-140.9"}, {"lat": "-17.7666667", "city": "Otiaroa", "lon": "-149.4"}, {"lat": "-17.5", "city": "Otumai", "lon": "-149.8166667"}, {"lat": "-17.65", "city": "Otuofai", "lon": "-149.3166667"}, {"lat": "-17.7666667", "city": "Otutara", "lon": "-149.4166667"}, {"lat": "-10.4666667", "city": "Ouia", "lon": "-138.6166667"}, {"lat": "-17.5666667", "city": "Outu Maoro", "lon": "-149.6166667"}, {"lat": "-16.7", "city": "Owharre", "lon": "-151.0166667"}, {"lat": "-17.6833333", "city": "Paca", "lon": "-149.5833333"}, {"lat": "-17.6833333", "city": "Paea", "lon": "-149.5833333"}, {"lat": "-17.5166667", "city": "Paeau", "lon": "-149.9166667"}, {"lat": "-17.7333333", "city": "Pahiarepo", "lon": "-149.6333333"}, {"lat": "-16.6833333", "city": "Pahiti", "lon": "-151.0"}, {"lat": "-17.5166667", "city": "Pahonu", "lon": "-149.5666667"}, {"lat": "-17.7166667", "city": "Pahua", "lon": "-149.2833333"}, {"lat": "-16.4333333", "city": "Paiouma", "lon": "-152.25"}, {"lat": "-17.75", "city": "Pani", "lon": "-149.3333333"}, {"lat": "-17.8", "city": "Paofai", "lon": "-149.1166667"}, {"lat": "-17.5", "city": "Paopao", "lon": "-149.8166667"}, {"lat": "-17.75", "city": "Papao", "lon": "-149.55"}, {"lat": "-17.75", "city": "Papara", "lon": "-149.55"}, {"lat": "-17.7666667", "city": "Paparevo", "lon": "-149.45"}, {"lat": "-17.5166667", "city": "Papava", "lon": "-149.5166667"}, {"lat": "-17.5166667", "city": "Papawa", "lon": "-149.5166667"}, {"lat": "-17.75", "city": "Papeari", "lon": "-149.35"}, {"lat": "-17.5333333", "city": "Papeete", "lon": "-149.5666667"}, {"lat": "-17.6", "city": "Papehee", "lon": "-149.3"}, {"lat": "-17.5333333", "city": "Papeiti", "lon": "-149.5666667"}, {"lat": "-17.4833333", "city": "Papeotai", "lon": "-149.8666667"}, {"lat": "-17.4833333", "city": "Papetoai", "lon": "-149.8666667"}, {"lat": "-17.5333333", "city": "Papiete", "lon": "-149.5666667"}, {"lat": "-17.5333333", "city": "Papiti", "lon": "-149.5666667"}, {"lat": "-17.7333333", "city": "Paraeo", "lon": "-149.2333333"}, {"lat": "-17.8", "city": "Paraiore", "lon": "-149.2833333"}, {"lat": "-17.5333333", "city": "Paraohumu", "lon": "-149.8833333"}, {"lat": "-17.4833333", "city": "Paraoro", "lon": "-149.8166667"}, {"lat": "-17.7333333", "city": "Parari", "lon": "-149.2166667"}, {"lat": "-17.75", "city": "Patere", "lon": "-149.5333333"}, {"lat": "-16.5833333", "city": "Patio", "lon": "-151.4833333"}, {"lat": "-17.7333333", "city": "Patuarepa", "lon": "-149.6333333"}, {"lat": "-23.3666667", "city": "Patu Patu", "lon": "-149.4666667"}, {"lat": "-17.7333333", "city": "Paturoa", "lon": "-149.2"}, {"lat": "-17.5166667", "city": "Patutoa", "lon": "-149.5666667"}, {"lat": "-17.75", "city": "Paui", "lon": "-149.3333333"}, {"lat": "-16.7833333", "city": "Peavitoa", "lon": "-151.5"}, {"lat": "-17.8", "city": "Pehoa", "lon": "-149.2833333"}, {"lat": "-16.45", "city": "Petou", "lon": "-152.25"}, {"lat": "-17.4833333", "city": "Piahena", "lon": "-149.8333333"}, {"lat": "-17.8", "city": "Pierre", "lon": "-149.2833333"}, {"lat": "-17.7333333", "city": "Pihaa", "lon": "-149.2"}, {"lat": "-17.4833333", "city": "Pihaena", "lon": "-149.8333333"}, {"lat": "-17.5166667", "city": "Pipine", "lon": "-149.5166667"}, {"lat": "-17.5166667", "city": "Pirae", "lon": "-149.5333333"}, {"lat": "-17.7833333", "city": "Port Vairao", "lon": "-149.2833333"}, {"lat": "-16.6333333", "city": "Pouheva", "lon": "-143.5666667"}, {"lat": "-17.75", "city": "Poutei", "lon": "-149.35"}, {"lat": "-16.5166667", "city": "Povai", "lon": "-151.7333333"}, {"lat": "-16.7", "city": "Puahua", "lon": "-151.0166667"}, {"lat": "-17.65", "city": "Puaiti", "lon": "-149.3166667"}, {"lat": "-17.7333333", "city": "Pucu", "lon": "-149.2166667"}, {"lat": "-17.7333333", "city": "Pueu", "lon": "-149.2166667"}, {"lat": "-16.6333333", "city": "Puheva", "lon": "-143.5666667"}, {"lat": "-17.6333333", "city": "Punaauia", "lon": "-149.6"}, {"lat": "-17.6333333", "city": "Punaavia", "lon": "-149.6"}, {"lat": "-17.8", "city": "Putiara", "lon": "-149.2833333"}, {"lat": "-17.5333333", "city": "Rairai", "lon": "-149.9166667"}, {"lat": "-23.8666667", "city": "Rairoa", "lon": "-147.6833333"}, {"lat": "-23.8666667", "city": "Rairua", "lon": "-147.6833333"}, {"lat": "-15.6666667", "city": "Raitahiti", "lon": "-146.8666667"}, {"lat": "-23.8666667", "city": "Raiurua", "lon": "-147.6833333"}, {"lat": "-15.3666667", "city": "Rautini", "lon": "-146.6166667"}, {"lat": "-23.1202778", "city": "Rihirea", "lon": "-134.9691667"}, {"lat": "-23.1202778", "city": "Rikitea", "lon": "-134.9691667"}, {"lat": "-23.1255556", "city": "Roruru", "lon": "-134.9661111"}, {"lat": "-16.05", "city": "Rotoava", "lon": "-145.6166667"}, {"lat": "-23.1255556", "city": "Rouru", "lon": "-134.9661111"}, {"lat": "-17.5333333", "city": "Saint Amelia", "lon": "-149.5666667"}, {"lat": "-17.5333333", "city": "Sainte Am\u00e9lie", "lon": "-149.5666667"}, {"lat": "-17.6", "city": "Taapuna", "lon": "-149.6"}, {"lat": "-16.6833333", "city": "Tahaa", "lon": "-151.45"}, {"lat": "-17.7333333", "city": "Taharoa", "lon": "-149.2166667"}, {"lat": "-16.7166667", "city": "Tahateao", "lon": "-151.0333333"}, {"lat": "-23.9166667", "city": "Tahueia", "lon": "-149.4333333"}, {"lat": "-8.9333333", "city": "Tai-o-hae", "lon": "-140.0833333"}, {"lat": "-10.4166667", "city": "Taiokai", "lon": "-138.6666667"}, {"lat": "-23.0813889", "city": "Takou", "lon": "-134.9486111"}, {"lat": "-23.0813889", "city": "Taku", "lon": "-134.9486111"}, {"lat": "-23.4", "city": "Tamatoa", "lon": "-149.4333333"}, {"lat": "-17.7333333", "city": "Taraeo", "lon": "-149.2333333"}, {"lat": "-23.1419444", "city": "Taravai", "lon": "-135.0302778"}, {"lat": "-17.7333333", "city": "Taravao", "lon": "-149.3166667"}, {"lat": "-15.9666667", "city": "Tarione", "lon": "-140.1666667"}, {"lat": "-16.45", "city": "Tatoi", "lon": "-152.2666667"}, {"lat": "-9.8333333", "city": "Taua", "lon": "-139.05"}, {"lat": "-17.5166667", "city": "Taunoa", "lon": "-149.55"}, {"lat": "-17.7333333", "city": "Tautera", "lon": "-149.15"}, {"lat": "-17.7333333", "city": "Tautira", "lon": "-149.15"}, {"lat": "-17.7166667", "city": "Taverea", "lon": "-149.5833333"}, {"lat": "-17.4666667", "city": "Teaharoa", "lon": "-149.7666667"}, {"lat": "-17.8333333", "city": "Teahupoo", "lon": "-149.2666667"}, {"lat": "-17.8333333", "city": "Teahupo", "lon": "-149.2666667"}, {"lat": "-17.8333333", "city": "Teahupu", "lon": "-149.2666667"}, {"lat": "-17.7166667", "city": "Teamara", "lon": "-149.3"}, {"lat": "-15.8333333", "city": "Teana", "lon": "-140.9"}, {"lat": "-16.7666667", "city": "Teapaa", "lon": "-151.0"}, {"lat": "-17.5333333", "city": "Te Auae", "lon": "-149.5833333"}, {"lat": "-17.5", "city": "Teavaro", "lon": "-149.7666667"}, {"lat": "-16.7833333", "city": "Te Avi Toa", "lon": "-151.5"}, {"lat": "-16.45", "city": "Te-Fare-Arii", "lon": "-152.25"}, {"lat": "-17.5666667", "city": "Tefau", "lon": "-149.85"}, {"lat": "-14.1", "city": "Tehekega", "lon": "-141.4333333"}, {"lat": "-17.5666667", "city": "Tehuarupe", "lon": "-149.85"}, {"lat": "-17.4833333", "city": "Temae", "lon": "-149.7666667"}, {"lat": "-15.8166667", "city": "Temao", "lon": "-148.2666667"}, {"lat": "-17.5333333", "city": "Teniuohiri", "lon": "-149.8833333"}, {"lat": "-14.5333333", "city": "Tenukupara", "lon": "-146.3666667"}, {"lat": "-14.8", "city": "Teonemahima", "lon": "-138.85"}, {"lat": "-14.8", "city": "Teonemahina", "lon": "-138.85"}, {"lat": "-14.1666667", "city": "Tepukamaruia", "lon": "-141.2833333"}, {"lat": "-23.4", "city": "Tepu", "lon": "-149.5"}, {"lat": "-17.75", "city": "Terehe", "lon": "-149.5"}, {"lat": "-14.9666667", "city": "Tereporepo", "lon": "-144.55"}, {"lat": "-17.6666667", "city": "Teruafaroa", "lon": "-149.3"}, {"lat": "-17.8333333", "city": "Teruamao", "lon": "-149.1333333"}, {"lat": "-17.5166667", "city": "Te Rua Pua", "lon": "-149.5333333"}, {"lat": "-16.5166667", "city": "Tetamanu", "lon": "-145.4666667"}, {"lat": "-17.6166667", "city": "Tetira", "lon": "-149.3"}, {"lat": "-23.3666667", "city": "Teuo", "lon": "-149.4333333"}, {"lat": "-16.7833333", "city": "Tevaitoa", "lon": "-151.5"}, {"lat": "-17.55", "city": "Tiaraha", "lon": "-149.7833333"}, {"lat": "-17.5333333", "city": "Tiarei", "lon": "-149.3333333"}, {"lat": "-17.7333333", "city": "Tiitau", "lon": "-149.25"}, {"lat": "-17.7833333", "city": "Tiomati", "lon": "-149.2833333"}, {"lat": "-17.5333333", "city": "Tipaerui", "lon": "-149.5666667"}, {"lat": "-14.9833333", "city": "Tiputa", "lon": "-147.6166667"}, {"lat": "-17.7166667", "city": "Tiripoa", "lon": "-149.3"}, {"lat": "-17.7333333", "city": "Titau", "lon": "-149.25"}, {"lat": "-17.75", "city": "Toahotu", "lon": "-149.3166667"}, {"lat": "-17.7166667", "city": "Toamara", "lon": "-149.3"}, {"lat": "-17.85", "city": "Toanoano", "lon": "-149.2166667"}, {"lat": "-17.7", "city": "Toetoe", "lon": "-149.5666667"}, {"lat": "-17.75", "city": "Tohautu", "lon": "-149.3166667"}, {"lat": "-16.3666667", "city": "Toini", "lon": "-144.35"}, {"lat": "-18.1333333", "city": "Topitike", "lon": "-142.2333333"}, {"lat": "-17.55", "city": "Torea", "lon": "-149.6"}, {"lat": "-17.75", "city": "Tuara", "lon": "-149.15"}, {"lat": "-17.5833333", "city": "Tuarea", "lon": "-149.8333333"}, {"lat": "-17.7666667", "city": "Tuete", "lon": "-149.1333333"}, {"lat": "-15.1333333", "city": "Tuherahera", "lon": "-148.2333333"}, {"lat": "-17.35", "city": "Tukuhora", "lon": "-145.5"}, {"lat": "-16.1333333", "city": "Tupana", "lon": "-146.3333333"}, {"lat": "-17.55", "city": "Tupapati", "lon": "-142.6666667"}, {"lat": "-16.5166667", "city": "Turapao", "lon": "-151.7333333"}, {"lat": "-17.35", "city": "Tuuhora", "lon": "-145.5"}, {"lat": "-17.7833333", "city": "Urihore", "lon": "-149.2833333"}, {"lat": "-17.8", "city": "Uritutua", "lon": "-149.2833333"}, {"lat": "-17.65", "city": "Utaofai", "lon": "-149.3166667"}, {"lat": "-17.5666667", "city": "Utu-maoro", "lon": "-149.6166667"}, {"lat": "-17.65", "city": "Utuofai", "lon": "-149.3166667"}, {"lat": "-16.7333333", "city": "Uturoa", "lon": "-151.4333333"}, {"lat": "-17.5208333", "city": "Va\u00efare", "lon": "-149.7797222"}, {"lat": "-17.7833333", "city": "Vaieri", "lon": "-149.2833333"}, {"lat": "-17.5333333", "city": "Vaiete", "lon": "-149.5666667"}, {"lat": "-17.7666667", "city": "Vaihi", "lon": "-149.3"}, {"lat": "-17.7666667", "city": "Vaionifa", "lon": "-149.1333333"}, {"lat": "-17.7333333", "city": "Vaioperu", "lon": "-149.55"}, {"lat": "-17.9666667", "city": "Vaiori", "lon": "-142.2333333"}, {"lat": "-17.4833333", "city": "Vaipeu", "lon": "-149.8333333"}, {"lat": "-17.75", "city": "Vaipohe", "lon": "-149.15"}, {"lat": "-17.7833333", "city": "Vairao", "lon": "-149.2833333"}, {"lat": "-17.5333333", "city": "Vairoa", "lon": "-149.7666667"}, {"lat": "-17.85", "city": "Vairo", "lon": "-149.1333333"}, {"lat": "-9.9333333", "city": "Vaitahu", "lon": "-139.1"}, {"lat": "-16.5166667", "city": "Vaitape", "lon": "-151.75"}, {"lat": "-16.4333333", "city": "Vaitia", "lon": "-152.2666667"}, {"lat": "-23.0777778", "city": "Vaitinoua", "lon": "-134.9472222"}, {"lat": "-16.6833333", "city": "Vaitoare", "lon": "-151.45"}, {"lat": "-17.75", "city": "Vaitona", "lon": "-149.1833333"}, {"lat": "-17.7666667", "city": "Vaitoto", "lon": "-149.1166667"}, {"lat": "-17.7666667", "city": "Vaitunanaa", "lon": "-149.4166667"}, {"lat": "-8.9333333", "city": "Vaitu", "lon": "-140.0833333"}, {"lat": "-23.8666667", "city": "Vaiuru", "lon": "-147.65"}]}}