{"QA": {"10": [{"lat": "24.904444", "city": "Al Kharrarah", "lon": "51.175"}, {"lat": "25.171511", "city": "Al Wakrah", "lon": "51.603371"}, {"lat": "25.171511", "city": "Al Waqra", "lon": "51.603371"}, {"lat": "25.171511", "city": "Al Waqrah", "lon": "51.603371"}, {"lat": "25.150833", "city": "Al Wukair", "lon": "51.537778"}, {"lat": "25.150833", "city": "Al Wukayr", "lon": "51.537778"}, {"lat": "24.827222", "city": "Ash Shaqra'", "lon": "51.394722"}, {"lat": "24.758889", "city": "Mazra`at Tarina", "lon": "51.211944"}, {"lat": "24.758889", "city": "Mazra`at Turayna", "lon": "51.211944"}, {"lat": "25.103333", "city": "Mu`aydhir", "lon": "51.521667"}, {"lat": "24.996111", "city": "Musay`id", "lon": "51.548889"}, {"lat": "25.1", "city": "Nabat al Usayl", "lon": "51.516667"}, {"lat": "25.211389", "city": "Ra's Abu Fintas", "lon": "51.619167"}, {"lat": "24.827222", "city": "Shaqra`", "lon": "51.394722"}, {"lat": "24.996111", "city": "Umm Sa`ad", "lon": "51.548889"}, {"lat": "24.996111", "city": "Umm Sa`id", "lon": "51.548889"}, {"lat": "25.030833", "city": "Wadi Jallal", "lon": "51.275278"}, {"lat": "25.171511", "city": "Wakrah", "lon": "51.603371"}, {"lat": "25.171511", "city": "Wakra", "lon": "51.603371"}, {"lat": "25.171511", "city": "Waqra", "lon": "51.603371"}], "13": [{"lat": "25.577442", "city": "Ad Da`ayin", "lon": "51.483063"}, {"lat": "25.577442", "city": "Al Da`ain", "lon": "51.483063"}, {"lat": "25.577442", "city": "Al Dha'Sin", "lon": "51.483063"}, {"lat": "25.6225", "city": "Al Ghaf", "lon": "51.454444"}, {"lat": "25.416944", "city": "Al Khisah", "lon": "51.457778"}, {"lat": "25.4975", "city": "Al Wasait", "lon": "51.485278"}, {"lat": "25.4975", "city": "Al Wusail", "lon": "51.485278"}, {"lat": "25.4975", "city": "Al Wusayl", "lon": "51.485278"}, {"lat": "25.574722", "city": "As Sumaisma", "lon": "51.486389"}, {"lat": "25.577442", "city": "Az Za`a'in", "lon": "51.483063"}, {"lat": "25.577442", "city": "Az Za`ayim", "lon": "51.483063"}, {"lat": "25.577442", "city": "Az Za`ayin", "lon": "51.483063"}, {"lat": "25.577442", "city": "Dha`ain", "lon": "51.483063"}, {"lat": "25.577442", "city": "Dha`an", "lon": "51.483063"}, {"lat": "25.577442", "city": "Edh Dha'ain", "lon": "51.483063"}, {"lat": "25.4975", "city": "Lusail", "lon": "51.485278"}, {"lat": "25.574722", "city": "Somaismah", "lon": "51.486389"}, {"lat": "25.574722", "city": "Sumaisimah", "lon": "51.486389"}, {"lat": "25.574722", "city": "Sumaisima", "lon": "51.486389"}, {"lat": "25.574722", "city": "Sumaismah", "lon": "51.486389"}, {"lat": "25.574722", "city": "Sumaisma", "lon": "51.486389"}, {"lat": "25.574722", "city": "Sumaysimah", "lon": "51.486389"}, {"lat": "25.610278", "city": "Tinbak", "lon": "51.475278"}, {"lat": "25.645833", "city": "Umm al Suwaija", "lon": "51.45"}, {"lat": "25.645833", "city": "Umm as Suwayyah", "lon": "51.45"}, {"lat": "25.55", "city": "Umm Jurn", "lon": "51.433333"}, {"lat": "25.549722", "city": "Umm Qarn", "lon": "51.431944"}, {"lat": "25.645833", "city": "Umm Suwaijah", "lon": "51.45"}, {"lat": "25.645833", "city": "Umm Suwayjah", "lon": "51.45"}], "01": [{"lat": "25.278333", "city": "`Abd al `Aziz", "lon": "51.525556"}, {"lat": "25.281389", "city": "Abu Sudayrah", "lon": "51.5125"}, {"lat": "25.286667", "city": "Ad Dawha", "lon": "51.533333"}, {"lat": "25.286667", "city": "Ad Dawhah", "lon": "51.533333"}, {"lat": "25.275833", "city": "Ad Dawhah al Jadidah", "lon": "51.533611"}, {"lat": "25.286667", "city": "Ad Doha", "lon": "51.533333"}, {"lat": "25.286667", "city": "Ad Dowhah", "lon": "51.533333"}, {"lat": "25.2925", "city": "Al Bida` al Gharbiyah", "lon": "51.520833"}, {"lat": "25.290833", "city": "Al Bida` ash Sharqiyah", "lon": "51.528333"}, {"lat": "25.278333", "city": "Al Ghanim", "lon": "51.541389"}, {"lat": "25.253889", "city": "Al Hilal al Gharbiyah", "lon": "51.535278"}, {"lat": "25.253889", "city": "Al Hilal ash Sharqiyah", "lon": "51.549722"}, {"lat": "25.283611", "city": "Al Hitmi", "lon": "51.546667"}, {"lat": "25.270833", "city": "Al Jabar", "lon": "51.505833"}, {"lat": "25.286111", "city": "Al Jasrah", "lon": "51.534167"}, {"lat": "25.284722", "city": "Al Khalifat", "lon": "51.555278"}, {"lat": "25.270556", "city": "Al Mansurah", "lon": "51.532778"}, {"lat": "25.320556", "city": "Al Markhiyah", "lon": "51.495556"}, {"lat": "25.320556", "city": "Al Markiyah", "lon": "51.495556"}, {"lat": "25.270833", "city": "Al Muntazah", "lon": "51.523056"}, {"lat": "25.281111", "city": "Al Murqab", "lon": "51.535"}, {"lat": "25.341944", "city": "Anaiza", "lon": "51.5075"}, {"lat": "25.341944", "city": "Aneiza", "lon": "51.5075"}, {"lat": "25.265833", "city": "An Najmah", "lon": "51.545278"}, {"lat": "25.2525", "city": "An Nu`ayiah", "lon": "51.559167"}, {"lat": "25.283333", "city": "Ar Rumaylah", "lon": "51.533333"}, {"lat": "25.286111", "city": "As Sadd", "lon": "51.504167"}, {"lat": "25.263611", "city": "As Salatah al Jadidah", "lon": "51.516389"}, {"lat": "25.288056", "city": "As Salatah", "lon": "51.546667"}, {"lat": "25.2875", "city": "As Sawq", "lon": "51.537778"}, {"lat": "25.286667", "city": "Dawhat al Qatar", "lon": "51.533333"}, {"lat": "25.286667", "city": "Doha", "lon": "51.533333"}, {"lat": "25.325278", "city": "Madinat Khalifah", "lon": "51.47"}, {"lat": "24.284722", "city": "Mushayrib", "lon": "51.521667"}, {"lat": "25.2525", "city": "Na'aijah", "lon": "51.559167"}, {"lat": "25.2525", "city": "Naeeja", "lon": "51.559167"}, {"lat": "25.2525", "city": "Naeejeh", "lon": "51.559167"}, {"lat": "25.2525", "city": "Nu`aija", "lon": "51.559167"}, {"lat": "25.2525", "city": "Nu`auah", "lon": "51.559167"}, {"lat": "25.2525", "city": "Nu`ayjah", "lon": "51.559167"}, {"lat": "25.283333", "city": "Rumailah", "lon": "51.533333"}, {"lat": "25.283333", "city": "Rumaillah", "lon": "51.533333"}, {"lat": "25.283333", "city": "Rumaylah", "lon": "51.533333"}, {"lat": "25.277222", "city": "Umm Ghuwaylinah", "lon": "51.547778"}, {"lat": "25.341944", "city": "`Unayzah", "lon": "51.5075"}, {"lat": "25.306944", "city": "Wadi as Sayl", "lon": "51.507778"}], "06": [{"lat": "25.235556", "city": "Abu Hamur", "lon": "51.495556"}, {"lat": "25.298611", "city": "Abu Qarn", "lon": "51.001667"}, {"lat": "24.748333", "city": "Abu Samrah", "lon": "50.84"}, {"lat": "25.723056", "city": "Abu Sidrah", "lon": "51.004167"}, {"lat": "25.451389", "city": "Ad Darb", "lon": "50.925"}, {"lat": "25.7175", "city": "Al Busayyir", "lon": "51.057778"}, {"lat": "25.3375", "city": "Al Gharafah", "lon": "51.425"}, {"lat": "25.315278", "city": "Al Gharrafah", "lon": "51.438611"}, {"lat": "25.3375", "city": "Al Gharrafah al Jadidah", "lon": "51.425"}, {"lat": "25.340556", "city": "Al Husayniyah", "lon": "51.293611"}, {"lat": "25.340556", "city": "Al Hussainiyah", "lon": "51.293611"}, {"lat": "25.609444", "city": "Al Jamaliya", "lon": "51.092222"}, {"lat": "25.609444", "city": "Al Jamliyah", "lon": "51.092222"}, {"lat": "25.609444", "city": "Al Jumaliyah", "lon": "51.092222"}, {"lat": "25.609444", "city": "Al Jumayliyah", "lon": "51.092222"}, {"lat": "25.429722", "city": "Al Khathiyah", "lon": "50.785833"}, {"lat": "25.419444", "city": "Al Khatiyah", "lon": "50.793611"}, {"lat": "25.419444", "city": "Al Khattiyah", "lon": "50.793611"}, {"lat": "25.433333", "city": "Al Khurayb", "lon": "51.22"}, {"lat": "25.266667", "city": "Al Khursa`ah", "lon": "50.969167"}, {"lat": "25.01", "city": "Al Kir`anah", "lon": "51.039444"}, {"lat": "25.233333", "city": "Al Maqran", "lon": "51.333333"}, {"lat": "25.666944", "city": "Al Qa`iyah", "lon": "51.174444"}, {"lat": "25.291944", "city": "Al Raiyan", "lon": "51.424444"}, {"lat": "25.291944", "city": "Al Rayyan", "lon": "51.424444"}, {"lat": "25.368611", "city": "Al Shahaniyah", "lon": "51.226389"}, {"lat": "25.765278", "city": "Al Suwaihiliya", "lon": "51.019722"}, {"lat": "25.765278", "city": "Al Suwaihiliyah", "lon": "51.019722"}, {"lat": "25.444444", "city": "Al `Uwaynah", "lon": "50.958333"}, {"lat": "25.266667", "city": "Al Wa`b", "lon": "51.483333"}, {"lat": "25.339167", "city": "Al Wabrah", "lon": "51.173333"}, {"lat": "25.300833", "city": "Al Wagbah", "lon": "51.394444"}, {"lat": "25.300833", "city": "Al Wajba", "lon": "51.394444"}, {"lat": "25.300833", "city": "Al Wajbah", "lon": "51.394444"}, {"lat": "25.300833", "city": "Al Waqbah", "lon": "51.394444"}, {"lat": "25.404722", "city": "An Nasraniyah", "lon": "51.073056"}, {"lat": "25.751944", "city": "An Nuqay`ah", "lon": "50.920833"}, {"lat": "25.291944", "city": "Ar Rayyan", "lon": "51.424444"}, {"lat": "25.533333", "city": "Ar Rufayq", "lon": "50.977222"}, {"lat": "25.368611", "city": "Ash Shahaniyah", "lon": "51.226389"}, {"lat": "25.158333", "city": "As Sahlah", "lon": "51.163611"}, {"lat": "25.363611", "city": "As Samiriyah", "lon": "51.281111"}, {"lat": "25.214444", "city": "As Sayliyah", "lon": "51.378889"}, {"lat": "25.242778", "city": "As Sidrah", "lon": "51.428889"}, {"lat": "25.560278", "city": "As Sun`", "lon": "51.158611"}, {"lat": "25.560278", "city": "As Sunu`", "lon": "51.158611"}, {"lat": "25.765278", "city": "As Suwayhiliyah", "lon": "51.019722"}, {"lat": "25.223333", "city": "`Ayn Khalid", "lon": "51.451667"}, {"lat": "25.5675", "city": "Bi'r al Husayn", "lon": "50.958889"}, {"lat": "25.495", "city": "Bi'r Zikrit", "lon": "50.846667"}, {"lat": "25.716667", "city": "Bu Sidrah", "lon": "51.05"}, {"lat": "25.716667", "city": "Busidreh", "lon": "51.05"}, {"lat": "25.429722", "city": "Dukhan", "lon": "50.785833"}, {"lat": "25.243056", "city": "Fariq al Ghanim al Jadid", "lon": "51.4525"}, {"lat": "25.429722", "city": "Ghariyat Adkhan", "lon": "50.785833"}, {"lat": "25.429722", "city": "Ghariyat Dukhan", "lon": "50.785833"}, {"lat": "25.751944", "city": "Ingaiah", "lon": "50.920833"}, {"lat": "25.609444", "city": "Jimaliyah", "lon": "51.092222"}, {"lat": "25.01", "city": "Kar`anah", "lon": "51.039444"}, {"lat": "25.480556", "city": "Khawzan", "lon": "50.938889"}, {"lat": "25.266667", "city": "Khursa`at al Bahat", "lon": "50.969167"}, {"lat": "25.4", "city": "Mu`askar al Busayyir", "lon": "51.183333"}, {"lat": "25.210833", "city": "Mu`askar as Saliyah", "lon": "51.394167"}, {"lat": "25.210833", "city": "Mu`askar as Sayliyah", "lon": "51.394167"}, {"lat": "25.256944", "city": "Mu`aydhir Abu ad Dawm", "lon": "51.398889"}, {"lat": "25.256944", "city": "Mu`aydhir", "lon": "51.398889"}, {"lat": "25.121944", "city": "Mukaynis", "lon": "51.218333"}, {"lat": "25.279167", "city": "Muraikh", "lon": "51.445556"}, {"lat": "25.279167", "city": "Muraykh", "lon": "51.445556"}, {"lat": "25.316667", "city": "Qahahil", "lon": "50.766667"}, {"lat": "25.291944", "city": "Raiyan", "lon": "51.424444"}, {"lat": "25.234167", "city": "Rawdat Rashid", "lon": "51.203056"}, {"lat": "25.765278", "city": "Suwaihaliyah", "lon": "51.019722"}, {"lat": "25.358889", "city": "Umm al Afa`i", "lon": "51.333611"}, {"lat": "25.311944", "city": "Umm al `Izam", "lon": "51.003056"}, {"lat": "25.495", "city": "Umm al Quhab `Abd Allah Bin Nasir", "lon": "50.965278"}, {"lat": "25.500833", "city": "Umm al Quhab al `Atiq", "lon": "50.980556"}, {"lat": "25.377778", "city": "Umm al Quhab", "lon": "51.294722"}, {"lat": "25.162222", "city": "Umm ash Shubrum", "lon": "51.220833"}, {"lat": "25.067778", "city": "Umm as Suwab", "lon": "51.0775"}, {"lat": "25.173889", "city": "Umm az Zabar", "lon": "51.269444"}, {"lat": "25.173889", "city": "Umm az Zubar", "lon": "51.269444"}, {"lat": "25.214167", "city": "Umm Bab", "lon": "50.807222"}, {"lat": "25.585556", "city": "Umm Ghuwaylinah", "lon": "51.151389"}, {"lat": "25.585556", "city": "Umm Ghuwaylina", "lon": "51.151389"}, {"lat": "25.235556", "city": "Umm Qurun", "lon": "51.33"}, {"lat": "25.224167", "city": "Umm Shamim", "lon": "51.174444"}, {"lat": "25.168889", "city": "Umm Wishah", "lon": "51.086389"}, {"lat": "25.300833", "city": "Wajbah", "lon": "51.394444"}, {"lat": "25.326667", "city": "Zar` al `Atiyah", "lon": "51.350278"}, {"lat": "25.495", "city": "Zekrit", "lon": "50.846667"}, {"lat": "25.495", "city": "Zikrit", "lon": "50.846667"}, {"lat": "25.313889", "city": "Zugain al Bahath", "lon": "50.883333"}, {"lat": "25.313889", "city": "Zughayn al Bahath", "lon": "50.883333"}, {"lat": "25.313889", "city": "Zughayn al Bahth", "lon": "50.883333"}], "04": [{"lat": "25.708333", "city": "Abu Kharab", "lon": "51.591667"}, {"lat": "25.696111", "city": "Abu Suwayy", "lon": "51.260833"}, {"lat": "25.8575", "city": "Ad Da`udiyah", "lon": "51.298889"}, {"lat": "25.734722", "city": "Ad Dhakhirah", "lon": "51.5475"}, {"lat": "25.734722", "city": "Adh Dhakhira", "lon": "51.5475"}, {"lat": "25.734722", "city": "Adh Dhakhirah", "lon": "51.5475"}, {"lat": "25.734722", "city": "Adh Dhukhayr", "lon": "51.5475"}, {"lat": "25.734722", "city": "Al Dakhirah", "lon": "51.5475"}, {"lat": "25.734722", "city": "Al Dhakhirah", "lon": "51.5475"}, {"lat": "25.775833", "city": "Al Ghafah", "lon": "51.023056"}, {"lat": "25.829722", "city": "Al Ghuwairiya", "lon": "51.245278"}, {"lat": "25.829722", "city": "Al Ghuwairiyah", "lon": "51.245278"}, {"lat": "25.829722", "city": "Al Ghuwayriyah", "lon": "51.245278"}, {"lat": "25.944722", "city": "Al Huwaylah", "lon": "51.456389"}, {"lat": "25.700833", "city": "Al Jubayl", "lon": "51.584722"}, {"lat": "25.683889", "city": "Al-Khaur", "lon": "51.505833"}, {"lat": "25.683889", "city": "Al Khawr", "lon": "51.505833"}, {"lat": "25.8575", "city": "Al Khurays", "lon": "51.441389"}, {"lat": "25.8725", "city": "Al Majidah", "lon": "51.258333"}, {"lat": "25.686389", "city": "Al `Uqdah", "lon": "51.468889"}, {"lat": "25.839167", "city": "Al Wa`b", "lon": "51.465278"}, {"lat": "25.65", "city": "Ash Shafallahiyah", "lon": "51.372222"}, {"lat": "25.847778", "city": "As Sulaymi `Abd al Aziz Bin Khalifah", "lon": "51.205833"}, {"lat": "25.904167", "city": "As Sulaymi Fahd Bin `Abd Allah", "lon": "51.201667"}, {"lat": "25.867778", "city": "As Sulaymi Khalifah Bin Hamad", "lon": "51.205556"}, {"lat": "25.880833", "city": "As Sulaymi Qasim Bin Hamad", "lon": "51.221389"}, {"lat": "25.883056", "city": "As Sulaymi Suhaym Bin Hamad", "lon": "51.185278"}, {"lat": "25.826667", "city": "As Su`lukiyah", "lon": "51.043889"}, {"lat": "25.734722", "city": "Dakhira", "lon": "51.5475"}, {"lat": "25.734722", "city": "Dhakhirah", "lon": "51.5475"}, {"lat": "25.829722", "city": "Ghuwairiyah", "lon": "51.245278"}, {"lat": "25.683889", "city": "Khaur al-Mahanidah", "lon": "51.505833"}, {"lat": "25.683889", "city": "Khaur Shaqiq", "lon": "51.505833"}, {"lat": "25.683889", "city": "Khawr Shaqiq", "lon": "51.505833"}, {"lat": "25.683889", "city": "Khor-al-Mahandah", "lon": "51.505833"}, {"lat": "25.683889", "city": "Khor", "lon": "51.505833"}, {"lat": "25.683889", "city": "Khor Shaqiq", "lon": "51.505833"}, {"lat": "25.808333", "city": "Muhayriqah", "lon": "51.060556"}, {"lat": "25.65", "city": "Shafilahiyah", "lon": "51.372222"}, {"lat": "25.683889", "city": "Shakik", "lon": "51.505833"}, {"lat": "25.793333", "city": "Simsimah", "lon": "51.409444"}, {"lat": "25.816667", "city": "Umm al Kharj", "lon": "51.133333"}, {"lat": "25.816667", "city": "Umm al Kharq", "lon": "51.133333"}, {"lat": "25.772222", "city": "Umm al Quhab", "lon": "51.483333"}, {"lat": "25.751111", "city": "Umm Birkah", "lon": "51.449167"}, {"lat": "25.833333", "city": "Umm Ju`ayd", "lon": "51.072222"}, {"lat": "25.715833", "city": "Umm Qayn", "lon": "51.505556"}], "08": [{"lat": "26.123611", "city": "Aba Zuluf", "lon": "51.169167"}, {"lat": "26.123611", "city": "Abu az Zuluf", "lon": "51.169167"}, {"lat": "26.123611", "city": "Abu Daluf", "lon": "51.169167"}, {"lat": "26.123611", "city": "Abu Dhaluf", "lon": "51.169167"}, {"lat": "26.123611", "city": "Abu Dhuluf", "lon": "51.169167"}, {"lat": "26.123611", "city": "Abu Zahif", "lon": "51.169167"}, {"lat": "26.123611", "city": "Abu Zuluf", "lon": "51.169167"}, {"lat": "26.055", "city": "Adhbah", "lon": "51.316111"}, {"lat": "26.055", "city": "Al `Adhbah", "lon": "51.316111"}, {"lat": "26.048889", "city": "Al `Arish", "lon": "51.056944"}, {"lat": "26.078056", "city": "Al Ghariyah", "lon": "51.361667"}, {"lat": "26.078056", "city": "Al Ghariyeh", "lon": "51.361667"}, {"lat": "25.983333", "city": "Al Ghashamiya", "lon": "51.4"}, {"lat": "25.983333", "city": "Al Ghashamiyah", "lon": "51.4"}, {"lat": "25.983333", "city": "Al Ghashshamiyah", "lon": "51.4"}, {"lat": "25.951667", "city": "Al Jadhi", "lon": "51.349722"}, {"lat": "26.099722", "city": "Al-Jamil", "lon": "51.161111"}, {"lat": "25.951667", "city": "Al Judhay`", "lon": "51.349722"}, {"lat": "26.099722", "city": "Al Jumail", "lon": "51.161111"}, {"lat": "26.099722", "city": "Al Jumayl", "lon": "51.161111"}, {"lat": "25.966667", "city": "Al Ka`aban", "lon": "51.283333"}, {"lat": "25.966667", "city": "Al Ka`ban", "lon": "51.283333"}, {"lat": "26.05", "city": "Al Ka`biyah", "lon": "51.25"}, {"lat": "25.928333", "city": "Al Khisa", "lon": "51.3375"}, {"lat": "25.928333", "city": "Al Khisah", "lon": "51.3375"}, {"lat": "25.928333", "city": "Al Khiseh", "lon": "51.3375"}, {"lat": "26.074722", "city": "Al Khuwair", "lon": "51.083611"}, {"lat": "26.074722", "city": "Al Khuwayr", "lon": "51.083611"}, {"lat": "26.074722", "city": "Al Kuhwayr", "lon": "51.083611"}, {"lat": "26.133333", "city": "Al Mafier", "lon": "51.3"}, {"lat": "26.133333", "city": "Al Mafijar", "lon": "51.3"}, {"lat": "26.133333", "city": "Al Mafjar", "lon": "51.3"}, {"lat": "25.888056", "city": "Al Mashrab", "lon": "51.386389"}, {"lat": "25.9375", "city": "Al Muraydah", "lon": "51.313333"}, {"lat": "25.856667", "city": "Al Na'man", "lon": "51.083333"}, {"lat": "26.067222", "city": "Al Qa`abiyah", "lon": "51.258611"}, {"lat": "26.033333", "city": "Al Thagab", "lon": "51.116667"}, {"lat": "26.033333", "city": "Al Thaqab", "lon": "51.116667"}, {"lat": "26.048889", "city": "Al `Uraysh", "lon": "51.056944"}, {"lat": "26.123611", "city": "Al Wa`b", "lon": "51.222778"}, {"lat": "25.856667", "city": "An Nu`man", "lon": "51.083333"}, {"lat": "26.048889", "city": "`Araish", "lon": "51.056944"}, {"lat": "26.050556", "city": "Ar Rakiyat", "lon": "51.135833"}, {"lat": "26.133333", "city": "Ar Ru'ays", "lon": "51.216667"}, {"lat": "26.133333", "city": "Ar Ruwais", "lon": "51.216667"}, {"lat": "26.083611", "city": "Ar Ruwaydah", "lon": "51.147222"}, {"lat": "26.133333", "city": "Ar Ruways", "lon": "51.216667"}, {"lat": "26.076667", "city": "`Asmiyah", "lon": "51.166944"}, {"lat": "26.033333", "city": "As Sidriyah", "lon": "51.166667"}, {"lat": "26.033333", "city": "Ath Thagab Oasis", "lon": "51.116667"}, {"lat": "26.033333", "city": "Ath Thaghab", "lon": "51.116667"}, {"lat": "26.033333", "city": "Ath Thaqab", "lon": "51.116667"}, {"lat": "26.016667", "city": "`Ayn Sinan", "lon": "51.333333"}, {"lat": "26.123611", "city": "Dhaluf", "lon": "51.169167"}, {"lat": "26.123611", "city": "Dhuluf", "lon": "51.169167"}, {"lat": "26.133333", "city": "El Mafier", "lon": "51.3"}, {"lat": "25.9", "city": "F\u00e2hah\u00eel", "lon": "51"}, {"lat": "25.9", "city": "Fuhayhil", "lon": "51"}, {"lat": "26.021667", "city": "Fuwayrit", "lon": "51.366944"}, {"lat": "26.441111", "city": "Ghaf Makin", "lon": "51.188889"}, {"lat": "26.078056", "city": "Ghariyah", "lon": "51.361667"}, {"lat": "25.983333", "city": "Ghashamiyah", "lon": "51.4"}, {"lat": "25.95", "city": "Halwan", "lon": "51.066667"}, {"lat": "25.95", "city": "Hulwan", "lon": "51.066667"}, {"lat": "26.099722", "city": "Jumail", "lon": "51.161111"}, {"lat": "26.074722", "city": "Khawr Hassan", "lon": "51.083611"}, {"lat": "26.074722", "city": "Khor Hassan", "lon": "51.083611"}, {"lat": "26.074722", "city": "Khuwair", "lon": "51.083611"}, {"lat": "25.957778", "city": "Lisha", "lon": "51.075278"}, {"lat": "26.099722", "city": "Lumail", "lon": "51.161111"}, {"lat": "25.871944", "city": "Madinat al Ka`ban", "lon": "51.354722"}, {"lat": "26.129334", "city": "Madinat ash Shamal", "lon": "51.200905"}, {"lat": "26.133333", "city": "Mafijar", "lon": "51.3"}, {"lat": "25.958333", "city": "Musaykah", "lon": "51.099444"}, {"lat": "25.856667", "city": "Na'aman", "lon": "51.083333"}, {"lat": "25.856667", "city": "Nu`man", "lon": "51.083333"}, {"lat": "26.133333", "city": "Ruwais", "lon": "51.216667"}, {"lat": "25.85", "city": "Sa Alokiyah", "lon": "51.033333"}, {"lat": "25.85", "city": "Sa`lukiyah", "lon": "51.033333"}, {"lat": "26.033611", "city": "Sidriyat Makin", "lon": "51.163889"}, {"lat": "26.033333", "city": "Thaghab", "lon": "51.116667"}, {"lat": "26.000278", "city": "Umm al Ghaylam", "lon": "51.294444"}, {"lat": "26.050278", "city": "Umm al Hawa'ir", "lon": "51.2975"}, {"lat": "26.033611", "city": "Umm al Kilab", "lon": "51.200278"}, {"lat": "26.008611", "city": "Umm al Qubur", "lon": "51.083611"}, {"lat": "26.077222", "city": "Umm as Suf", "lon": "51.222222"}, {"lat": "25.866667", "city": "Umm Juaidah", "lon": "51.066667"}, {"lat": "25.866667", "city": "Umm Juwaydah", "lon": "51.066667"}, {"lat": "26.150278", "city": "Umm Sabbah", "lon": "51.108056"}, {"lat": "26.099722", "city": "Yamail", "lon": "51.161111"}, {"lat": "26.108056", "city": "Zaghab", "lon": "51.244722"}], "09": [{"lat": "25.459167", "city": "Abu Husayyah", "lon": "51.316667"}, {"lat": "25.531944", "city": "Abu Thaylah", "lon": "51.304444"}, {"lat": "25.4", "city": "Al Kharitiyat", "lon": "51.425"}, {"lat": "25.396944", "city": "Al Khuraytiyat", "lon": "51.4225"}, {"lat": "25.538889", "city": "As Sani`", "lon": "51.408333"}, {"lat": "25.545833", "city": "Raudat al `Ayuz", "lon": "51.3875"}, {"lat": "25.545833", "city": "Rawdat al Ajuzah", "lon": "51.3875"}, {"lat": "25.545833", "city": "Rawdat al `Ajuz", "lon": "51.3875"}, {"lat": "25.545833", "city": "Rodhat-al-`Ajuzah", "lon": "51.3875"}, {"lat": "25.483333", "city": "Umm A'birieh", "lon": "51.383333"}, {"lat": "25.483333", "city": "Umm `Abiriyah", "lon": "51.383333"}, {"lat": "25.478056", "city": "Umm al Abarig", "lon": "51.3625"}, {"lat": "25.478056", "city": "Umm al Abariq", "lon": "51.3625"}, {"lat": "25.492222", "city": "Umm al `Amad", "lon": "51.400278"}, {"lat": "25.374444", "city": "Umm al Oubur", "lon": "51.436667"}, {"lat": "25.374444", "city": "Umm al Qubur", "lon": "51.436667"}, {"lat": "25.469722", "city": "Umm-al-Salal", "lon": "51.3975"}, {"lat": "25.416944", "city": "Umm es Salal", "lon": "51.403889"}, {"lat": "25.416944", "city": "Umm es Slal", "lon": "51.403889"}, {"lat": "25.469722", "city": "Umm Salal `Ali", "lon": "51.3975"}, {"lat": "25.416944", "city": "Umm Salal Mohammad", "lon": "51.403889"}, {"lat": "25.416944", "city": "Umm Salal Muhammad", "lon": "51.403889"}, {"lat": "25.416944", "city": "Umm Ses Salal", "lon": "51.403889"}, {"lat": "25.469722", "city": "Umm Silal `Ali", "lon": "51.3975"}, {"lat": "25.416944", "city": "Umm Silal Mohammed", "lon": "51.403889"}, {"lat": "25.469722", "city": "Umm Slal Ali", "lon": "51.3975"}, {"lat": "25.416944", "city": "Umm Slal Mohammed", "lon": "51.403889"}, {"lat": "25.490556", "city": "Umm `Ubayriyad", "lon": "51.373611"}, {"lat": "25.490556", "city": "Umm `Ubayriyah", "lon": "51.373611"}]}}