{"RW": {"02": [{"lat": "-1.45", "city": "Bganga", "lon": "30.4333333"}, {"lat": "-1.4666667", "city": "Bibale", "lon": "30.2333333"}, {"lat": "-1.5775", "city": "Biumba", "lon": "30.0625"}, {"lat": "-1.5502778", "city": "Bugaragara", "lon": "30.0411111"}, {"lat": "-1.4833333", "city": "Bugindi", "lon": "29.9333333"}, {"lat": "-1.45", "city": "Buguma", "lon": "30.1833333"}, {"lat": "-1.3875", "city": "Bukamba", "lon": "30.2575"}, {"lat": "-1.3333333", "city": "Bukekele", "lon": "30.2833333"}, {"lat": "-1.6833333", "city": "Bulenga", "lon": "30.05"}, {"lat": "-1.6491667", "city": "Burenga", "lon": "30.0313889"}, {"lat": "-1.3333333", "city": "Bushara", "lon": "30.1666667"}, {"lat": "-1.6666667", "city": "Bushiga", "lon": "29.9333333"}, {"lat": "-1.55", "city": "Bushingamohetu", "lon": "29.95"}, {"lat": "-1.4666667", "city": "Butozo", "lon": "30.05"}, {"lat": "-1.1666667", "city": "Buvali", "lon": "30.3166667"}, {"lat": "-1.69", "city": "Buyoga", "lon": "30.0136111"}, {"lat": "-1.7", "city": "Buzigi", "lon": "29.95"}, {"lat": "-1.2666667", "city": "Bweya", "lon": "30.2666667"}, {"lat": "-1.4166667", "city": "Bwishya", "lon": "30.1166667"}, {"lat": "-1.5761111", "city": "Bwisige", "lon": "30.1555556"}, {"lat": "-1.5775", "city": "Byumba", "lon": "30.0625"}, {"lat": "-1.45", "city": "Colline Bganga", "lon": "30.4333333"}, {"lat": "-1.4666667", "city": "Colline Bibale", "lon": "30.2333333"}, {"lat": "-1.4833333", "city": "Colline Bugindi", "lon": "29.9333333"}, {"lat": "-1.45", "city": "Colline Buguma", "lon": "30.1833333"}, {"lat": "-1.7166667", "city": "Colline Bukamba", "lon": "30.0"}, {"lat": "-1.3333333", "city": "Colline Bukekele", "lon": "30.2833333"}, {"lat": "-1.6833333", "city": "Colline Bulenga", "lon": "30.05"}, {"lat": "-1.3333333", "city": "Colline Bushara", "lon": "30.1666667"}, {"lat": "-1.6666667", "city": "Colline Bushiga", "lon": "29.9333333"}, {"lat": "-1.55", "city": "Colline Bushingamohetu", "lon": "29.95"}, {"lat": "-1.4666667", "city": "Colline Butozo", "lon": "30.05"}, {"lat": "-1.1666667", "city": "Colline Buvali", "lon": "30.3166667"}, {"lat": "-1.69", "city": "Colline Buyaga", "lon": "30.0136111"}, {"lat": "-1.2666667", "city": "Colline Bweya", "lon": "30.2666667"}, {"lat": "-1.4166667", "city": "Colline Bwishya", "lon": "30.1166667"}, {"lat": "-1.5447222", "city": "Colline Garama", "lon": "30.2422222"}, {"lat": "-1.5", "city": "Colline Gasambya", "lon": "30.1"}, {"lat": "-1.3166667", "city": "Colline Gasana", "lon": "30.35"}, {"lat": "-1.3333333", "city": "Colline Gasheshe", "lon": "30.3833333"}, {"lat": "-1.4166667", "city": "Colline Gatsilima", "lon": "30.1333333"}, {"lat": "-1.2", "city": "Colline Gazinga", "lon": "30.3666667"}, {"lat": "-1.6980556", "city": "Colline Gitaba", "lon": "29.9283333"}, {"lat": "-1.6", "city": "Colline Gitandi", "lon": "29.9333333"}, {"lat": "-1.5947222", "city": "Colline Gitare", "lon": "29.9422222"}, {"lat": "-1.4", "city": "Colline Gitenga", "lon": "30.1333333"}, {"lat": "-1.5833333", "city": "Colline Gitovu", "lon": "29.9166667"}, {"lat": "-1.6013889", "city": "Colline Gituza", "lon": "30.2844444"}, {"lat": "-1.75", "city": "Colline Gorora", "lon": "30.3833333"}, {"lat": "-1.5833333", "city": "Colline Kabale", "lon": "30.3166667"}, {"lat": "-1.6166667", "city": "Colline Kabalele", "lon": "30.35"}, {"lat": "-1.3833333", "city": "Colline Kabilizi", "lon": "30.3166667"}, {"lat": "-1.4833333", "city": "Colline Kabira", "lon": "30.3166667"}, {"lat": "-1.5", "city": "Colline Kabongoya", "lon": "30.1333333"}, {"lat": "-1.4", "city": "Colline Kadjumo", "lon": "30.35"}, {"lat": "-1.3833333", "city": "Colline Kagabo", "lon": "30.35"}, {"lat": "-1.0666667", "city": "Colline Kakole", "lon": "30.4166667"}, {"lat": "-1.4666667", "city": "Colline Kakute", "lon": "30.2833333"}, {"lat": "-1.6166667", "city": "Colline Kamabara", "lon": "30.2333333"}, {"lat": "-1.4333333", "city": "Colline Kamushuri", "lon": "30.05"}, {"lat": "-1.2833333", "city": "Colline Kangoma", "lon": "30.25"}, {"lat": "-1.7961111", "city": "Colline Karagari", "lon": "30.1919444"}, {"lat": "-1.6666667", "city": "Colline Karama", "lon": "29.9166667"}, {"lat": "-1.1833333", "city": "Colline Kendale", "lon": "30.4"}, {"lat": "-1.5819444", "city": "Colline Kibali", "lon": "30.0466667"}, {"lat": "-1.3833333", "city": "Colline Kiboga", "lon": "30.3"}, {"lat": "-1.1", "city": "Colline Kikunyu", "lon": "30.3666667"}, {"lat": "-1.5666667", "city": "Colline Kilambi", "lon": "30.15"}, {"lat": "-1.1", "city": "Colline Kimbwebwe", "lon": "30.4"}, {"lat": "-1.6333333", "city": "Colline Kimiryi", "lon": "29.9833333"}, {"lat": "-1.4333333", "city": "Colline Kinyambo", "lon": "30.2"}, {"lat": "-1.6333333", "city": "Colline Kiterwe", "lon": "30.25"}, {"lat": "-1.4333333", "city": "Colline Kizirakome", "lon": "30.4"}, {"lat": "-1.4444444", "city": "Colline Kyiombe", "lon": "30.0886111"}, {"lat": "-1.6833333", "city": "Colline Kyiri", "lon": "29.9"}, {"lat": "-1.2644444", "city": "Colline Lubirizi", "lon": "30.23"}, {"lat": "-1.5833333", "city": "Colline Lutendele", "lon": "30.35"}, {"lat": "-1.45", "city": "Colline Mabare", "lon": "30.1"}, {"lat": "-1.1833333", "city": "Colline Mugakindu", "lon": "30.3"}, {"lat": "-1.6166667", "city": "Colline Mugera", "lon": "30.2666667"}, {"lat": "-1.5166667", "city": "Colline Muhingu", "lon": "30.2833333"}, {"lat": "-1.7344444", "city": "Colline Muhura", "lon": "30.2708333"}, {"lat": "-1.5280556", "city": "Colline Mukalange", "lon": "30.0786111"}, {"lat": "-1.6833333", "city": "Colline Muko", "lon": "29.9"}, {"lat": "-1.6833333", "city": "Colline Mumatyazo", "lon": "30.15"}, {"lat": "-1.5333333", "city": "Colline Munini", "lon": "30.0666667"}, {"lat": "-1.2833333", "city": "Colline Munsheke", "lon": "30.3666667"}, {"lat": "-1.55", "city": "Colline Murambi", "lon": "30.2333333"}, {"lat": "-1.5", "city": "Colline Murore", "lon": "30.0166667"}, {"lat": "-1.5", "city": "Colline Muryorera", "lon": "29.9666667"}, {"lat": "-1.7030556", "city": "Colline Musenyi", "lon": "30.1094444"}, {"lat": "-1.1333333", "city": "Colline Musheri", "lon": "30.3833333"}, {"lat": "-1.65", "city": "Colline Mushongi", "lon": "29.9"}, {"lat": "-1.6333333", "city": "Colline Mutara", "lon": "29.95"}, {"lat": "-1.6166667", "city": "Colline Muti", "lon": "30.2"}, {"lat": "-1.6333333", "city": "Colline Mwenya", "lon": "30.2166667"}, {"lat": "-1.6", "city": "Colline Nyabichwamba", "lon": "30.25"}, {"lat": "-1.55", "city": "Colline Nyabishambi", "lon": "30.0666667"}, {"lat": "-1.5333333", "city": "Colline Nyabugando", "lon": "30.4166667"}, {"lat": "-1.5", "city": "Colline Nyagahita", "lon": "30.2"}, {"lat": "-1.65", "city": "Colline Nyagitabire", "lon": "30.1833333"}, {"lat": "-1.6333333", "city": "Colline Nyakabungo", "lon": "30.15"}, {"lat": "-1.4333333", "city": "Colline Nyakingandu", "lon": "30.3333333"}, {"lat": "-1.5166667", "city": "Colline Nyamikama", "lon": "30.25"}, {"lat": "-1.4", "city": "Colline Nyamikamba", "lon": "30.2166667"}, {"lat": "-1.65", "city": "Colline Nyamirembe", "lon": "30.35"}, {"lat": "-1.6", "city": "Colline Nyanda", "lon": "30.05"}, {"lat": "-1.6", "city": "Colline Nyankenke", "lon": "30.0166667"}, {"lat": "-1.5166667", "city": "Colline Nyarubanga", "lon": "30.25"}, {"lat": "-1.5666667", "city": "Colline Nyarubungu", "lon": "30.25"}, {"lat": "-1.5286111", "city": "Colline Nyarugumba", "lon": "30.4130556"}, {"lat": "-1.3", "city": "Colline Rekisugi", "lon": "30.2333333"}, {"lat": "-1.4833333", "city": "Colline Rubungu", "lon": "30.35"}, {"lat": "-1.6666667", "city": "Colline Rugogwe", "lon": "30.3"}, {"lat": "-1.4", "city": "Colline Ruinihingo", "lon": "30.25"}, {"lat": "-1.5666667", "city": "Colline Rusekera", "lon": "29.95"}, {"lat": "-1.4666667", "city": "Colline Rushebeya", "lon": "30.1166667"}, {"lat": "-1.2833333", "city": "Colline Rutare", "lon": "30.3"}, {"lat": "-1.35", "city": "Colline Ruyaraka", "lon": "30.3833333"}, {"lat": "-1.3333333", "city": "Colline Rwegenya", "lon": "30.3"}, {"lat": "-1.6", "city": "Colline Rwimbogo", "lon": "30.3166667"}, {"lat": "-1.65", "city": "Colline Sayo", "lon": "30.0"}, {"lat": "-1.3", "city": "Colline Shuti", "lon": "30.3"}, {"lat": "-1.3833333", "city": "Colline Tovu", "lon": "30.1166667"}, {"lat": "-1.2336111", "city": "Colline Tshanzozo", "lon": "30.3008333"}, {"lat": "-1.6", "city": "Colline Tsheya", "lon": "30.1166667"}, {"lat": "-1.6944444", "city": "Colline Tumba", "lon": "29.9483333"}, {"lat": "-1.45", "city": "Cyondo", "lon": "30.1166667"}, {"lat": "-1.5047222", "city": "Cyumba", "lon": "30.0061111"}, {"lat": "-1.6230556", "city": "Cyungo", "lon": "29.9541667"}, {"lat": "-1.4794444", "city": "Gakoma", "lon": "30.1994444"}, {"lat": "-1.5447222", "city": "Garama", "lon": "30.2422222"}, {"lat": "-1.5", "city": "Gasambya", "lon": "30.1"}, {"lat": "-1.3166667", "city": "Gasana", "lon": "30.35"}, {"lat": "-1.3333333", "city": "Gasheshe", "lon": "30.3833333"}, {"lat": "-1.5166667", "city": "Gatete", "lon": "29.95"}, {"lat": "-1.5758333", "city": "Gatsibo", "lon": "30.2441667"}, {"lat": "-1.5758333", "city": "Gatsibu", "lon": "30.2441667"}, {"lat": "-1.4166667", "city": "Gatsilima", "lon": "30.1333333"}, {"lat": "-1.2", "city": "Gazinga", "lon": "30.3666667"}, {"lat": "-1.3", "city": "Ghasheshe", "lon": "30.2166667"}, {"lat": "-1.6408333", "city": "Gisaka", "lon": "30.3727778"}, {"lat": "-1.5833333", "city": "Gishikiri", "lon": "30.1833333"}, {"lat": "-1.6980556", "city": "Gitaba", "lon": "29.9283333"}, {"lat": "-1.6", "city": "Gitandi", "lon": "29.9333333"}, {"lat": "-1.5947222", "city": "Gitare", "lon": "29.9422222"}, {"lat": "-1.4", "city": "Gitenga", "lon": "30.1333333"}, {"lat": "-1.7491667", "city": "Giti", "lon": "30.1877778"}, {"lat": "-1.6416667", "city": "Gitoke", "lon": "30.3213889"}, {"lat": "-1.5833333", "city": "Gitovu", "lon": "29.9166667"}, {"lat": "-1.6013889", "city": "Gituza", "lon": "30.2844444"}, {"lat": "-1.75", "city": "Gorora", "lon": "30.3833333"}, {"lat": "-1.5833333", "city": "Kabale", "lon": "30.3166667"}, {"lat": "-1.6166667", "city": "Kabalele", "lon": "30.35"}, {"lat": "-1.5333333", "city": "Kabare", "lon": "30.1833333"}, {"lat": "-1.3833333", "city": "Kabilizi", "lon": "30.3166667"}, {"lat": "-1.4833333", "city": "Kabira", "lon": "30.3166667"}, {"lat": "-1.5", "city": "Kabongoya", "lon": "30.1333333"}, {"lat": "-1.4", "city": "Kadjumo", "lon": "30.35"}, {"lat": "-1.3833333", "city": "Kagabo", "lon": "30.35"}, {"lat": "-1.0666667", "city": "Kakole", "lon": "30.4166667"}, {"lat": "-1.4666667", "city": "Kakoma", "lon": "30.2166667"}, {"lat": "-1.4666667", "city": "Kakute", "lon": "30.2833333"}, {"lat": "-1.5833333", "city": "Kalenda", "lon": "29.95"}, {"lat": "-1.6166667", "city": "Kamabara", "lon": "30.2333333"}, {"lat": "-1.4333333", "city": "Kamushuri", "lon": "30.05"}, {"lat": "-1.2833333", "city": "Kangoma", "lon": "30.25"}, {"lat": "-1.3716667", "city": "Kanyundo", "lon": "30.4611111"}, {"lat": "-1.7961111", "city": "Karagari", "lon": "30.1919444"}, {"lat": "-1.3944444", "city": "Karama", "lon": "30.1533333"}, {"lat": "-1.6130556", "city": "Karehe", "lon": "30.2175"}, {"lat": "-1.5516667", "city": "Karongo", "lon": "30.915"}, {"lat": "-1.6811111", "city": "Kashango", "lon": "30.2705556"}, {"lat": "-1.7033333", "city": "Kayenzi", "lon": "29.9336111"}, {"lat": "-1.1833333", "city": "Kendale", "lon": "30.4"}, {"lat": "-1.5819444", "city": "Kibali", "lon": "30.0466667"}, {"lat": "-1.3833333", "city": "Kiboga", "lon": "30.3"}, {"lat": "-1.1", "city": "Kikunyu", "lon": "30.3666667"}, {"lat": "-1.5666667", "city": "Kilambi", "lon": "30.15"}, {"lat": "-1.1", "city": "Kimbwebwe", "lon": "30.4"}, {"lat": "-1.6333333", "city": "Kimiryi", "lon": "29.9833333"}, {"lat": "-1.4333333", "city": "Kinyambo", "lon": "30.2"}, {"lat": "-1.6486111", "city": "Kinyami", "lon": "30.1327778"}, {"lat": "-1.4775", "city": "Kipuye", "lon": "29.9311111"}, {"lat": "-1.6666667", "city": "Kirwa", "lon": "29.9833333"}, {"lat": "-1.7677778", "city": "Kisiguro", "lon": "30.3838889"}, {"lat": "-1.6333333", "city": "Kiterwe", "lon": "30.25"}, {"lat": "-1.4775", "city": "Kivuye", "lon": "29.9311111"}, {"lat": "-1.4444444", "city": "Kiyombe", "lon": "30.0886111"}, {"lat": "-1.4105556", "city": "Kizinga", "lon": "30.0763889"}, {"lat": "-1.4333333", "city": "Kizirakome", "lon": "30.4"}, {"lat": "-1.8388889", "city": "Kumana", "lon": "30.4138889"}, {"lat": "-1.4444444", "city": "Kyiombe", "lon": "30.0886111"}, {"lat": "-1.6833333", "city": "Kyiri", "lon": "29.9"}, {"lat": "-1.2644444", "city": "Lubilizi", "lon": "30.23"}, {"lat": "-1.2644444", "city": "Lubirizi", "lon": "30.23"}, {"lat": "-1.0822222", "city": "Lugarama", "lon": "30.4372222"}, {"lat": "-1.5833333", "city": "Lutendele", "lon": "30.35"}, {"lat": "-1.45", "city": "Mabare", "lon": "30.1"}, {"lat": "-1.6", "city": "Masogwe", "lon": "29.9666667"}, {"lat": "-1.7422222", "city": "Mbogo", "lon": "30.4416667"}, {"lat": "-1.7", "city": "Mont Buzigi", "lon": "29.95"}, {"lat": "-1.45", "city": "Mont Cyondo", "lon": "30.1166667"}, {"lat": "-1.5166667", "city": "Mont Gatete", "lon": "29.95"}, {"lat": "-1.3", "city": "Mont Ghasheshe", "lon": "30.2166667"}, {"lat": "-1.5833333", "city": "Mont Gishikiri", "lon": "30.1833333"}, {"lat": "-1.5333333", "city": "Mont Kabare", "lon": "30.1833333"}, {"lat": "-1.4666667", "city": "Mont Kakoma", "lon": "30.2166667"}, {"lat": "-1.5833333", "city": "Mont Kalenda", "lon": "29.95"}, {"lat": "-1.7033333", "city": "Mont Kayenzi", "lon": "29.9336111"}, {"lat": "-1.0822222", "city": "Mont Lugarama", "lon": "30.4372222"}, {"lat": "-1.6", "city": "Mont Masogwe", "lon": "29.9666667"}, {"lat": "-1.3327778", "city": "Mont Murama", "lon": "30.3213889"}, {"lat": "-1.4", "city": "Mont Murambi", "lon": "30.1"}, {"lat": "-1.3711111", "city": "Mont Muyumbu", "lon": "30.1583333"}, {"lat": "-1.1719444", "city": "Mont Ndoma", "lon": "30.395"}, {"lat": "-1.5666667", "city": "Mont Neke", "lon": "30.2166667"}, {"lat": "-1.1166667", "city": "Mont Nyamisangi", "lon": "30.3833333"}, {"lat": "-1.6666667", "city": "Mont Nyamiyaga", "lon": "30.1333333"}, {"lat": "-1.4166667", "city": "Mont Nyangara", "lon": "30.15"}, {"lat": "-1.2666667", "city": "Mont Nyaruwanga", "lon": "30.3833333"}, {"lat": "-1.4333333", "city": "Mont Rutoma", "lon": "30.3166667"}, {"lat": "-1.1833333", "city": "Mugakindu", "lon": "30.3"}, {"lat": "-1.6166667", "city": "Mugera", "lon": "30.2666667"}, {"lat": "-1.4436111", "city": "Muhambo", "lon": "30.1686111"}, {"lat": "-1.5166667", "city": "Muhingu", "lon": "30.2833333"}, {"lat": "-1.7344444", "city": "Muhura", "lon": "30.2708333"}, {"lat": "-1.5280556", "city": "Mukarange", "lon": "30.0786111"}, {"lat": "-1.6833333", "city": "Muko", "lon": "29.9"}, {"lat": "-1.7402778", "city": "Mulamoi", "lon": "30.3919444"}, {"lat": "-1.4863889", "city": "Mulindi", "lon": "30.0363889"}, {"lat": "-1.6833333", "city": "Mumatyazo", "lon": "30.15"}, {"lat": "-1.5333333", "city": "Munini", "lon": "30.0666667"}, {"lat": "-1.2833333", "city": "Munsheke", "lon": "30.3666667"}, {"lat": "-1.3327778", "city": "Murama", "lon": "30.3213889"}, {"lat": "-1.4", "city": "Murambi", "lon": "30.1"}, {"lat": "-1.5", "city": "Murore", "lon": "30.0166667"}, {"lat": "-1.4733333", "city": "Murubaya", "lon": "29.9916667"}, {"lat": "-1.5", "city": "Muryorera", "lon": "29.9666667"}, {"lat": "-1.7030556", "city": "Musenyi", "lon": "30.1094444"}, {"lat": "-1.1333333", "city": "Musheri", "lon": "30.3833333"}, {"lat": "-1.65", "city": "Mushongi", "lon": "29.9"}, {"lat": "-1.6333333", "city": "Mutara", "lon": "29.95"}, {"lat": "-1.6166667", "city": "Muti", "lon": "30.2"}, {"lat": "-1.4802778", "city": "Muture", "lon": "30.0241667"}, {"lat": "-1.3711111", "city": "Muvumba", "lon": "30.1583333"}, {"lat": "-1.3711111", "city": "Muyumbu", "lon": "30.1583333"}, {"lat": "-1.6333333", "city": "Mwenya", "lon": "30.2166667"}, {"lat": "-1.1719444", "city": "Ndoma", "lon": "30.395"}, {"lat": "-1.5666667", "city": "Neke", "lon": "30.2166667"}, {"lat": "-1.5447222", "city": "Ngarama", "lon": "30.2422222"}, {"lat": "-1.4536111", "city": "Nkamba", "lon": "30.09"}, {"lat": "-1.4", "city": "Nkana", "lon": "30.12"}, {"lat": "-1.1719444", "city": "Ntoma", "lon": "30.395"}, {"lat": "-1.6", "city": "Nyabichwamba", "lon": "30.25"}, {"lat": "-1.55", "city": "Nyabishambi", "lon": "30.0666667"}, {"lat": "-1.8297222", "city": "Nyabisindu", "lon": "30.3838889"}, {"lat": "-1.5333333", "city": "Nyabugando", "lon": "30.4166667"}, {"lat": "-1.5", "city": "Nyagahita", "lon": "30.2"}, {"lat": "-1.2983333", "city": "Nyagatare", "lon": "30.3219444"}, {"lat": "-1.7977778", "city": "Nyagatugunda", "lon": "30.1752778"}, {"lat": "-1.65", "city": "Nyagitabire", "lon": "30.1833333"}, {"lat": "-1.6333333", "city": "Nyakabungo", "lon": "30.15"}, {"lat": "-1.4386111", "city": "Nyakesha", "lon": "30.0011111"}, {"lat": "-1.4333333", "city": "Nyakingandu", "lon": "30.3333333"}, {"lat": "-1.6152778", "city": "Nyamengo", "lon": "30.315"}, {"lat": "-1.5166667", "city": "Nyamikama", "lon": "30.25"}, {"lat": "-1.4", "city": "Nyamikamba", "lon": "30.2166667"}, {"lat": "-1.65", "city": "Nyamirembe", "lon": "30.35"}, {"lat": "-1.1166667", "city": "Nyamisangi", "lon": "30.3833333"}, {"lat": "-1.6666667", "city": "Nyamiyaga", "lon": "30.1333333"}, {"lat": "-1.6", "city": "Nyanda", "lon": "30.05"}, {"lat": "-1.4166667", "city": "Nyangara", "lon": "30.15"}, {"lat": "-1.4822222", "city": "Nyange", "lon": "30.0691667"}, {"lat": "-1.6", "city": "Nyankenke", "lon": "30.0166667"}, {"lat": "-1.5666667", "city": "Nyarubungu", "lon": "30.25"}, {"lat": "-1.5286111", "city": "Nyarugumba", "lon": "30.4130556"}, {"lat": "-1.6036111", "city": "Nyaruvumu", "lon": "30.08"}, {"lat": "-1.2666667", "city": "Nyaruwanga", "lon": "30.3833333"}, {"lat": "-1.6963889", "city": "Nyundo", "lon": "30.0269444"}, {"lat": "-1.4775", "city": "Plateau Kipuye", "lon": "29.9311111"}, {"lat": "-1.3", "city": "Rekisugi", "lon": "30.2333333"}, {"lat": "-1.4833333", "city": "Rubungu", "lon": "30.35"}, {"lat": "-1.6666667", "city": "Rugogwe", "lon": "30.3"}, {"lat": "-1.4", "city": "Ruinihingo", "lon": "30.25"}, {"lat": "-1.3361111", "city": "Rukomo", "lon": "30.2708333"}, {"lat": "-1.5666667", "city": "Rusekera", "lon": "29.95"}, {"lat": "-1.4666667", "city": "Rushebeya", "lon": "30.1166667"}, {"lat": "-1.2833333", "city": "Rutare", "lon": "30.3"}, {"lat": "-1.4333333", "city": "Rutoma", "lon": "30.3166667"}, {"lat": "-1.35", "city": "Ruyaraka", "lon": "30.3833333"}, {"lat": "-1.5872222", "city": "Rwasama", "lon": "30.0744444"}, {"lat": "-1.3333333", "city": "Rwegenya", "lon": "30.3"}, {"lat": "-1.2125", "city": "Rwempasha", "lon": "30.2986111"}, {"lat": "-1.3930556", "city": "Rwenjara", "lon": "30.5136111"}, {"lat": "-1.6", "city": "Rwimbogo", "lon": "30.3166667"}, {"lat": "-1.8166667", "city": "Rwimitereri", "lon": "30.3472222"}, {"lat": "-1.65", "city": "Sayo", "lon": "30.0"}, {"lat": "-1.5272222", "city": "Shangasha", "lon": "30.0708333"}, {"lat": "-1.32", "city": "Shonga", "lon": "30.1791667"}, {"lat": "-1.3", "city": "Shuti", "lon": "30.3"}, {"lat": "-1.2858333", "city": "Tabagwe", "lon": "30.2066667"}, {"lat": "-1.3833333", "city": "Tovu", "lon": "30.1166667"}, {"lat": "-1.2336111", "city": "Tshanzozo", "lon": "30.3008333"}, {"lat": "-1.6", "city": "Tsheya", "lon": "30.1166667"}, {"lat": "-1.45", "city": "Tshyondo", "lon": "30.1166667"}, {"lat": "-1.6944444", "city": "Tumba", "lon": "29.9483333"}], "03": [{"lat": "-2.4333333", "city": "Banda", "lon": "29.1833333"}, {"lat": "-2.4833333", "city": "Bigutu", "lon": "28.9833333"}, {"lat": "-2.4333333", "city": "Biguzi", "lon": "28.9666667"}, {"lat": "-2.5411111", "city": "Biru", "lon": "28.9186111"}, {"lat": "-2.4", "city": "Bitare", "lon": "29.05"}, {"lat": "-2.6469444", "city": "Bugarama", "lon": "29.0094444"}, {"lat": "-2.4333333", "city": "Bugungu", "lon": "28.9833333"}, {"lat": "-2.3333333", "city": "Buhokoro", "lon": "29.0166667"}, {"lat": "-2.45", "city": "Bumazi", "lon": "29.0"}, {"lat": "-2.5833333", "city": "Bunyereri", "lon": "29.0333333"}, {"lat": "-2.6", "city": "Busekera", "lon": "28.9166667"}, {"lat": "-2.65", "city": "Butambamo", "lon": "28.95"}, {"lat": "-2.3333333", "city": "Butambara", "lon": "29.0872222"}, {"lat": "-2.4833333", "city": "Colline Bigutu", "lon": "28.9833333"}, {"lat": "-2.4333333", "city": "Colline Biguzi", "lon": "28.9666667"}, {"lat": "-2.4", "city": "Colline Bitare", "lon": "29.05"}, {"lat": "-2.4333333", "city": "Colline Bugungu", "lon": "28.9833333"}, {"lat": "-2.3333333", "city": "Colline Buhokoro", "lon": "29.0166667"}, {"lat": "-2.45", "city": "Colline Bumazi", "lon": "29.0"}, {"lat": "-2.5833333", "city": "Colline Bunyereri", "lon": "29.0333333"}, {"lat": "-2.6", "city": "Colline Busekera", "lon": "28.9166667"}, {"lat": "-2.65", "city": "Colline Butambamo", "lon": "28.95"}, {"lat": "-2.3333333", "city": "Colline Butambara", "lon": "29.0872222"}, {"lat": "-2.3166667", "city": "Colline Cyamuti", "lon": "29.0166667"}, {"lat": "-2.55", "city": "Colline Cyato", "lon": "28.9333333"}, {"lat": "-2.5333333", "city": "Colline Cyete", "lon": "28.8833333"}, {"lat": "-2.2833333", "city": "Colline Cyimpundu", "lon": "29.2166667"}, {"lat": "-2.4166667", "city": "Colline Gabiro", "lon": "29.0333333"}, {"lat": "-2.3666667", "city": "Colline Gafuba", "lon": "29.0166667"}, {"lat": "-2.3927778", "city": "Colline Gafunza", "lon": "29.0044444"}, {"lat": "-2.6166667", "city": "Colline Gakoni", "lon": "29.0166667"}, {"lat": "-2.55", "city": "Colline Gasambu", "lon": "28.9"}, {"lat": "-2.6", "city": "Colline Gashonga", "lon": "28.95"}, {"lat": "-2.5166667", "city": "Colline Gihango", "lon": "28.9"}, {"lat": "-2.4666667", "city": "Colline Giheke", "lon": "28.9666667"}, {"lat": "-2.45", "city": "Colline Gihinga", "lon": "29.0166667"}, {"lat": "-2.6", "city": "Colline Gisagara", "lon": "28.9"}, {"lat": "-2.6833333", "city": "Colline Gisongwe", "lon": "28.9833333"}, {"lat": "-2.5833333", "city": "Colline Gitambi", "lon": "28.9833333"}, {"lat": "-2.3166667", "city": "Colline Gitongo", "lon": "29.15"}, {"lat": "-2.7166667", "city": "Colline Gombaniro", "lon": "29.0333333"}, {"lat": "-2.4333333", "city": "Colline Ibanda", "lon": "29.1833333"}, {"lat": "-2.3333333", "city": "Colline Ityazo", "lon": "29.1166667"}, {"lat": "-2.5666667", "city": "Colline Kaboza", "lon": "28.9666667"}, {"lat": "-2.4166667", "city": "Colline Kabutembo", "lon": "28.9166667"}, {"lat": "-2.2833333", "city": "Colline Kagunga", "lon": "29.2333333"}, {"lat": "-2.5230556", "city": "Colline Kalengera", "lon": "29.0358333"}, {"lat": "-2.6333333", "city": "Colline Kambogo", "lon": "29.0166667"}, {"lat": "-2.6333333", "city": "Colline Kibari", "lon": "29.0"}, {"lat": "-2.4833333", "city": "Colline Kibazi", "lon": "29.0666667"}, {"lat": "-2.3116667", "city": "Colline Kirambo", "lon": "29.1363889"}, {"lat": "-2.6333333", "city": "Colline Kiranga", "lon": "28.9166667"}, {"lat": "-2.5333333", "city": "Colline Kisunzu", "lon": "28.9333333"}, {"lat": "-2.3", "city": "Colline Macuba", "lon": "29.2"}, {"lat": "-2.3833333", "city": "Colline Mpage", "lon": "29.15"}, {"lat": "-2.5166667", "city": "Colline Mubori", "lon": "29.0166667"}, {"lat": "-2.35", "city": "Colline Mubumbano", "lon": "29.1"}, {"lat": "-2.3333333", "city": "Colline Mugomba", "lon": "29.2666667"}, {"lat": "-2.4666667", "city": "Colline Muhari", "lon": "28.9"}, {"lat": "-2.6333333", "city": "Colline Muhehwe", "lon": "28.9666667"}, {"lat": "-2.4333333", "city": "Colline Muko", "lon": "29.05"}, {"lat": "-2.35", "city": "Colline Mukoma", "lon": "29.0166667"}, {"lat": "-2.5666667", "city": "Colline Munyinya", "lon": "28.95"}, {"lat": "-2.4666667", "city": "Colline Munyove", "lon": "28.9333333"}, {"lat": "-2.2833333", "city": "Colline Muramba", "lon": "29.1666667"}, {"lat": "-2.5", "city": "Colline Murangi", "lon": "28.9166667"}, {"lat": "-2.3", "city": "Colline Muraza", "lon": "29.15"}, {"lat": "-2.5666667", "city": "Colline Murehe", "lon": "28.9166667"}, {"lat": "-2.3833333", "city": "Colline Murito", "lon": "28.9833333"}, {"lat": "-2.5166667", "city": "Colline Mururu", "lon": "28.8666667"}, {"lat": "-2.45", "city": "Colline Musoro", "lon": "28.9666667"}, {"lat": "-2.5397222", "city": "Colline Mutimasi", "lon": "28.9402778"}, {"lat": "-2.2833333", "city": "Colline Mutongo", "lon": "29.2"}, {"lat": "-2.3833333", "city": "Colline Mutusa", "lon": "29.0833333"}, {"lat": "-2.6", "city": "Colline Mwegera", "lon": "29.0666667"}, {"lat": "-2.4166667", "city": "Colline Nkanka", "lon": "28.9333333"}, {"lat": "-2.5166667", "city": "Colline Nkurubuye", "lon": "28.9666667"}, {"lat": "-2.3333333", "city": "Colline Nyabiteke", "lon": "29.0333333"}, {"lat": "-2.5694444", "city": "Colline Nyakabuye", "lon": "29.0280556"}, {"lat": "-2.5166667", "city": "Colline Nyakanyinya", "lon": "28.9333333"}, {"lat": "-2.5463889", "city": "Colline Nyamagana", "lon": "28.8991667"}, {"lat": "-2.4", "city": "Colline Nyamugari", "lon": "29.0"}, {"lat": "-2.55", "city": "Colline Nyantomvu", "lon": "29.05"}, {"lat": "-2.5", "city": "Colline Nyarushishi", "lon": "28.95"}, {"lat": "-2.65", "city": "Colline Nyenje", "lon": "28.9"}, {"lat": "-2.6666667", "city": "Colline Nzahaha", "lon": "28.9666667"}, {"lat": "-2.5833333", "city": "Colline Rango", "lon": "28.9166667"}, {"lat": "-2.3666667", "city": "Colline Remera", "lon": "29.1333333"}, {"lat": "-2.3166667", "city": "Colline Rubona", "lon": "29.25"}, {"lat": "-2.3333333", "city": "Colline Rudaga", "lon": "29.25"}, {"lat": "-2.5038889", "city": "Colline Ruganda", "lon": "28.9166667"}, {"lat": "-2.4", "city": "Colline Rugaragara", "lon": "28.9333333"}, {"lat": "-2.6666667", "city": "Colline Ruhoko", "lon": "28.95"}, {"lat": "-2.5133333", "city": "Colline Rurama", "lon": "29.0166667"}, {"lat": "-2.5666667", "city": "Colline Ruyonga", "lon": "28.9333333"}, {"lat": "-2.4833333", "city": "Colline Rwabidege", "lon": "29.05"}, {"lat": "-2.4333333", "city": "Colline Rwahi", "lon": "28.9333333"}, {"lat": "-2.4897222", "city": "Colline Rwamiko", "lon": "28.9508333"}, {"lat": "-2.4833333", "city": "Colline Rwinkuba", "lon": "29.0166667"}, {"lat": "-2.4333333", "city": "Colline Rwumba", "lon": "29.0666667"}, {"lat": "-2.6202778", "city": "Colline Shara", "lon": "29.0186111"}, {"lat": "-2.5333333", "city": "Colline Winteko", "lon": "28.9"}, {"lat": "-2.3166667", "city": "Cyamuti", "lon": "29.0166667"}, {"lat": "-2.4833333", "city": "Cyangugu", "lon": "28.8966667"}, {"lat": "-2.55", "city": "Cyato", "lon": "28.9333333"}, {"lat": "-2.3747222", "city": "Cyesha", "lon": "29.0905556"}, {"lat": "-2.5333333", "city": "Cyete", "lon": "28.8833333"}, {"lat": "-2.5338889", "city": "Cyimbogo", "lon": "28.8938889"}, {"lat": "-2.2833333", "city": "Cyimpundu", "lon": "29.2166667"}, {"lat": "-2.4166667", "city": "Gabiro", "lon": "29.0333333"}, {"lat": "-2.3666667", "city": "Gafuba", "lon": "29.0166667"}, {"lat": "-2.3927778", "city": "Gafunzo", "lon": "29.0044444"}, {"lat": "-2.6166667", "city": "Gakoni", "lon": "29.0166667"}, {"lat": "-2.55", "city": "Gasambu", "lon": "28.9"}, {"lat": "-2.6", "city": "Gashonga", "lon": "28.95"}, {"lat": "-2.3047222", "city": "Gatare", "lon": "29.2088889"}, {"lat": "-2.5166667", "city": "Gihango", "lon": "28.9"}, {"lat": "-2.4666667", "city": "Giheke", "lon": "28.9666667"}, {"lat": "-2.45", "city": "Gihinga", "lon": "29.0166667"}, {"lat": "-2.6", "city": "Gisagara", "lon": "28.9"}, {"lat": "-2.6163889", "city": "Gishoma", "lon": "28.94"}, {"lat": "-2.6833333", "city": "Gisongwe", "lon": "28.9833333"}, {"lat": "-2.4794444", "city": "Gisuma", "lon": "28.9244444"}, {"lat": "-2.5833333", "city": "Gitambi", "lon": "28.9833333"}, {"lat": "-2.3166667", "city": "Gitongo", "lon": "29.15"}, {"lat": "-2.7166667", "city": "Gombaniro", "lon": "29.0333333"}, {"lat": "-2.4333333", "city": "Ibanda", "lon": "29.1833333"}, {"lat": "-2.3333333", "city": "Ityazo", "lon": "29.1166667"}, {"lat": "-2.5666667", "city": "Kaboza", "lon": "28.9666667"}, {"lat": "-2.4166667", "city": "Kabutembo", "lon": "28.9166667"}, {"lat": "-2.3433333", "city": "Kagano", "lon": "29.1033333"}, {"lat": "-2.2833333", "city": "Kagunga", "lon": "29.2333333"}, {"lat": "-2.6333333", "city": "Kambogo", "lon": "29.0166667"}, {"lat": "-2.4377778", "city": "Kamembe", "lon": "28.9222222"}, {"lat": "-2.5230556", "city": "Karengera", "lon": "29.0358333"}, {"lat": "-2.6333333", "city": "Kibari", "lon": "29.0"}, {"lat": "-2.4833333", "city": "Kibasi", "lon": "29.0666667"}, {"lat": "-2.4833333", "city": "Kibazi", "lon": "29.0666667"}, {"lat": "-2.25", "city": "Kilimbi", "lon": "29.1833333"}, {"lat": "-2.3116667", "city": "Kirambo", "lon": "29.1363889"}, {"lat": "-2.6333333", "city": "Kiranga", "lon": "28.9166667"}, {"lat": "-2.5333333", "city": "Kisunzu", "lon": "28.9333333"}, {"lat": "-2.5038889", "city": "Luganda", "lon": "28.9166667"}, {"lat": "-2.5166667", "city": "Luhonge", "lon": "29.3166667"}, {"lat": "-2.3", "city": "Machuba", "lon": "29.2"}, {"lat": "-2.3", "city": "Macuba", "lon": "29.2"}, {"lat": "-2.5166667", "city": "Mont Luhonge", "lon": "29.3166667"}, {"lat": "-2.3833333", "city": "Mpage", "lon": "29.15"}, {"lat": "-2.5166667", "city": "Mubori", "lon": "29.0166667"}, {"lat": "-2.35", "city": "Mubumbano", "lon": "29.1"}, {"lat": "-2.3333333", "city": "Mugomba", "lon": "29.2666667"}, {"lat": "-2.4666667", "city": "Muhari", "lon": "28.9"}, {"lat": "-2.6333333", "city": "Muhehwe", "lon": "28.9666667"}, {"lat": "-2.35", "city": "Mukoma", "lon": "29.0166667"}, {"lat": "-2.4333333", "city": "Muko", "lon": "29.05"}, {"lat": "-2.5666667", "city": "Munyinya", "lon": "28.95"}, {"lat": "-2.4666667", "city": "Munyove", "lon": "28.9333333"}, {"lat": "-2.2833333", "city": "Muramba", "lon": "29.1666667"}, {"lat": "-2.5", "city": "Murangi", "lon": "28.9166667"}, {"lat": "-2.3", "city": "Muraza", "lon": "29.15"}, {"lat": "-2.5666667", "city": "Murehe", "lon": "28.9166667"}, {"lat": "-2.3833333", "city": "Murito", "lon": "28.9833333"}, {"lat": "-2.5166667", "city": "Mururu", "lon": "28.8666667"}, {"lat": "-2.45", "city": "Musoro", "lon": "28.9666667"}, {"lat": "-2.5397222", "city": "Mutimasi", "lon": "28.9402778"}, {"lat": "-2.5397222", "city": "Mutimazi", "lon": "28.9402778"}, {"lat": "-2.2833333", "city": "Mutongo", "lon": "29.2"}, {"lat": "-2.3833333", "city": "Mutusa", "lon": "29.0833333"}, {"lat": "-2.3833333", "city": "Mutuza", "lon": "29.0833333"}, {"lat": "-2.6", "city": "Mwegera", "lon": "29.0666667"}, {"lat": "-2.3833333", "city": "Mwito", "lon": "28.9833333"}, {"lat": "-2.4166667", "city": "Nkanka", "lon": "28.9333333"}, {"lat": "-2.5166667", "city": "Nkurubuye", "lon": "28.9666667"}, {"lat": "-2.3333333", "city": "Nyabiteke", "lon": "29.0333333"}, {"lat": "-2.5694444", "city": "Nyakabuye", "lon": "29.0280556"}, {"lat": "-2.5166667", "city": "Nyakanyinya", "lon": "28.9333333"}, {"lat": "-2.5463889", "city": "Nyamagana", "lon": "28.8991667"}, {"lat": "-2.4", "city": "Nyamugari", "lon": "29.0"}, {"lat": "-2.55", "city": "Nyantomvu", "lon": "29.05"}, {"lat": "-2.5", "city": "Nyarushishi", "lon": "28.95"}, {"lat": "-2.65", "city": "Nyenje", "lon": "28.9"}, {"lat": "-2.6666667", "city": "Nzahaha", "lon": "28.9666667"}, {"lat": "-2.5833333", "city": "Rango", "lon": "28.9166667"}, {"lat": "-2.3666667", "city": "Remera", "lon": "29.1333333"}, {"lat": "-2.3166667", "city": "Rubona", "lon": "29.25"}, {"lat": "-2.3333333", "city": "Rudaga", "lon": "29.25"}, {"lat": "-2.5038889", "city": "Ruganda", "lon": "28.9166667"}, {"lat": "-2.4", "city": "Rugaragara", "lon": "28.9333333"}, {"lat": "-2.6666667", "city": "Ruhoko", "lon": "28.95"}, {"lat": "-2.5133333", "city": "Rurama", "lon": "29.0166667"}, {"lat": "-2.5666667", "city": "Ruyonga", "lon": "28.9333333"}, {"lat": "-2.4833333", "city": "Rwabidege", "lon": "29.05"}, {"lat": "-2.4333333", "city": "Rwahi", "lon": "28.9333333"}, {"lat": "-2.4897222", "city": "Rwamiko", "lon": "28.9508333"}, {"lat": "-2.3747222", "city": "Rwesero", "lon": "29.0905556"}, {"lat": "-2.4833333", "city": "Rwinkuba", "lon": "29.0166667"}, {"lat": "-2.4333333", "city": "Rwumba", "lon": "29.0666667"}, {"lat": "-2.4833333", "city": "Shangugu", "lon": "28.8966667"}, {"lat": "-2.6202778", "city": "Shara", "lon": "29.0186111"}, {"lat": "-2.55", "city": "Tshato", "lon": "28.9333333"}, {"lat": "-2.5333333", "city": "Winteko", "lon": "28.9"}], "01": [{"lat": "-2.5972222", "city": "Astrida", "lon": "29.7388889"}, {"lat": "-2.6833333", "city": "Bitare", "lon": "29.65"}, {"lat": "-2.4333333", "city": "Bugali", "lon": "29.8833333"}, {"lat": "-2.4333333", "city": "Buhimba", "lon": "29.7666667"}, {"lat": "-2.7", "city": "Bunga", "lon": "29.65"}, {"lat": "-2.3166667", "city": "Burama", "lon": "29.8166667"}, {"lat": "-2.5966667", "city": "Butare", "lon": "29.7394444"}, {"lat": "-2.6833333", "city": "Buvumu", "lon": "29.7333333"}, {"lat": "-2.4666667", "city": "Churusi", "lon": "29.85"}, {"lat": "-2.7", "city": "Chyuna", "lon": "29.6"}, {"lat": "-2.6833333", "city": "Colline Bitare", "lon": "29.65"}, {"lat": "-2.4333333", "city": "Colline Bugali", "lon": "29.8833333"}, {"lat": "-2.4333333", "city": "Colline Buhimba", "lon": "29.7666667"}, {"lat": "-2.7", "city": "Colline Bunga", "lon": "29.65"}, {"lat": "-2.3166667", "city": "Colline Burama", "lon": "29.8166667"}, {"lat": "-2.6833333", "city": "Colline Buvumu", "lon": "29.7333333"}, {"lat": "-2.4666667", "city": "Colline Churusi", "lon": "29.85"}, {"lat": "-2.7", "city": "Colline Chyuna", "lon": "29.6"}, {"lat": "-2.6280556", "city": "Colline Cyarwa", "lon": "29.7519444"}, {"lat": "-2.4", "city": "Colline Cyibumba", "lon": "29.9666667"}, {"lat": "-2.4", "city": "Colline Cyotomakara", "lon": "29.85"}, {"lat": "-2.3666667", "city": "Colline Gahondo", "lon": "29.7666667"}, {"lat": "-2.75", "city": "Colline Gatete", "lon": "29.7666667"}, {"lat": "-2.3833333", "city": "Colline Gatonde", "lon": "29.85"}, {"lat": "-2.6", "city": "Colline Gisanze", "lon": "29.8"}, {"lat": "-2.4166667", "city": "Colline Gisayura", "lon": "29.9"}, {"lat": "-2.3833333", "city": "Colline Gishike", "lon": "29.75"}, {"lat": "-2.4", "city": "Colline Gitovu", "lon": "29.8"}, {"lat": "-2.4333333", "city": "Colline Kagunga", "lon": "29.8666667"}, {"lat": "-2.6130556", "city": "Colline Karama", "lon": "29.6377778"}, {"lat": "-2.7141667", "city": "Colline Kibangu", "lon": "29.65"}, {"lat": "-2.3666667", "city": "Colline Kibinja", "lon": "29.7833333"}, {"lat": "-2.3", "city": "Colline Kigali", "lon": "29.95"}, {"lat": "-2.735", "city": "Colline Kigembe", "lon": "29.695"}, {"lat": "-2.6166667", "city": "Colline Kilarambogo", "lon": "29.9"}, {"lat": "-2.3166667", "city": "Colline Kinyoni", "lon": "29.8333333"}, {"lat": "-2.7333333", "city": "Colline Kiyonza", "lon": "29.7"}, {"lat": "-2.6", "city": "Colline Kuwingugu", "lon": "29.4333333"}, {"lat": "-2.6833333", "city": "Colline Linganwe", "lon": "29.7833333"}, {"lat": "-2.7333333", "city": "Colline Magi", "lon": "29.8333333"}, {"lat": "-2.6666667", "city": "Colline Maliba", "lon": "29.6333333"}, {"lat": "-2.3333333", "city": "Colline Matara", "lon": "29.9166667"}, {"lat": "-2.5258333", "city": "Colline Mbazi", "lon": "29.7316667"}, {"lat": "-2.6666667", "city": "Colline Mubumbano", "lon": "29.7333333"}, {"lat": "-2.4", "city": "Colline Muhero", "lon": "29.9333333"}, {"lat": "-2.7166667", "city": "Colline Murama", "lon": "29.7"}, {"lat": "-2.35", "city": "Colline Mushirarungu", "lon": "29.7166667"}, {"lat": "-2.3166667", "city": "Colline Mutende", "lon": "29.8"}, {"lat": "-2.3833333", "city": "Colline Mutima", "lon": "29.8833333"}, {"lat": "-2.3447222", "city": "Colline Muyira", "lon": "29.8777778"}, {"lat": "-2.6333333", "city": "Colline Muzenga", "lon": "29.7666667"}, {"lat": "-2.4833333", "city": "Colline Mwijanda", "lon": "29.6666667"}, {"lat": "-2.4166667", "city": "Colline Ndago", "lon": "29.8833333"}, {"lat": "-2.5852778", "city": "Colline Ngoma", "lon": "29.7416667"}, {"lat": "-2.7833333", "city": "Colline Nkanda", "lon": "29.4833333"}, {"lat": "-2.35", "city": "Colline Nyabisindu", "lon": "29.6666667"}, {"lat": "-2.7666667", "city": "Colline Nyagisozi", "lon": "29.6166667"}, {"lat": "-2.7666667", "city": "Colline Nyakabanda", "lon": "29.6833333"}, {"lat": "-2.6333333", "city": "Colline Nyakibanda", "lon": "29.6833333"}, {"lat": "-2.5833333", "city": "Colline Nyanza", "lon": "29.7166667"}, {"lat": "-2.6827778", "city": "Colline Nyaruhengeri", "lon": "29.7741667"}, {"lat": "-2.35", "city": "Colline Nyarusange", "lon": "29.6666667"}, {"lat": "-2.3166667", "city": "Colline Rubona", "lon": "29.9333333"}, {"lat": "-2.5833333", "city": "Colline Rukira", "lon": "29.7"}, {"lat": "-2.4333333", "city": "Colline Ruyenzi", "lon": "29.8333333"}, {"lat": "-2.35", "city": "Colline Rwabicuma", "lon": "29.7"}, {"lat": "-2.7", "city": "Colline Saga", "lon": "29.8666667"}, {"lat": "-2.5333333", "city": "Colline Sanga", "lon": "29.6333333"}, {"lat": "-2.6666667", "city": "Colline Shahara", "lon": "29.7666667"}, {"lat": "-2.4833333", "city": "Colline Sheke", "lon": "29.7166667"}, {"lat": "-2.5419444", "city": "Colline Shyanda", "lon": "29.7927778"}, {"lat": "-2.5555556", "city": "Colline Zivu", "lon": "29.8008333"}, {"lat": "-2.6280556", "city": "Cyarwa", "lon": "29.7519444"}, {"lat": "-2.4", "city": "Cyibumba", "lon": "29.9666667"}, {"lat": "-2.4", "city": "Cyotomakara", "lon": "29.85"}, {"lat": "-2.3666667", "city": "Gahondo", "lon": "29.7666667"}, {"lat": "-2.75", "city": "Gatete", "lon": "29.7666667"}, {"lat": "-2.3833333", "city": "Gatonde", "lon": "29.85"}, {"lat": "-2.6", "city": "Gisanze", "lon": "29.8"}, {"lat": "-2.4166667", "city": "Gisayura", "lon": "29.9"}, {"lat": "-2.6605556", "city": "Gishamvu", "lon": "29.6902778"}, {"lat": "-2.3833333", "city": "Gishike", "lon": "29.75"}, {"lat": "-2.4", "city": "Gitovu", "lon": "29.8"}, {"lat": "-2.5808333", "city": "Huye", "lon": "29.7116667"}, {"lat": "-2.4333333", "city": "Kagunga", "lon": "29.8666667"}, {"lat": "-2.6130556", "city": "Karama", "lon": "29.6377778"}, {"lat": "-2.7141667", "city": "Kibangu", "lon": "29.65"}, {"lat": "-2.7322222", "city": "Kibayi", "lon": "29.8555556"}, {"lat": "-2.735", "city": "Kibembe", "lon": "29.695"}, {"lat": "-2.3666667", "city": "Kibinja", "lon": "29.7833333"}, {"lat": "-2.3", "city": "Kigali", "lon": "29.95"}, {"lat": "-2.735", "city": "Kigembe", "lon": "29.695"}, {"lat": "-2.6166667", "city": "Kilarambogo", "lon": "29.9"}, {"lat": "-2.3166667", "city": "Kinyoni", "lon": "29.8333333"}, {"lat": "-2.7333333", "city": "Kiyonza", "lon": "29.7"}, {"lat": "-2.6419444", "city": "Kurukara", "lon": "29.6538889"}, {"lat": "-2.6", "city": "Kuwingugu", "lon": "29.4333333"}, {"lat": "-2.6833333", "city": "Linganwe", "lon": "29.7833333"}, {"lat": "-2.4236111", "city": "Lusitare", "lon": "29.7752778"}, {"lat": "-2.7333333", "city": "Magi", "lon": "29.8333333"}, {"lat": "-2.6666667", "city": "Maliba", "lon": "29.6333333"}, {"lat": "-2.515", "city": "Maraba", "lon": "29.6797222"}, {"lat": "-2.3333333", "city": "Matara", "lon": "29.9166667"}, {"lat": "-2.5258333", "city": "Mbazi", "lon": "29.7316667"}, {"lat": "-2.6419444", "city": "Mont Kurukara", "lon": "29.6538889"}, {"lat": "-2.5002778", "city": "Mont Mugusa", "lon": "29.8491667"}, {"lat": "-2.5333333", "city": "Mont Mwulire", "lon": "29.75"}, {"lat": "-2.7344444", "city": "Mont Nyakisu", "lon": "29.6402778"}, {"lat": "-2.65", "city": "Mont Shori", "lon": "29.7166667"}, {"lat": "-2.6666667", "city": "Mubumbano", "lon": "29.7333333"}, {"lat": "-2.6694444", "city": "Muganza", "lon": "29.8472222"}, {"lat": "-2.5002778", "city": "Mugusa", "lon": "29.8491667"}, {"lat": "-2.4", "city": "Muhero", "lon": "29.9333333"}, {"lat": "-2.5333333", "city": "Mulire", "lon": "29.75"}, {"lat": "-2.7166667", "city": "Murama", "lon": "29.7"}, {"lat": "-2.6333333", "city": "Musenge", "lon": "29.7666667"}, {"lat": "-2.35", "city": "Mushirarungu", "lon": "29.7166667"}, {"lat": "-2.3166667", "city": "Mutende", "lon": "29.8"}, {"lat": "-2.3833333", "city": "Mutima", "lon": "29.8833333"}, {"lat": "-2.4647222", "city": "Muyaga", "lon": "29.9233333"}, {"lat": "-2.3447222", "city": "Muyira", "lon": "29.8777778"}, {"lat": "-2.6333333", "city": "Muzenga", "lon": "29.7666667"}, {"lat": "-2.4833333", "city": "Mwijanda", "lon": "29.6666667"}, {"lat": "-2.5333333", "city": "Mwulira", "lon": "29.75"}, {"lat": "-2.5333333", "city": "Mwulire", "lon": "29.75"}, {"lat": "-2.4166667", "city": "Ndago", "lon": "29.8833333"}, {"lat": "-2.6033333", "city": "Ndora", "lon": "29.8336111"}, {"lat": "-2.5852778", "city": "Ngoma", "lon": "29.7416667"}, {"lat": "-2.7833333", "city": "Nkanda", "lon": "29.4833333"}, {"lat": "-2.4294444", "city": "Ntyazo", "lon": "29.8830556"}, {"lat": "-2.35", "city": "Nyabisindu", "lon": "29.6666667"}, {"lat": "-2.7666667", "city": "Nyagisozi", "lon": "29.6166667"}, {"lat": "-2.7666667", "city": "Nyakabanda", "lon": "29.6833333"}, {"lat": "-2.6333333", "city": "Nyakibanda", "lon": "29.6833333"}, {"lat": "-2.7666667", "city": "Nyakisosi", "lon": "29.6166667"}, {"lat": "-2.7344444", "city": "Nyakizu", "lon": "29.6402778"}, {"lat": "-2.5833333", "city": "Nyanza", "lon": "29.7166667"}, {"lat": "-2.6827778", "city": "Nyaruhengeli", "lon": "29.7741667"}, {"lat": "-2.6827778", "city": "Nyarukengeri", "lon": "29.7741667"}, {"lat": "-2.3166667", "city": "Rubona", "lon": "29.9333333"}, {"lat": "-2.4725", "city": "Ruhashya", "lon": "29.7311111"}, {"lat": "-2.5833333", "city": "Rukira", "lon": "29.7"}, {"lat": "-2.6422222", "city": "Runyinya", "lon": "29.6075"}, {"lat": "-2.4236111", "city": "Rusatira", "lon": "29.7752778"}, {"lat": "-2.4333333", "city": "Ruyenzi", "lon": "29.8333333"}, {"lat": "-2.35", "city": "Rwabicuma", "lon": "29.7"}, {"lat": "-2.7", "city": "Saga", "lon": "29.8666667"}, {"lat": "-2.5333333", "city": "Sanga", "lon": "29.6333333"}, {"lat": "-2.6666667", "city": "Shahara", "lon": "29.7666667"}, {"lat": "-2.4833333", "city": "Sheke", "lon": "29.7166667"}, {"lat": "-2.65", "city": "Shori", "lon": "29.7166667"}, {"lat": "-2.5419444", "city": "Shyanda", "lon": "29.7927778"}, {"lat": "-2.5555556", "city": "Zivu", "lon": "29.8008333"}], "06": [{"lat": "-2.0166667", "city": "Bugobagoba", "lon": "29.8833333"}, {"lat": "-1.9977778", "city": "Bulinga", "lon": "29.6972222"}, {"lat": "-2.2833333", "city": "Colline Cyumba", "lon": "29.6833333"}, {"lat": "-2.0666667", "city": "Colline Gitongati", "lon": "29.7333333"}, {"lat": "-2.1666667", "city": "Colline Jenda", "lon": "29.95"}, {"lat": "-2.0666667", "city": "Colline Kabanda", "lon": "29.7"}, {"lat": "-2.2", "city": "Colline Kabuga", "lon": "29.6666667"}, {"lat": "-2.2166667", "city": "Colline Kavumu", "lon": "29.6166667"}, {"lat": "-1.9666667", "city": "Colline Kibanza", "lon": "29.8833333"}, {"lat": "-2.2333333", "city": "Colline Kinyanja", "lon": "29.6166667"}, {"lat": "-2.2666667", "city": "Colline Mareba", "lon": "29.85"}, {"lat": "-2.2166667", "city": "Colline Mayobe", "lon": "29.5666667"}, {"lat": "-2.2333333", "city": "Colline Mbuye", "lon": "29.65"}, {"lat": "-2.3", "city": "Colline Mpanga", "lon": "29.7333333"}, {"lat": "-2.1166667", "city": "Colline Mpare", "lon": "29.6833333"}, {"lat": "-1.8166667", "city": "Colline Mugunga", "lon": "29.75"}, {"lat": "-2.25", "city": "Colline Muhoza", "lon": "29.65"}, {"lat": "-2.1166667", "city": "Colline Musumba", "lon": "29.8166667"}, {"lat": "-2.2666667", "city": "Colline Mwanabili", "lon": "29.7666667"}, {"lat": "-2.25", "city": "Colline Mwumba", "lon": "29.5833333"}, {"lat": "-2.3", "city": "Colline Nomba", "lon": "29.8166667"}, {"lat": "-2.2666667", "city": "Colline Nyakabu", "lon": "29.7"}, {"lat": "-2.2166667", "city": "Colline Nyakabumgo", "lon": "29.8666667"}, {"lat": "-2.3166667", "city": "Colline Nyarurama", "lon": "29.65"}, {"lat": "-2.15", "city": "Colline Nyunzwe", "lon": "29.65"}, {"lat": "-2.0166667", "city": "Colline Rugobagoba", "lon": "29.8833333"}, {"lat": "-2.0166667", "city": "Colline Rugobasoba", "lon": "29.8833333"}, {"lat": "-2.3166667", "city": "Colline Runyanga", "lon": "29.7"}, {"lat": "-2.2666667", "city": "Colline Rwoga", "lon": "29.7833333"}, {"lat": "-2.3", "city": "Colline Sholi", "lon": "29.7833333"}, {"lat": "-2.2202778", "city": "Colline Tambwe", "lon": "29.7991667"}, {"lat": "-2.2833333", "city": "Cyumba", "lon": "29.6833333"}, {"lat": "-2.1666667", "city": "Genda", "lon": "29.95"}, {"lat": "-2.0744444", "city": "Gitarama", "lon": "29.7566667"}, {"lat": "-2.0666667", "city": "Gitongati", "lon": "29.7333333"}, {"lat": "-2.1666667", "city": "Jenda", "lon": "29.95"}, {"lat": "-2.0666667", "city": "Kabanda", "lon": "29.7"}, {"lat": "-2.2", "city": "Kabuga", "lon": "29.6666667"}, {"lat": "-2.2166667", "city": "Kavumu", "lon": "29.6166667"}, {"lat": "-1.8986111", "city": "Kayenzi", "lon": "29.85"}, {"lat": "-1.9666667", "city": "Kibanza", "lon": "29.8833333"}, {"lat": "-2.2575", "city": "Kigoma", "lon": "29.7911111"}, {"lat": "-2.2333333", "city": "Kinyanja", "lon": "29.6166667"}, {"lat": "-2.0666667", "city": "Kitongati", "lon": "29.7333333"}, {"lat": "-2.2666667", "city": "Mareba", "lon": "29.85"}, {"lat": "-2.2294444", "city": "Masango", "lon": "29.65"}, {"lat": "-2.1", "city": "Mayaga", "lon": "29.9833333"}, {"lat": "-2.2166667", "city": "Mayobe", "lon": "29.5666667"}, {"lat": "-2.2333333", "city": "Mbuye", "lon": "29.65"}, {"lat": "-2.3", "city": "Mpanga", "lon": "29.7333333"}, {"lat": "-2.1166667", "city": "Mpare", "lon": "29.6833333"}, {"lat": "-2.1027778", "city": "Mugina", "lon": "29.9525"}, {"lat": "-1.8166667", "city": "Mugunga", "lon": "29.75"}, {"lat": "-2.25", "city": "Muhoza", "lon": "29.65"}, {"lat": "-2.16", "city": "Mukingi", "lon": "29.7288889"}, {"lat": "-2.2686111", "city": "Murama", "lon": "29.7041667"}, {"lat": "-2.045", "city": "Musambila", "lon": "29.8419444"}, {"lat": "-2.045", "city": "Musambira", "lon": "29.8419444"}, {"lat": "-2.0588889", "city": "Mushubati", "lon": "29.7275"}, {"lat": "-2.1166667", "city": "Musumba", "lon": "29.8166667"}, {"lat": "-2.2666667", "city": "Mwanabili", "lon": "29.7666667"}, {"lat": "-2.25", "city": "Mwumba", "lon": "29.5833333"}, {"lat": "-1.8777778", "city": "Ndiza", "lon": "29.7530556"}, {"lat": "-2.3", "city": "Nomba", "lon": "29.8166667"}, {"lat": "-2.2225", "city": "Ntogwe", "lon": "29.8594444"}, {"lat": "-1.8947222", "city": "Nyabikenke", "lon": "29.7525"}, {"lat": "-1.8402778", "city": "Nyakabanda", "lon": "29.6869444"}, {"lat": "-2.2166667", "city": "Nyakabumgo", "lon": "29.8666667"}, {"lat": "-2.2666667", "city": "Nyakabu", "lon": "29.7"}, {"lat": "-2.0680556", "city": "Nyamabuye", "lon": "29.7661111"}, {"lat": "-2.3166667", "city": "Nyarurama", "lon": "29.65"}, {"lat": "-2.15", "city": "Nyunzwe", "lon": "29.65"}, {"lat": "-2.0166667", "city": "Rugobagoba", "lon": "29.8833333"}, {"lat": "-1.9705556", "city": "Runda", "lon": "29.9544444"}, {"lat": "-2.3166667", "city": "Runyanga", "lon": "29.7"}, {"lat": "-1.9863889", "city": "Rutobwe", "lon": "29.7952778"}, {"lat": "-1.9863889", "city": "Rutogbe", "lon": "29.7952778"}, {"lat": "-2.2666667", "city": "Rwoga", "lon": "29.7833333"}, {"lat": "-2.3", "city": "Sholi", "lon": "29.7833333"}, {"lat": "-1.9463889", "city": "Taba", "lon": "29.8988889"}, {"lat": "-2.2202778", "city": "Tambwe", "lon": "29.7991667"}, {"lat": "-2.1666667", "city": "Yenda", "lon": "29.95"}], "07": [{"lat": "-2.1816667", "city": "Birenga", "lon": "30.5325"}, {"lat": "-1.6833333", "city": "Bugoya", "lon": "30.5"}, {"lat": "-1.6833333", "city": "Buyoga", "lon": "30.5"}, {"lat": "-1.6833333", "city": "Colline Bugoya", "lon": "30.5"}, {"lat": "-2.2", "city": "Colline Kazo", "lon": "30.5"}, {"lat": "-1.9011111", "city": "Cyeru", "lon": "30.5061111"}, {"lat": "-1.8841667", "city": "Kabare", "lon": "30.4430556"}, {"lat": "-2.0172222", "city": "Kabarondo", "lon": "30.5486111"}, {"lat": "-1.9455556", "city": "Kayonza", "lon": "30.5202778"}, {"lat": "-2.2", "city": "Kazo", "lon": "30.5"}, {"lat": "-2.1644444", "city": "Kibungo", "lon": "30.5419444"}, {"lat": "-2.1644444", "city": "Kibungu", "lon": "30.5419444"}, {"lat": "-2.0769444", "city": "Kigarama", "lon": "30.5555556"}, {"lat": "-2.3269444", "city": "Lugarama", "lon": "30.6125"}, {"lat": "-2.1288889", "city": "Mugesera", "lon": "30.4158333"}, {"lat": "-1.9019444", "city": "Muhazi", "lon": "30.4113889"}, {"lat": "-1.8844444", "city": "Nyarubuye", "lon": "30.3730556"}, {"lat": "-1.9236111", "city": "Nyarugali", "lon": "30.4008333"}, {"lat": "-2.2022222", "city": "Rugendo", "lon": "30.2833333"}, {"lat": "-1.7986111", "city": "Rukara", "lon": "30.5005556"}, {"lat": "-2.1533333", "city": "Rukira", "lon": "30.6113889"}, {"lat": "-2.2730556", "city": "Rusumo", "lon": "30.7091667"}, {"lat": "-1.9613889", "city": "Rutonde", "lon": "30.4377778"}, {"lat": "-1.9525", "city": "Rwamagana", "lon": "30.4377778"}, {"lat": "-1.9591667", "city": "Rwinkwavu", "lon": "30.6147222"}, {"lat": "-2.2105556", "city": "Sake", "lon": "30.3747222"}, {"lat": "-1.8405556", "city": "Umwige", "lon": "30.4841667"}], "04": [{"lat": "-2.4333333", "city": "Bishyiga", "lon": "29.45"}, {"lat": "-2.3283333", "city": "Bunyambilili", "lon": "29.5302778"}, {"lat": "-2.7177778", "city": "Buyenzi", "lon": "29.5344444"}, {"lat": "-2.4333333", "city": "Colline Bishyiga", "lon": "29.45"}, {"lat": "-2.3833333", "city": "Colline Cyigaro", "lon": "29.5"}, {"lat": "-2.2833333", "city": "Colline Cyimbande", "lon": "29.5333333"}, {"lat": "-2.4833333", "city": "Colline Gasaka", "lon": "29.5166667"}, {"lat": "-2.6", "city": "Colline Giseke", "lon": "29.5166667"}, {"lat": "-2.4325", "city": "Colline Karama", "lon": "29.6044444"}, {"lat": "-2.3666667", "city": "Colline Kibadirwa", "lon": "29.45"}, {"lat": "-2.2833333", "city": "Colline Kigarama", "lon": "29.5666667"}, {"lat": "-2.6166667", "city": "Colline Kivu", "lon": "29.4666667"}, {"lat": "-2.4666667", "city": "Colline Kuwinkingi", "lon": "29.4666667"}, {"lat": "-2.2833333", "city": "Colline Maso", "lon": "29.5166667"}, {"lat": "-2.3666667", "city": "Colline Mugejuru", "lon": "29.4666667"}, {"lat": "-2.5166667", "city": "Colline Mukoni", "lon": "29.5666667"}, {"lat": "-2.7", "city": "Colline Munini", "lon": "29.5166667"}, {"lat": "-2.2658333", "city": "Colline Musange", "lon": "29.5552778"}, {"lat": "-2.5", "city": "Colline Muse", "lon": "29.5166667"}, {"lat": "-2.4333333", "city": "Colline Muyage", "lon": "29.6833333"}, {"lat": "-2.2833333", "city": "Colline Nyarutsi", "lon": "29.5833333"}, {"lat": "-2.3886111", "city": "Colline Rukondo", "lon": "29.6091667"}, {"lat": "-2.7166667", "city": "Colline Umufu", "lon": "29.35"}, {"lat": "-2.3", "city": "Colline Yonde", "lon": "29.5166667"}, {"lat": "-2.3833333", "city": "Cyigaro", "lon": "29.5"}, {"lat": "-2.2833333", "city": "Cyimbande", "lon": "29.5333333"}, {"lat": "-2.5333333", "city": "Gabegi", "lon": "29.3833333"}, {"lat": "-2.6666667", "city": "Gaharo", "lon": "29.4166667"}, {"lat": "-2.4833333", "city": "Gasaka", "lon": "29.5166667"}, {"lat": "-2.4688889", "city": "Gikongoro", "lon": "29.5675"}, {"lat": "-2.5833333", "city": "Giseke", "lon": "29.5"}, {"lat": "-2.45", "city": "Ilemera", "lon": "29.55"}, {"lat": "-2.4325", "city": "Karama", "lon": "29.6044444"}, {"lat": "-2.3363889", "city": "Karambo", "lon": "29.5333333"}, {"lat": "-2.4833333", "city": "Kasaka", "lon": "29.5166667"}, {"lat": "-2.3666667", "city": "Kibadirwa", "lon": "29.45"}, {"lat": "-2.2833333", "city": "Kigarama", "lon": "29.5666667"}, {"lat": "-2.4613889", "city": "Kinyamakara", "lon": "29.6594444"}, {"lat": "-2.6166667", "city": "Kivu", "lon": "29.4666667"}, {"lat": "-2.4644444", "city": "Kugihembe", "lon": "29.5919444"}, {"lat": "-2.7", "city": "Kumunini", "lon": "29.5166667"}, {"lat": "-2.4666667", "city": "Kuwinkingi", "lon": "29.4666667"}, {"lat": "-2.45", "city": "Lemera", "lon": "29.55"}, {"lat": "-2.8", "city": "Lugera", "lon": "29.4"}, {"lat": "-2.7691667", "city": "Luvulu", "lon": "29.4552778"}, {"lat": "-2.2833333", "city": "Maso", "lon": "29.5166667"}, {"lat": "-2.5333333", "city": "Mont Gabegi", "lon": "29.3833333"}, {"lat": "-2.6666667", "city": "Mont Gaharo", "lon": "29.4166667"}, {"lat": "-2.5833333", "city": "Mont Giseke", "lon": "29.5"}, {"lat": "-2.45", "city": "Mont Lemera", "lon": "29.55"}, {"lat": "-2.8", "city": "Mont Lugera", "lon": "29.4"}, {"lat": "-2.4833333", "city": "Mont Nzega", "lon": "29.5666667"}, {"lat": "-2.75", "city": "Mont Shololo", "lon": "29.5"}, {"lat": "-2.6875", "city": "Mubuga", "lon": "29.5586111"}, {"lat": "-2.5172222", "city": "Mudasomwa", "lon": "29.4827778"}, {"lat": "-2.3666667", "city": "Mugejuru", "lon": "29.4666667"}, {"lat": "-2.3602778", "city": "Muko", "lon": "29.4441667"}, {"lat": "-2.5166667", "city": "Mukoni", "lon": "29.5666667"}, {"lat": "-2.7177778", "city": "Munini", "lon": "29.5344444"}, {"lat": "-2.2658333", "city": "Musange", "lon": "29.5552778"}, {"lat": "-2.4133333", "city": "Musebeya", "lon": "29.4455556"}, {"lat": "-2.5", "city": "Muse", "lon": "29.5166667"}, {"lat": "-2.4333333", "city": "Muyage", "lon": "29.6833333"}, {"lat": "-2.4833333", "city": "Nseka", "lon": "29.5666667"}, {"lat": "-2.7516667", "city": "Nshili", "lon": "29.4925"}, {"lat": "-2.3580556", "city": "Nyabisindu", "lon": "29.7386111"}, {"lat": "-2.4591667", "city": "Nyamagabe", "lon": "29.5647222"}, {"lat": "-2.3580556", "city": "Nyanza", "lon": "29.7386111"}, {"lat": "-2.2833333", "city": "Nyarutsi", "lon": "29.5833333"}, {"lat": "-2.4833333", "city": "Nzega", "lon": "29.5666667"}, {"lat": "-2.45", "city": "Remera", "lon": "29.55"}, {"lat": "-2.3886111", "city": "Rukondo", "lon": "29.6091667"}, {"lat": "-2.5916667", "city": "Rwamiko", "lon": "29.5005556"}, {"lat": "-2.75", "city": "Shololo", "lon": "29.5"}, {"lat": "-2.7166667", "city": "Umufu", "lon": "29.35"}, {"lat": "-2.3", "city": "Yonde", "lon": "29.5166667"}], "05": [{"lat": "-1.6833333", "city": "Basa", "lon": "29.35"}, {"lat": "-1.6333333", "city": "Bihe", "lon": "29.3666667"}, {"lat": "-1.6833333", "city": "Bilembo", "lon": "29.5166667"}, {"lat": "-1.75", "city": "Binana", "lon": "29.6333333"}, {"lat": "-1.75", "city": "Budaya", "lon": "29.3166667"}, {"lat": "-1.6333333", "city": "Bugu", "lon": "29.3"}, {"lat": "-1.8833333", "city": "Buhongo", "lon": "29.3"}, {"lat": "-1.9", "city": "Buhoro", "lon": "29.3"}, {"lat": "-1.5833333", "city": "Buhungwe", "lon": "29.3833333"}, {"lat": "-1.6", "city": "Bukondjo", "lon": "29.3166667"}, {"lat": "-1.595", "city": "Bulengera", "lon": "29.32"}, {"lat": "-1.5422222", "city": "Bungeshi Mukuru", "lon": "29.3830556"}, {"lat": "-1.6333333", "city": "Burere", "lon": "29.3166667"}, {"lat": "-1.8833333", "city": "Butezi", "lon": "29.6166667"}, {"lat": "-1.7", "city": "Chyugi", "lon": "29.55"}, {"lat": "-1.6833333", "city": "Colline Basa", "lon": "29.35"}, {"lat": "-1.6333333", "city": "Colline Bihe", "lon": "29.3666667"}, {"lat": "-1.6833333", "city": "Colline Bilembo", "lon": "29.5166667"}, {"lat": "-1.75", "city": "Colline Binana", "lon": "29.6333333"}, {"lat": "-1.75", "city": "Colline Budaya", "lon": "29.3166667"}, {"lat": "-1.6333333", "city": "Colline Bugu", "lon": "29.3"}, {"lat": "-1.8833333", "city": "Colline Buhongo", "lon": "29.3"}, {"lat": "-1.9", "city": "Colline Buhoro", "lon": "29.3"}, {"lat": "-1.5833333", "city": "Colline Buhungwe", "lon": "29.3833333"}, {"lat": "-1.6", "city": "Colline Bukondjo", "lon": "29.3166667"}, {"lat": "-1.595", "city": "Colline Bulengera", "lon": "29.32"}, {"lat": "-1.6333333", "city": "Colline Burere", "lon": "29.3166667"}, {"lat": "-1.8833333", "city": "Colline Butezi", "lon": "29.6166667"}, {"lat": "-1.7", "city": "Colline Gakoma", "lon": "29.6333333"}, {"lat": "-1.6333333", "city": "Colline Gangura", "lon": "29.4"}, {"lat": "-1.7166667", "city": "Colline Gasasa", "lon": "29.5666667"}, {"lat": "-1.65", "city": "Colline Gatatara", "lon": "29.45"}, {"lat": "-1.85", "city": "Colline Gihe", "lon": "29.6333333"}, {"lat": "-1.75", "city": "Colline Gihinga", "lon": "29.3166667"}, {"lat": "-1.6833333", "city": "Colline Gisa", "lon": "29.2666667"}, {"lat": "-1.8", "city": "Colline Gitega", "lon": "29.5833333"}, {"lat": "-1.7833333", "city": "Colline Gitwa", "lon": "29.3166667"}, {"lat": "-1.7027778", "city": "Colline Gosenyi", "lon": "29.2563889"}, {"lat": "-1.7333333", "city": "Colline Guhengeri", "lon": "29.5333333"}, {"lat": "-1.7", "city": "Colline Kabirizi", "lon": "29.2833333"}, {"lat": "-1.6997222", "city": "Colline Kanama", "lon": "29.3463889"}, {"lat": "-1.7333333", "city": "Colline Kangwandi", "lon": "29.3166667"}, {"lat": "-1.9", "city": "Colline Kanogo", "lon": "29.6166667"}, {"lat": "-1.6333333", "city": "Colline Kanzanza", "lon": "29.3833333"}, {"lat": "-1.65", "city": "Colline Karandarye", "lon": "29.5"}, {"lat": "-1.8333333", "city": "Colline Kataretare", "lon": "29.3666667"}, {"lat": "-1.8166667", "city": "Colline Kigeyo", "lon": "29.3"}, {"lat": "-1.7666667", "city": "Colline Kinanira", "lon": "29.55"}, {"lat": "-1.7166667", "city": "Colline Kinigi", "lon": "29.3"}, {"lat": "-1.6666667", "city": "Colline Kinihira", "lon": "29.5"}, {"lat": "-1.5666667", "city": "Colline Kinogo", "lon": "29.35"}, {"lat": "-1.7166667", "city": "Colline Kintarure", "lon": "29.6166667"}, {"lat": "-1.8333333", "city": "Colline Kinyantozi", "lon": "29.3833333"}, {"lat": "-1.7333333", "city": "Colline Kiraga", "lon": "29.3"}, {"lat": "-1.95", "city": "Colline Kirengo", "lon": "29.6"}, {"lat": "-1.8", "city": "Colline Kiziguru", "lon": "29.65"}, {"lat": "-1.75", "city": "Colline Kununya", "lon": "29.4333333"}, {"lat": "-1.6166667", "city": "Colline Luhigiro", "lon": "29.4"}, {"lat": "-1.8666667", "city": "Colline Luhunga", "lon": "29.6333333"}, {"lat": "-1.7", "city": "Colline Mahoko", "lon": "29.3333333"}, {"lat": "-1.8833333", "city": "Colline Mahumbe", "lon": "29.5166667"}, {"lat": "-1.8833333", "city": "Colline Marabuy", "lon": "29.35"}, {"lat": "-1.5833333", "city": "Colline Masha", "lon": "29.3333333"}, {"lat": "-1.85", "city": "Colline Mbuye", "lon": "29.65"}, {"lat": "-1.9", "city": "Colline Mikingo", "lon": "29.6"}, {"lat": "-1.6", "city": "Colline Mitshiniro", "lon": "29.3833333"}, {"lat": "-1.6333333", "city": "Colline Mizingo", "lon": "29.4333333"}, {"lat": "-1.6166667", "city": "Colline Mudende", "lon": "29.3833333"}, {"lat": "-1.6166667", "city": "Colline Mufumba", "lon": "29.3166667"}, {"lat": "-1.8333333", "city": "Colline Mugano", "lon": "29.6166667"}, {"lat": "-1.8", "city": "Colline Muhanda", "lon": "29.5166667"}, {"lat": "-1.7166667", "city": "Colline Mulemule", "lon": "29.5333333"}, {"lat": "-1.8666667", "city": "Colline Muramba", "lon": "29.5333333"}, {"lat": "-1.7333333", "city": "Colline Murambi", "lon": "29.55"}, {"lat": "-1.9", "city": "Colline Murunda", "lon": "29.3666667"}, {"lat": "-1.8333333", "city": "Colline Musagara", "lon": "29.6166667"}, {"lat": "-1.6666667", "city": "Colline Mutamo", "lon": "29.4833333"}, {"lat": "-1.6208333", "city": "Colline Muti", "lon": "29.3044444"}, {"lat": "-1.7794444", "city": "Colline Mwufe", "lon": "29.3083333"}, {"lat": "-1.9166667", "city": "Colline Ndaganzwa", "lon": "29.6166667"}, {"lat": "-1.7", "city": "Colline Nengo", "lon": "29.2666667"}, {"lat": "-1.8", "city": "Colline Nganzo", "lon": "29.65"}, {"lat": "-1.9", "city": "Colline Ngoma", "lon": "29.35"}, {"lat": "-1.95", "city": "Colline Ngurugunzu", "lon": "29.6"}, {"lat": "-1.9666667", "city": "Colline Ntobwe", "lon": "29.6333333"}, {"lat": "-1.9", "city": "Colline Nulambi", "lon": "29.3333333"}, {"lat": "-1.7833333", "city": "Colline Nyabihu", "lon": "29.5833333"}, {"lat": "-1.8", "city": "Colline Nyagahinika", "lon": "29.3333333"}, {"lat": "-1.7397222", "city": "Colline Nyamyumba", "lon": "29.2933333"}, {"lat": "-1.6166667", "city": "Colline Nyaruteme", "lon": "29.3666667"}, {"lat": "-1.7166667", "city": "Colline Nyondo", "lon": "29.3166667"}, {"lat": "-1.9", "city": "Colline Rongi", "lon": "29.65"}, {"lat": "-1.6825", "city": "Colline Rubaya", "lon": "29.2969444"}, {"lat": "-1.9666667", "city": "Colline Rubona", "lon": "29.6333333"}, {"lat": "-1.8666667", "city": "Colline Rugamba", "lon": "29.3"}, {"lat": "-1.7166667", "city": "Colline Rugerero", "lon": "29.3"}, {"lat": "-1.9166667", "city": "Colline Rugoti", "lon": "29.3666667"}, {"lat": "-1.6", "city": "Colline Ruhara", "lon": "29.3"}, {"lat": "-1.65", "city": "Colline Rukoko", "lon": "29.2666667"}, {"lat": "-1.7166667", "city": "Colline Rusekera", "lon": "29.3833333"}, {"lat": "-1.8", "city": "Colline Rusingi", "lon": "29.5666667"}, {"lat": "-1.85", "city": "Colline Rususa", "lon": "29.6333333"}, {"lat": "-1.7666667", "city": "Colline Rutarure", "lon": "29.5833333"}, {"lat": "-1.6333333", "city": "Colline Rwangara", "lon": "29.3166667"}, {"lat": "-1.7", "city": "Colline Rwankomo", "lon": "29.35"}, {"lat": "-1.6166667", "city": "Colline Rwankuba", "lon": "29.3666667"}, {"lat": "-1.65", "city": "Colline Rwanya", "lon": "29.5"}, {"lat": "-1.7", "city": "Colline Rwaza", "lon": "29.2666667"}, {"lat": "-1.7", "city": "Colline Syogi", "lon": "29.55"}, {"lat": "-1.7", "city": "Gakoma", "lon": "29.6333333"}, {"lat": "-1.6333333", "city": "Gangura", "lon": "29.4"}, {"lat": "-1.7166667", "city": "Gasasa", "lon": "29.5666667"}, {"lat": "-1.7655556", "city": "Gaseke", "lon": "29.5497222"}, {"lat": "-1.65", "city": "Gatatara", "lon": "29.45"}, {"lat": "-1.7027778", "city": "Giciye", "lon": "29.5597222"}, {"lat": "-1.85", "city": "Gihe", "lon": "29.6333333"}, {"lat": "-1.75", "city": "Gihinga", "lon": "29.3166667"}, {"lat": "-1.6833333", "city": "Gisa", "lon": "29.2666667"}, {"lat": "-1.7027778", "city": "Gisenyi", "lon": "29.2563889"}, {"lat": "-1.8", "city": "Gitega", "lon": "29.5833333"}, {"lat": "-1.7008333", "city": "Gitwa", "lon": "29.4175"}, {"lat": "-1.7027778", "city": "Gosenyi", "lon": "29.2563889"}, {"lat": "-1.7333333", "city": "Guhengeri", "lon": "29.5333333"}, {"lat": "-1.7502778", "city": "Kabaya", "lon": "29.5458333"}, {"lat": "-1.7", "city": "Kabirizi", "lon": "29.2833333"}, {"lat": "-1.6266667", "city": "Kamuzamuzi", "lon": "29.3430556"}, {"lat": "-1.6997222", "city": "Kanama", "lon": "29.3463889"}, {"lat": "-1.7333333", "city": "Kangwandi", "lon": "29.3166667"}, {"lat": "-1.9", "city": "Kanogo", "lon": "29.6166667"}, {"lat": "-1.6333333", "city": "Kanzanza", "lon": "29.3833333"}, {"lat": "-1.6655556", "city": "Karago", "lon": "29.5180556"}, {"lat": "-1.65", "city": "Karandarye", "lon": "29.5"}, {"lat": "-1.8333333", "city": "Kataretare", "lon": "29.3666667"}, {"lat": "-1.8844444", "city": "Kayove", "lon": "29.3530556"}, {"lat": "-1.9375", "city": "Kibilira", "lon": "29.6213889"}, {"lat": "-1.8166667", "city": "Kigeyo", "lon": "29.3"}, {"lat": "-1.7666667", "city": "Kinanira", "lon": "29.55"}, {"lat": "-1.7166667", "city": "Kinigi", "lon": "29.3"}, {"lat": "-1.6666667", "city": "Kinihira", "lon": "29.5"}, {"lat": "-1.5666667", "city": "Kinogo", "lon": "29.35"}, {"lat": "-1.7166667", "city": "Kintarure", "lon": "29.6166667"}, {"lat": "-1.8333333", "city": "Kinyantozi", "lon": "29.3833333"}, {"lat": "-1.7333333", "city": "Kiraga", "lon": "29.3"}, {"lat": "-1.95", "city": "Kirengo", "lon": "29.6"}, {"lat": "-1.8", "city": "Kiziguru", "lon": "29.65"}, {"lat": "-1.75", "city": "Kununya", "lon": "29.4333333"}, {"lat": "-1.6166667", "city": "Luhigiro", "lon": "29.4"}, {"lat": "-1.8666667", "city": "Luhunga", "lon": "29.6333333"}, {"lat": "-1.7", "city": "Mahoko", "lon": "29.3333333"}, {"lat": "-1.8833333", "city": "Mahumbe", "lon": "29.5166667"}, {"lat": "-1.8833333", "city": "Marabuy", "lon": "29.35"}, {"lat": "-1.5833333", "city": "Masha", "lon": "29.3333333"}, {"lat": "-1.85", "city": "Mbuye", "lon": "29.65"}, {"lat": "-1.9", "city": "Mikingo", "lon": "29.6"}, {"lat": "-1.6", "city": "Mitshiniro", "lon": "29.3833333"}, {"lat": "-1.6333333", "city": "Mizingo", "lon": "29.4333333"}, {"lat": "-1.6166667", "city": "Mudende", "lon": "29.3833333"}, {"lat": "-1.6166667", "city": "Mufumba", "lon": "29.3166667"}, {"lat": "-1.8333333", "city": "Mugano", "lon": "29.6166667"}, {"lat": "-1.8", "city": "Muhanda", "lon": "29.5166667"}, {"lat": "-1.7166667", "city": "Mulemule", "lon": "29.5333333"}, {"lat": "-1.8666667", "city": "Muramba", "lon": "29.5333333"}, {"lat": "-1.7333333", "city": "Murambi", "lon": "29.55"}, {"lat": "-1.9", "city": "Murunda", "lon": "29.3666667"}, {"lat": "-1.8333333", "city": "Musagara", "lon": "29.6166667"}, {"lat": "-1.6666667", "city": "Mutamo", "lon": "29.4833333"}, {"lat": "-1.6208333", "city": "Muti", "lon": "29.3044444"}, {"lat": "-1.5988889", "city": "Mutura", "lon": "29.3822222"}, {"lat": "-1.7794444", "city": "Mwufe", "lon": "29.3083333"}, {"lat": "-1.9166667", "city": "Ndaganzwa", "lon": "29.6166667"}, {"lat": "-1.7", "city": "Nengo", "lon": "29.2666667"}, {"lat": "-1.5847222", "city": "Ngando", "lon": "29.4125"}, {"lat": "-1.8", "city": "Nganzo", "lon": "29.65"}, {"lat": "-1.9", "city": "Ngoma", "lon": "29.35"}, {"lat": "-1.95", "city": "Ngurugunzu", "lon": "29.6"}, {"lat": "-1.9666667", "city": "Ntobwe", "lon": "29.6333333"}, {"lat": "-1.9", "city": "Nulambi", "lon": "29.3333333"}, {"lat": "-1.7833333", "city": "Nyabihu", "lon": "29.5833333"}, {"lat": "-1.8", "city": "Nyagahinika", "lon": "29.3333333"}, {"lat": "-1.7397222", "city": "Nyamyumba", "lon": "29.2933333"}, {"lat": "-1.6166667", "city": "Nyaruteme", "lon": "29.3666667"}, {"lat": "-1.7166667", "city": "Nyondo", "lon": "29.3166667"}, {"lat": "-1.8736111", "city": "Ramba", "lon": "29.5425"}, {"lat": "-1.9", "city": "Rongi", "lon": "29.65"}, {"lat": "-1.6825", "city": "Rubavu", "lon": "29.2969444"}, {"lat": "-1.6825", "city": "Rubaya", "lon": "29.2969444"}, {"lat": "-1.9666667", "city": "Rubona", "lon": "29.6333333"}, {"lat": "-1.8666667", "city": "Rugamba", "lon": "29.3"}, {"lat": "-1.5741667", "city": "Rugarama", "lon": "29.3525"}, {"lat": "-1.7166667", "city": "Rugerero", "lon": "29.3"}, {"lat": "-1.9166667", "city": "Rugoti", "lon": "29.3666667"}, {"lat": "-1.6", "city": "Ruhara", "lon": "29.3"}, {"lat": "-1.65", "city": "Rukoko", "lon": "29.2666667"}, {"lat": "-1.7166667", "city": "Rusekera", "lon": "29.3833333"}, {"lat": "-1.8", "city": "Rusingi", "lon": "29.5666667"}, {"lat": "-1.85", "city": "Rususa", "lon": "29.6333333"}, {"lat": "-1.7666667", "city": "Rutarure", "lon": "29.5833333"}, {"lat": "-1.8136111", "city": "Ruwiri", "lon": "29.4925"}, {"lat": "-1.6333333", "city": "Rwangara", "lon": "29.3166667"}, {"lat": "-1.7", "city": "Rwankomo", "lon": "29.35"}, {"lat": "-1.6166667", "city": "Rwankuba", "lon": "29.3666667"}, {"lat": "-1.65", "city": "Rwanya", "lon": "29.5"}, {"lat": "-1.7", "city": "Rwaza", "lon": "29.2666667"}, {"lat": "-1.6075", "city": "Rwerere", "lon": "29.3311111"}, {"lat": "-1.8113889", "city": "Satinsyi", "lon": "29.6280556"}, {"lat": "-1.7", "city": "Shyogi", "lon": "29.55"}, {"lat": "-1.7", "city": "Syogi", "lon": "29.55"}], "08": [{"lat": "-2.1575", "city": "Bwakira", "lon": "29.5497222"}, {"lat": "-2.2677778", "city": "Colline Cyiya", "lon": "29.2652778"}, {"lat": "-1.8833333", "city": "Colline Kumutaka", "lon": "29.4666667"}, {"lat": "-2.2677778", "city": "Cyiya", "lon": "29.2652778"}, {"lat": "-2.1627778", "city": "Gishyita", "lon": "29.3005556"}, {"lat": "-2.2547222", "city": "Gisovu", "lon": "29.3369444"}, {"lat": "-2.0758333", "city": "Gitesi", "lon": "29.3577778"}, {"lat": "-2.0555556", "city": "Kibuye", "lon": "29.3497222"}, {"lat": "-2.0466667", "city": "Kivumu", "lon": "29.5969444"}, {"lat": "-1.8833333", "city": "Kumutaka", "lon": "29.4666667"}, {"lat": "-2.0541667", "city": "Mabanza", "lon": "29.4166667"}, {"lat": "-2.1855556", "city": "Mwendo", "lon": "29.5119444"}, {"lat": "-1.96", "city": "Rutsiro", "lon": "29.3894444"}, {"lat": "-2.1955556", "city": "Rwamatamu", "lon": "29.2413889"}], "09": [{"lat": "-1.8847222", "city": "Agatwi", "lon": "30.0686111"}, {"lat": "-1.9333333", "city": "Bandazi", "lon": "30.2333333"}, {"lat": "-1.9966667", "city": "Bicumbi", "lon": "30.3497222"}, {"lat": "-2.0666667", "city": "Bihembe", "lon": "30.2833333"}, {"lat": "-1.9166667", "city": "Bugaragara", "lon": "29.9666667"}, {"lat": "-1.7502778", "city": "Bugarura", "lon": "30.3327778"}, {"lat": "-2.1455556", "city": "Bugesera", "lon": "30.0913889"}, {"lat": "-1.7333333", "city": "Bulega", "lon": "30.0333333"}, {"lat": "-1.7333333", "city": "Bulimba", "lon": "29.85"}, {"lat": "-1.7130556", "city": "Bumbogo", "lon": "29.8530556"}, {"lat": "-1.9508333", "city": "Bushenyi", "lon": "30.3952778"}, {"lat": "-1.8666667", "city": "Butale", "lon": "30.1"}, {"lat": "-2.0266667", "city": "Butamwa", "lon": "30.0258333"}, {"lat": "-1.9333333", "city": "Colline Bandazi", "lon": "30.2333333"}, {"lat": "-2.0666667", "city": "Colline Bihembe", "lon": "30.2833333"}, {"lat": "-1.9166667", "city": "Colline Bugaragara", "lon": "29.9666667"}, {"lat": "-1.7502778", "city": "Colline Bugarura", "lon": "30.3327778"}, {"lat": "-1.7333333", "city": "Colline Bulega", "lon": "30.0333333"}, {"lat": "-1.7333333", "city": "Colline Bulimba", "lon": "29.85"}, {"lat": "-1.8666667", "city": "Colline Butale", "lon": "30.1"}, {"lat": "-1.8", "city": "Colline Gasabo", "lon": "30.1333333"}, {"lat": "-1.85", "city": "Colline Gasagara", "lon": "30.2"}, {"lat": "-1.7166667", "city": "Colline Gashinia", "lon": "30.1833333"}, {"lat": "-2.2075", "city": "Colline Gashoba", "lon": "30.2436111"}, {"lat": "-1.85", "city": "Colline Gasura", "lon": "30.1"}, {"lat": "-1.6666667", "city": "Colline Gatete", "lon": "29.8833333"}, {"lat": "-1.9833333", "city": "Colline Gikondo", "lon": "30.0666667"}, {"lat": "-1.9", "city": "Colline Gishute", "lon": "30.2"}, {"lat": "-1.7833333", "city": "Colline Gisodzi", "lon": "29.8833333"}, {"lat": "-1.7833333", "city": "Colline Gitambi", "lon": "30.1166667"}, {"lat": "-1.75", "city": "Colline Gitovu", "lon": "29.8833333"}, {"lat": "-1.8966667", "city": "Colline Gitshatsha", "lon": "30.2386111"}, {"lat": "-1.6833333", "city": "Colline Gitsimba", "lon": "30.3833333"}, {"lat": "-1.8666667", "city": "Colline Gitsuba", "lon": "29.9333333"}, {"lat": "-2.4166667", "city": "Colline Isenga", "lon": "30.1166667"}, {"lat": "-1.8666667", "city": "Colline Janjagiro", "lon": "30.3"}, {"lat": "-1.9666667", "city": "Colline Kabuga", "lon": "30.2166667"}, {"lat": "-2.2666667", "city": "Colline Kagasa", "lon": "30.2"}, {"lat": "-2.0166667", "city": "Colline Kalembule", "lon": "30.0833333"}, {"lat": "-1.9747222", "city": "Colline Kanombe", "lon": "30.1613889"}, {"lat": "-1.7833333", "city": "Colline Kanyoni", "lon": "30.0333333"}, {"lat": "-2.1511111", "city": "Colline Kanzenze", "lon": "30.0952778"}, {"lat": "-1.7666667", "city": "Colline Karambo", "lon": "30.0333333"}, {"lat": "-2.2333333", "city": "Colline Karizinge", "lon": "30.25"}, {"lat": "-2.35", "city": "Colline Karotshyo", "lon": "30.25"}, {"lat": "-1.9333333", "city": "Colline Katshuriro", "lon": "30.0833333"}, {"lat": "-1.8333333", "city": "Colline Kayanga", "lon": "30.1833333"}, {"lat": "-2.1333333", "city": "Colline Kayenzi", "lon": "30.0666667"}, {"lat": "-2.2666667", "city": "Colline Kayovu", "lon": "30.2666667"}, {"lat": "-1.9333333", "city": "Colline Kibagabaga", "lon": "30.1166667"}, {"lat": "-2.1", "city": "Colline Kibungu", "lon": "30.0333333"}, {"lat": "-1.95", "city": "Colline Kigarama", "lon": "30.15"}, {"lat": "-1.75", "city": "Colline Kimironko", "lon": "30.3333333"}, {"lat": "-2.2", "city": "Colline Kindonye", "lon": "30.1166667"}, {"lat": "-1.75", "city": "Colline Kinzuzi", "lon": "30.0166667"}, {"lat": "-1.7", "city": "Colline Kirambo", "lon": "29.8833333"}, {"lat": "-1.75", "city": "Colline Kisigiro", "lon": "30.0333333"}, {"lat": "-1.7", "city": "Colline Kivuba", "lon": "30.3"}, {"lat": "-1.75", "city": "Colline Kiyanza", "lon": "30.0666667"}, {"lat": "-1.7333333", "city": "Colline Kukabira", "lon": "30.1833333"}, {"lat": "-2.4", "city": "Colline Kukana", "lon": "30.1333333"}, {"lat": "-1.8333333", "city": "Colline Kulisha", "lon": "30.0833333"}, {"lat": "-2.3833333", "city": "Colline Mabuye", "lon": "30.15"}, {"lat": "-2.2666667", "city": "Colline Magina", "lon": "30.2166667"}, {"lat": "-1.7333333", "city": "Colline Mamfu", "lon": "30.3"}, {"lat": "-1.8333333", "city": "Colline Masoro", "lon": "30.05"}, {"lat": "-2.2113889", "city": "Colline Mayange", "lon": "30.1172222"}, {"lat": "-2.3666667", "city": "Colline Mibuba", "lon": "30.15"}, {"lat": "-2.0", "city": "Colline Mpanga", "lon": "30.0333333"}, {"lat": "-2.2666667", "city": "Colline Mpira", "lon": "30.1833333"}, {"lat": "-1.8833333", "city": "Colline Mukuyu", "lon": "30.1833333"}, {"lat": "-2.05", "city": "Colline Mulinja", "lon": "30.1166667"}, {"lat": "-1.9833333", "city": "Colline Murambi", "lon": "30.0833333"}, {"lat": "-2.35", "city": "Colline Murara", "lon": "30.1666667"}, {"lat": "-2.25", "city": "Colline Musumule", "lon": "30.1833333"}, {"lat": "-1.75", "city": "Colline Mutambiko", "lon": "30.1833333"}, {"lat": "-1.85", "city": "Colline Muvumu", "lon": "29.9166667"}, {"lat": "-1.7166667", "city": "Colline Mwendo", "lon": "30.2"}, {"lat": "-1.8", "city": "Colline Mwishe", "lon": "30.0"}, {"lat": "-1.7333333", "city": "Colline Mwite", "lon": "30.0"}, {"lat": "-1.7333333", "city": "Colline Mwiviro", "lon": "30.2666667"}, {"lat": "-2.3", "city": "Colline Myariro", "lon": "30.1666667"}, {"lat": "-1.9666667", "city": "Colline Ndera", "lon": "30.1666667"}, {"lat": "-1.7166667", "city": "Colline Ngange", "lon": "30.2333333"}, {"lat": "-2.3", "city": "Colline Ngeruka", "lon": "30.15"}, {"lat": "-1.85", "city": "Colline Ngiryi", "lon": "30.0833333"}, {"lat": "-1.8666667", "city": "Colline Nkunzuzu", "lon": "30.1666667"}, {"lat": "-1.7833333", "city": "Colline Ntarabana", "lon": "29.9166667"}, {"lat": "-2.0833333", "city": "Colline Ntebe", "lon": "30.3"}, {"lat": "-1.7666667", "city": "Colline Ntonde", "lon": "29.9333333"}, {"lat": "-1.8", "city": "Colline Nyakabongo", "lon": "30.25"}, {"lat": "-1.95", "city": "Colline Nyamweru", "lon": "30.0166667"}, {"lat": "-1.7833333", "city": "Colline Nyanza", "lon": "30.15"}, {"lat": "-1.9402778", "city": "Colline Nyarugenge", "lon": "30.0652778"}, {"lat": "-2.4333333", "city": "Colline Nyarurama", "lon": "30.1666667"}, {"lat": "-2.3666667", "city": "Colline Nzangwa", "lon": "30.25"}, {"lat": "-1.8", "city": "Colline Remera", "lon": "29.9833333"}, {"lat": "-1.8833333", "city": "Colline Rimwe", "lon": "29.95"}, {"lat": "-1.7833333", "city": "Colline Rubona", "lon": "29.8666667"}, {"lat": "-1.9458333", "city": "Colline Rubungo", "lon": "30.1261111"}, {"lat": "-1.7", "city": "Colline Rugaragara", "lon": "30.2166667"}, {"lat": "-2.2833333", "city": "Colline Rugenge", "lon": "30.2166667"}, {"lat": "-1.9333333", "city": "Colline Ruhanga", "lon": "30.25"}, {"lat": "-1.7333333", "city": "Colline Ruhanya", "lon": "29.9333333"}, {"lat": "-1.6833333", "city": "Colline Rukura", "lon": "29.8333333"}, {"lat": "-1.8833333", "city": "Colline Runyinya", "lon": "30.3333333"}, {"lat": "-1.7330556", "city": "Colline Rushashi", "lon": "29.8591667"}, {"lat": "-1.8166667", "city": "Colline Rusiga", "lon": "29.9166667"}, {"lat": "-1.9", "city": "Colline Rutonde", "lon": "29.9666667"}, {"lat": "-1.8666667", "city": "Colline Rutondwe", "lon": "29.95"}, {"lat": "-1.7666667", "city": "Colline Rwamiko", "lon": "30.2"}, {"lat": "-1.85", "city": "Colline Rwani", "lon": "29.9333333"}, {"lat": "-1.75", "city": "Colline Rwankuba", "lon": "29.8666667"}, {"lat": "-1.85", "city": "Colline Shenga", "lon": "30.2666667"}, {"lat": "-1.8544444", "city": "Colline Shyorongi", "lon": "29.9625"}, {"lat": "-1.7833333", "city": "Colline Tanda", "lon": "30.25"}, {"lat": "-2.1166667", "city": "Colline Tshyugaro", "lon": "30.05"}, {"lat": "-1.7077778", "city": "Cyamuhinda", "lon": "30.1955556"}, {"lat": "-1.9511111", "city": "Cyimbazi", "lon": "30.3641667"}, {"lat": "-1.9666667", "city": "Gahengele", "lon": "30.3333333"}, {"lat": "-1.8", "city": "Gasaba", "lon": "30.1333333"}, {"lat": "-1.85", "city": "Gasagara", "lon": "30.2"}, {"lat": "-1.9136111", "city": "Gasave", "lon": "30.0663889"}, {"lat": "-1.7166667", "city": "Gashinia", "lon": "30.1833333"}, {"lat": "-1.7166667", "city": "Gashinya", "lon": "30.1833333"}, {"lat": "-2.2075", "city": "Gashora", "lon": "30.2436111"}, {"lat": "-1.85", "city": "Gasura", "lon": "30.1"}, {"lat": "-1.6666667", "city": "Gatete", "lon": "29.8833333"}, {"lat": "-1.8552778", "city": "Gikomero", "lon": "30.1494444"}, {"lat": "-1.9833333", "city": "Gikondo", "lon": "30.0666667"}, {"lat": "-1.9305556", "city": "Gikoro", "lon": "30.3313889"}, {"lat": "-1.85", "city": "Girgi", "lon": "30.0833333"}, {"lat": "-1.9", "city": "Gishute", "lon": "30.2"}, {"lat": "-1.7833333", "city": "Gisodzi", "lon": "29.8833333"}, {"lat": "-1.7833333", "city": "Gitambi", "lon": "30.1166667"}, {"lat": "-1.8966667", "city": "Githatsha", "lon": "30.2386111"}, {"lat": "-1.75", "city": "Gitovu", "lon": "29.8833333"}, {"lat": "-1.8966667", "city": "Gitshatsha", "lon": "30.2386111"}, {"lat": "-1.6833333", "city": "Gitsimba", "lon": "30.3833333"}, {"lat": "-1.8666667", "city": "Gitsuba", "lon": "29.9333333"}, {"lat": "-1.8566667", "city": "Hubingo", "lon": "30.0080556"}, {"lat": "-2.4166667", "city": "Isenga", "lon": "30.1166667"}, {"lat": "-1.8666667", "city": "Janjagiro", "lon": "30.3"}, {"lat": "-1.8666667", "city": "Jari", "lon": "30.0166667"}, {"lat": "-1.9666667", "city": "Kabuga", "lon": "30.2166667"}, {"lat": "-1.8744444", "city": "Kabuye", "lon": "30.0475"}, {"lat": "-1.9625", "city": "Kacyiru", "lon": "30.1055556"}, {"lat": "-2.2666667", "city": "Kagasa", "lon": "30.2"}, {"lat": "-2.0166667", "city": "Kalembule", "lon": "30.0833333"}, {"lat": "-2.1455556", "city": "Kanazi", "lon": "30.0913889"}, {"lat": "-1.9747222", "city": "Kanombe", "lon": "30.1613889"}, {"lat": "-1.7833333", "city": "Kanyoni", "lon": "30.0333333"}, {"lat": "-2.1511111", "city": "Kanzenze", "lon": "30.0952778"}, {"lat": "-1.9", "city": "Karama", "lon": "30.1666667"}, {"lat": "-1.7666667", "city": "Karambo", "lon": "30.0333333"}, {"lat": "-2.2333333", "city": "Karizinge", "lon": "30.25"}, {"lat": "-2.35", "city": "Karotshyo", "lon": "30.25"}, {"lat": "-1.6980556", "city": "Karundi", "lon": "30.2288889"}, {"lat": "-1.8155556", "city": "Karushya", "lon": "30.2311111"}, {"lat": "-1.9333333", "city": "Katshuriro", "lon": "30.0833333"}, {"lat": "-1.8333333", "city": "Kayanga", "lon": "30.1833333"}, {"lat": "-2.1333333", "city": "Kayenzi", "lon": "30.0666667"}, {"lat": "-2.2666667", "city": "Kayovu", "lon": "30.2666667"}, {"lat": "-1.9333333", "city": "Kibagabaga", "lon": "30.1166667"}, {"lat": "-2.1", "city": "Kibungu", "lon": "30.0333333"}, {"lat": "-1.9769444", "city": "Kicukiro", "lon": "30.1058333"}, {"lat": "-1.9536111", "city": "Kigale", "lon": "30.0605556"}, {"lat": "-1.9536111", "city": "Kigali", "lon": "30.0605556"}, {"lat": "-1.95", "city": "Kigarama", "lon": "30.15"}, {"lat": "-1.75", "city": "Kimironko", "lon": "30.3333333"}, {"lat": "-1.9952778", "city": "Kimisange", "lon": "30.0486111"}, {"lat": "-2.2", "city": "Kindonye", "lon": "30.1166667"}, {"lat": "-2.2", "city": "Kindony", "lon": "30.1166667"}, {"lat": "-1.75", "city": "Kinzuzi", "lon": "30.0166667"}, {"lat": "-1.7", "city": "Kirambo", "lon": "29.8833333"}, {"lat": "-1.75", "city": "Kisigiro", "lon": "30.0333333"}, {"lat": "-1.8966667", "city": "Kitshasa", "lon": "30.2386111"}, {"lat": "-1.7", "city": "Kivuba", "lon": "30.3"}, {"lat": "-1.75", "city": "Kiyanza", "lon": "30.0666667"}, {"lat": "-1.7333333", "city": "Kukabira", "lon": "30.1833333"}, {"lat": "-2.4", "city": "Kukana", "lon": "30.1333333"}, {"lat": "-1.8333333", "city": "Kulisha", "lon": "30.0833333"}, {"lat": "-1.7688889", "city": "Kwibanda", "lon": "30.2336111"}, {"lat": "-2.2", "city": "Leberu", "lon": "30.1"}, {"lat": "-1.9333333", "city": "Luhanga", "lon": "30.25"}, {"lat": "-2.3833333", "city": "Mabuye", "lon": "30.15"}, {"lat": "-2.2666667", "city": "Magina", "lon": "30.2166667"}, {"lat": "-1.7333333", "city": "Mamfu", "lon": "30.3"}, {"lat": "-1.9955556", "city": "Masaka", "lon": "30.1916667"}, {"lat": "-1.8333333", "city": "Masoro", "lon": "30.05"}, {"lat": "-2.2113889", "city": "Mayange", "lon": "30.1172222"}, {"lat": "-1.7644444", "city": "Mbogo", "lon": "29.97"}, {"lat": "-2.3666667", "city": "Mibuba", "lon": "30.15"}, {"lat": "-2.2666667", "city": "Migina", "lon": "30.2166667"}, {"lat": "-1.9666667", "city": "Mont Gahengele", "lon": "30.3333333"}, {"lat": "-1.8666667", "city": "Mont Jari", "lon": "30.0166667"}, {"lat": "-1.9", "city": "Mont Karama", "lon": "30.1666667"}, {"lat": "-1.9638889", "city": "Mont Kigali", "lon": "30.0383333"}, {"lat": "-2.2", "city": "Mont Leberu", "lon": "30.1"}, {"lat": "-1.8666667", "city": "Mont Ndjari", "lon": "30.0166667"}, {"lat": "-1.75", "city": "Mont Ruhanga", "lon": "29.9166667"}, {"lat": "-2.0", "city": "Mpanga", "lon": "30.0333333"}, {"lat": "-2.2666667", "city": "Mpira", "lon": "30.1833333"}, {"lat": "-1.7863889", "city": "Mugambazi", "lon": "30.0480556"}, {"lat": "-1.7825", "city": "Mukuyu", "lon": "30.2180556"}, {"lat": "-2.05", "city": "Mulinja", "lon": "30.1166667"}, {"lat": "-1.8133333", "city": "Murambi", "lon": "30.0444444"}, {"lat": "-2.35", "city": "Murara", "lon": "30.1666667"}, {"lat": "-1.8002778", "city": "Musasa", "lon": "29.8394444"}, {"lat": "-1.9133333", "city": "Musave", "lon": "30.1725"}, {"lat": "-1.9236111", "city": "Musezero", "lon": "30.0691667"}, {"lat": "-2.25", "city": "Musumule", "lon": "30.1833333"}, {"lat": "-1.75", "city": "Mutambiko", "lon": "30.1833333"}, {"lat": "-1.85", "city": "Muvumu", "lon": "29.9166667"}, {"lat": "-1.9738889", "city": "Muyumbu", "lon": "30.255"}, {"lat": "-1.7166667", "city": "Mwendo", "lon": "30.2"}, {"lat": "-1.8", "city": "Mwishe", "lon": "30.0"}, {"lat": "-1.7333333", "city": "Mwite", "lon": "30.0"}, {"lat": "-1.7333333", "city": "Mwiviro", "lon": "30.2666667"}, {"lat": "-2.3", "city": "Myariro", "lon": "30.1666667"}, {"lat": "-1.9666667", "city": "Ndera", "lon": "30.1666667"}, {"lat": "-1.7166667", "city": "Ngange", "lon": "30.2333333"}, {"lat": "-2.305", "city": "Ngenda", "lon": "30.0494444"}, {"lat": "-2.3", "city": "Ngeruka", "lon": "30.15"}, {"lat": "-1.85", "city": "Ngiryi", "lon": "30.0833333"}, {"lat": "-1.8561111", "city": "Nguba", "lon": "30.1122222"}, {"lat": "-1.85", "city": "Ngyrgyi", "lon": "30.0833333"}, {"lat": "-1.8666667", "city": "Nkunzuzu", "lon": "30.1666667"}, {"lat": "-1.7833333", "city": "Ntarabana", "lon": "29.9166667"}, {"lat": "-2.0833333", "city": "Ntebe", "lon": "30.3"}, {"lat": "-2.0833333", "city": "Ntehe", "lon": "30.3"}, {"lat": "-1.7666667", "city": "Ntonde", "lon": "29.9333333"}, {"lat": "-1.8641667", "city": "Nyacyonga", "lon": "30.0866667"}, {"lat": "-1.8", "city": "Nyakabongo", "lon": "30.25"}, {"lat": "-1.8980556", "city": "Nyakabungo", "lon": "30.2325"}, {"lat": "-1.8011111", "city": "Nyakibande", "lon": "30.0355556"}, {"lat": "-1.9372222", "city": "Nyamabuye", "lon": "30.0361111"}, {"lat": "-1.9252778", "city": "Nyamugali", "lon": "30.0444444"}, {"lat": "-1.95", "city": "Nyamweru", "lon": "30.0166667"}, {"lat": "-1.7833333", "city": "Nyanza", "lon": "30.15"}, {"lat": "-1.9402778", "city": "Nyarugenge", "lon": "30.0652778"}, {"lat": "-2.4333333", "city": "Nyarurama", "lon": "30.1666667"}, {"lat": "-2.3666667", "city": "Nzangwa", "lon": "30.25"}, {"lat": "-1.8", "city": "Remera", "lon": "29.9833333"}, {"lat": "-1.8833333", "city": "Rimwe", "lon": "29.95"}, {"lat": "-1.7833333", "city": "Rubona", "lon": "29.8666667"}, {"lat": "-1.9458333", "city": "Rubungo", "lon": "30.1261111"}, {"lat": "-1.7", "city": "Rugaragara", "lon": "30.2166667"}, {"lat": "-1.7983333", "city": "Rugarama", "lon": "30.29"}, {"lat": "-1.9511111", "city": "Rugende", "lon": "30.2422222"}, {"lat": "-2.2833333", "city": "Rugenge", "lon": "30.2166667"}, {"lat": "-1.75", "city": "Ruhanga", "lon": "29.9166667"}, {"lat": "-1.7333333", "city": "Ruhanya", "lon": "29.9333333"}, {"lat": "-1.9641667", "city": "Ruharabuge", "lon": "30.0175"}, {"lat": "-1.6833333", "city": "Rukura", "lon": "29.8333333"}, {"lat": "-1.8833333", "city": "Runyinya", "lon": "30.3333333"}, {"lat": "-1.7330556", "city": "Rushashi", "lon": "29.8591667"}, {"lat": "-1.8166667", "city": "Rusiga", "lon": "29.9166667"}, {"lat": "-1.9738889", "city": "Rusororo", "lon": "30.2230556"}, {"lat": "-1.9", "city": "Rutonde", "lon": "29.9666667"}, {"lat": "-1.8666667", "city": "Rutondwe", "lon": "29.95"}, {"lat": "-1.8616667", "city": "Rutongo", "lon": "30.0383333"}, {"lat": "-1.7666667", "city": "Rwamiko", "lon": "30.2"}, {"lat": "-1.85", "city": "Rwani", "lon": "29.9333333"}, {"lat": "-1.75", "city": "Rwankuba", "lon": "29.8666667"}, {"lat": "-1.7333333", "city": "Rwarenga", "lon": "30.3369444"}, {"lat": "-1.7397222", "city": "Rwasama", "lon": "30.3033333"}, {"lat": "-1.8505556", "city": "Shango", "lon": "30.1338889"}, {"lat": "-1.8305556", "city": "Sha", "lon": "30.105"}, {"lat": "-1.85", "city": "Shenga", "lon": "30.2666667"}, {"lat": "-1.8544444", "city": "Shyorongi", "lon": "29.9625"}, {"lat": "-1.7833333", "city": "Tanda", "lon": "30.25"}, {"lat": "-1.7155556", "city": "Tare", "lon": "29.9144444"}, {"lat": "-2.1166667", "city": "Tshyugaro", "lon": "30.05"}], "10": [{"lat": "-1.4833333", "city": "Bisaga", "lon": "29.85"}, {"lat": "-1.4883333", "city": "Buberuka", "lon": "29.8352778"}, {"lat": "-1.6166667", "city": "Buhuga", "lon": "29.7333333"}, {"lat": "-1.45", "city": "Bukaragata", "lon": "29.8833333"}, {"lat": "-1.45", "city": "Bukarakata", "lon": "29.8833333"}, {"lat": "-1.6666667", "city": "Burega", "lon": "29.7"}, {"lat": "-1.5833333", "city": "Bushoka", "lon": "29.7333333"}, {"lat": "-1.7", "city": "Butambwe", "lon": "29.6666667"}, {"lat": "-1.4833333", "city": "Butandi", "lon": "29.9"}, {"lat": "-1.4", "city": "Butaro", "lon": "29.8333333"}, {"lat": "-1.3791667", "city": "Butete", "lon": "29.7358333"}, {"lat": "-1.4166667", "city": "Buyanga", "lon": "29.8166667"}, {"lat": "-1.65", "city": "Bwisha", "lon": "29.7333333"}, {"lat": "-1.4833333", "city": "Colline Bisaga", "lon": "29.85"}, {"lat": "-1.6166667", "city": "Colline Buhuga", "lon": "29.7333333"}, {"lat": "-1.45", "city": "Colline Bukaragata", "lon": "29.8833333"}, {"lat": "-1.6666667", "city": "Colline Burega", "lon": "29.7"}, {"lat": "-1.5833333", "city": "Colline Bushoka", "lon": "29.7333333"}, {"lat": "-1.7", "city": "Colline Butambwe", "lon": "29.6666667"}, {"lat": "-1.4833333", "city": "Colline Butandi", "lon": "29.9"}, {"lat": "-1.4", "city": "Colline Butaro", "lon": "29.8333333"}, {"lat": "-1.3791667", "city": "Colline Butete", "lon": "29.7358333"}, {"lat": "-1.4166667", "city": "Colline Buyanga", "lon": "29.8166667"}, {"lat": "-1.65", "city": "Colline Bwisha", "lon": "29.7333333"}, {"lat": "-1.5786111", "city": "Colline Cyabingo", "lon": "29.6888889"}, {"lat": "-1.4833333", "city": "Colline Cyuve", "lon": "29.65"}, {"lat": "-1.6494444", "city": "Colline Gahanga", "lon": "29.6355556"}, {"lat": "-1.65", "city": "Colline Gakenke", "lon": "29.6833333"}, {"lat": "-1.6833333", "city": "Colline Gako", "lon": "29.7833333"}, {"lat": "-1.45", "city": "Colline Gakoro", "lon": "29.7"}, {"lat": "-1.5", "city": "Colline Gasanze", "lon": "29.6666667"}, {"lat": "-1.55", "city": "Colline Gashaki", "lon": "29.75"}, {"lat": "-1.65", "city": "Colline Gashenye", "lon": "29.8333333"}, {"lat": "-1.4333333", "city": "Colline Gatete", "lon": "29.65"}, {"lat": "-1.6086111", "city": "Colline Gatovu", "lon": "29.5630556"}, {"lat": "-1.5755556", "city": "Colline Gicuba", "lon": "29.8680556"}, {"lat": "-1.4833333", "city": "Colline Giheta", "lon": "29.7"}, {"lat": "-1.4666667", "city": "Colline Gihora", "lon": "29.6"}, {"lat": "-1.7", "city": "Colline Gisanze", "lon": "29.6666667"}, {"lat": "-1.6333333", "city": "Colline Gisozi", "lon": "29.8"}, {"lat": "-1.4", "city": "Colline Gitare", "lon": "29.75"}, {"lat": "-1.6666667", "city": "Colline Gitenge", "lon": "29.8"}, {"lat": "-1.6166667", "city": "Colline Gitovu", "lon": "29.7833333"}, {"lat": "-1.5166667", "city": "Colline Gitwe", "lon": "29.8"}, {"lat": "-1.4833333", "city": "Colline Hakasiru", "lon": "29.9"}, {"lat": "-1.5833333", "city": "Colline Jomba", "lon": "29.7166667"}, {"lat": "-1.7", "city": "Colline Kabingo", "lon": "29.65"}, {"lat": "-1.4166667", "city": "Colline Kabyaza", "lon": "29.85"}, {"lat": "-1.6333333", "city": "Colline Karambo", "lon": "29.8333333"}, {"lat": "-1.37", "city": "Colline Kidaho", "lon": "29.7425"}, {"lat": "-1.5694444", "city": "Colline Kiganda", "lon": "29.6755556"}, {"lat": "-1.5333333", "city": "Colline Kigasa", "lon": "29.5666667"}, {"lat": "-1.45", "city": "Colline Kinigi", "lon": "29.5666667"}, {"lat": "-1.55", "city": "Colline Kinihira", "lon": "29.7833333"}, {"lat": "-1.3833333", "city": "Colline Kinyababa", "lon": "29.8"}, {"lat": "-1.65", "city": "Colline Kinyoma", "lon": "29.8166667"}, {"lat": "-1.7166667", "city": "Colline Kiraro", "lon": "29.6333333"}, {"lat": "-1.5333333", "city": "Colline Kiryi", "lon": "29.65"}, {"lat": "-1.6", "city": "Colline Kivumu", "lon": "29.8666667"}, {"lat": "-1.55", "city": "Colline Mararo", "lon": "29.55"}, {"lat": "-1.4333333", "city": "Colline Maya", "lon": "29.6833333"}, {"lat": "-1.5833333", "city": "Colline Mugamba", "lon": "29.7833333"}, {"lat": "-1.5166667", "city": "Colline Muhororo", "lon": "29.7166667"}, {"lat": "-1.6", "city": "Colline Muramba", "lon": "29.6833333"}, {"lat": "-1.6333333", "city": "Colline Murambi", "lon": "29.8333333"}, {"lat": "-1.55", "city": "Colline Murandi", "lon": "29.7333333"}, {"lat": "-1.3833333", "city": "Colline Musama", "lon": "29.85"}, {"lat": "-1.5833333", "city": "Colline Musebeya", "lon": "29.6833333"}, {"lat": "-1.7333333", "city": "Colline Mutego", "lon": "29.65"}, {"lat": "-1.6333333", "city": "Colline Mwendo", "lon": "29.7166667"}, {"lat": "-1.55", "city": "Colline Nemba", "lon": "29.85"}, {"lat": "-1.65", "city": "Colline Nganzo", "lon": "29.75"}, {"lat": "-1.55", "city": "Colline Ngoma", "lon": "29.8"}, {"lat": "-1.35", "city": "Colline Nyagasozi", "lon": "29.75"}, {"lat": "-1.5833333", "city": "Colline Nyakayogera", "lon": "29.8666667"}, {"lat": "-1.45", "city": "Colline Nyarugina", "lon": "29.55"}, {"lat": "-1.4833333", "city": "Colline Nyarungu", "lon": "29.8166667"}, {"lat": "-1.6", "city": "Colline Nyarutembe", "lon": "29.6166667"}, {"lat": "-1.6166667", "city": "Colline Nyonilima", "lon": "29.6666667"}, {"lat": "-1.5666667", "city": "Colline Rubaka", "lon": "29.5333333"}, {"lat": "-1.7", "city": "Colline Rubeja", "lon": "29.6833333"}, {"lat": "-1.5333333", "city": "Colline Rubona", "lon": "29.8666667"}, {"lat": "-1.4", "city": "Colline Rugarama", "lon": "29.7333333"}, {"lat": "-1.5166667", "city": "Colline Rugari", "lon": "29.85"}, {"lat": "-1.6333333", "city": "Colline Rugendabari", "lon": "29.5833333"}, {"lat": "-1.6333333", "city": "Colline Rugera", "lon": "29.6166667"}, {"lat": "-1.4833333", "city": "Colline Ruhanga", "lon": "29.8333333"}, {"lat": "-1.4833333", "city": "Colline Ruhengeri", "lon": "29.6166667"}, {"lat": "-1.6166667", "city": "Colline Ruhinga", "lon": "29.75"}, {"lat": "-1.4666667", "city": "Colline Ruhurura", "lon": "29.85"}, {"lat": "-1.6166667", "city": "Colline Rukoma", "lon": "29.5166667"}, {"lat": "-1.45", "city": "Colline Rukona", "lon": "29.65"}, {"lat": "-1.45", "city": "Colline Rukoro", "lon": "29.65"}, {"lat": "-1.7333333", "city": "Colline Runyinya", "lon": "29.6833333"}, {"lat": "-1.6333333", "city": "Colline Rusasa", "lon": "29.6666667"}, {"lat": "-1.5666667", "city": "Colline Rusayo", "lon": "29.7333333"}, {"lat": "-1.6333333", "city": "Colline Rusebeya", "lon": "29.6833333"}, {"lat": "-1.5666667", "city": "Colline Rushari", "lon": "29.85"}, {"lat": "-1.7166667", "city": "Colline Rusoro", "lon": "29.6666667"}, {"lat": "-1.4166667", "city": "Colline Rutamba", "lon": "29.7166667"}, {"lat": "-1.5", "city": "Colline Ruyange", "lon": "29.8166667"}, {"lat": "-1.65", "city": "Colline Rwakirari", "lon": "29.75"}, {"lat": "-1.6", "city": "Colline Rwankeri", "lon": "29.5333333"}, {"lat": "-1.5166667", "city": "Colline Ryandinzi", "lon": "29.75"}, {"lat": "-1.5833333", "city": "Colline Songa", "lon": "29.65"}, {"lat": "-1.6333333", "city": "Colline Taba", "lon": "29.5833333"}, {"lat": "-1.5786111", "city": "Cyabingo", "lon": "29.6888889"}, {"lat": "-1.4880556", "city": "Cyeru", "lon": "29.8130556"}, {"lat": "-1.4833333", "city": "Cyuve", "lon": "29.65"}, {"lat": "-1.4855556", "city": "Gacundura", "lon": "29.8491667"}, {"lat": "-1.6494444", "city": "Gahanga", "lon": "29.6355556"}, {"lat": "-1.65", "city": "Gakenke", "lon": "29.6833333"}, {"lat": "-1.6833333", "city": "Gako", "lon": "29.7833333"}, {"lat": "-1.45", "city": "Gakoro", "lon": "29.7"}, {"lat": "-1.5", "city": "Gasanze", "lon": "29.6666667"}, {"lat": "-1.55", "city": "Gashaki", "lon": "29.75"}, {"lat": "-1.65", "city": "Gashenye", "lon": "29.8333333"}, {"lat": "-1.4333333", "city": "Gatete", "lon": "29.65"}, {"lat": "-1.6541667", "city": "Gatonde", "lon": "29.6694444"}, {"lat": "-1.6086111", "city": "Gatovu", "lon": "29.5630556"}, {"lat": "-1.4338889", "city": "Gaziza", "lon": "29.6483333"}, {"lat": "-1.5755556", "city": "Gicuba", "lon": "29.8680556"}, {"lat": "-1.4833333", "city": "Giheta", "lon": "29.7"}, {"lat": "-1.4666667", "city": "Gihora", "lon": "29.6"}, {"lat": "-1.7", "city": "Gisanze", "lon": "29.6666667"}, {"lat": "-1.6333333", "city": "Gisozi", "lon": "29.8"}, {"lat": "-1.4", "city": "Gitare", "lon": "29.75"}, {"lat": "-1.6666667", "city": "Gitenge", "lon": "29.8"}, {"lat": "-1.6166667", "city": "Gitovu", "lon": "29.7833333"}, {"lat": "-1.5166667", "city": "Gitwe", "lon": "29.8"}, {"lat": "-1.4833333", "city": "Hakasiru", "lon": "29.9"}, {"lat": "-1.5833333", "city": "Jomba", "lon": "29.7166667"}, {"lat": "-1.7", "city": "Kabingo", "lon": "29.65"}, {"lat": "-1.3975", "city": "Kabutindi", "lon": "29.7086111"}, {"lat": "-1.4166667", "city": "Kabyaza", "lon": "29.85"}, {"lat": "-1.3922222", "city": "Kademero", "lon": "29.8297222"}, {"lat": "-1.6333333", "city": "Karambo", "lon": "29.8333333"}, {"lat": "-1.37", "city": "Kidaho", "lon": "29.7425"}, {"lat": "-1.5694444", "city": "Kiganda", "lon": "29.6755556"}, {"lat": "-1.5333333", "city": "Kigasa", "lon": "29.5666667"}, {"lat": "-1.4833333", "city": "Kigombe", "lon": "29.6477778"}, {"lat": "-1.4466667", "city": "Kinigi", "lon": "29.6166667"}, {"lat": "-1.55", "city": "Kinihara", "lon": "29.7833333"}, {"lat": "-1.55", "city": "Kinihira", "lon": "29.7833333"}, {"lat": "-1.3833333", "city": "Kinyababa", "lon": "29.8"}, {"lat": "-1.65", "city": "Kinyoma", "lon": "29.8166667"}, {"lat": "-1.7166667", "city": "Kiraro", "lon": "29.6333333"}, {"lat": "-1.5333333", "city": "Kiryi", "lon": "29.65"}, {"lat": "-1.6", "city": "Kivumu", "lon": "29.8666667"}, {"lat": "-1.6333333", "city": "Lugera", "lon": "29.6166667"}, {"lat": "-1.55", "city": "Mararo", "lon": "29.55"}, {"lat": "-1.4333333", "city": "Maya", "lon": "29.6833333"}, {"lat": "-1.55", "city": "Mont Rubona", "lon": "29.8833333"}, {"lat": "-1.5833333", "city": "Mugamba", "lon": "29.7833333"}, {"lat": "-1.5666667", "city": "Muhorora", "lon": "29.7"}, {"lat": "-1.5166667", "city": "Muhororo", "lon": "29.7166667"}, {"lat": "-1.5369444", "city": "Mukingo", "lon": "29.5633333"}, {"lat": "-1.6", "city": "Muramba", "lon": "29.6833333"}, {"lat": "-1.6333333", "city": "Murambi", "lon": "29.8333333"}, {"lat": "-1.55", "city": "Murandi", "lon": "29.7333333"}, {"lat": "-1.3833333", "city": "Musama", "lon": "29.85"}, {"lat": "-1.5833333", "city": "Musebeya", "lon": "29.6833333"}, {"lat": "-1.7333333", "city": "Mutego", "lon": "29.65"}, {"lat": "-1.6333333", "city": "Mwendo", "lon": "29.7166667"}, {"lat": "-1.4058333", "city": "Mweru", "lon": "29.7369444"}, {"lat": "-1.6975", "city": "Ndusu", "lon": "29.6705556"}, {"lat": "-1.55", "city": "Nemba", "lon": "29.85"}, {"lat": "-1.65", "city": "Nganzo", "lon": "29.75"}, {"lat": "-1.55", "city": "Ngoma", "lon": "29.8"}, {"lat": "-1.5919444", "city": "Nkuli", "lon": "29.5263889"}, {"lat": "-1.4405556", "city": "Nkumba", "lon": "29.7094444"}, {"lat": "-1.35", "city": "Nyagasozi", "lon": "29.75"}, {"lat": "-1.5833333", "city": "Nyakayogera", "lon": "29.8666667"}, {"lat": "-1.5727778", "city": "Nyakinama", "lon": "29.6416667"}, {"lat": "-1.4075", "city": "Nyamigogo", "lon": "29.6816667"}, {"lat": "-1.5711111", "city": "Nyamugali", "lon": "29.8702778"}, {"lat": "-1.6208333", "city": "Nyamutera", "lon": "29.6316667"}, {"lat": "-1.45", "city": "Nyarugina", "lon": "29.55"}, {"lat": "-1.4833333", "city": "Nyarungu", "lon": "29.8166667"}, {"lat": "-1.6", "city": "Nyarutembe", "lon": "29.6166667"}, {"lat": "-1.6455556", "city": "Nyarutovu", "lon": "29.7708333"}, {"lat": "-1.6166667", "city": "Nyonilima", "lon": "29.6666667"}, {"lat": "-1.5666667", "city": "Rubaka", "lon": "29.5333333"}, {"lat": "-1.7", "city": "Rubeja", "lon": "29.6833333"}, {"lat": "-1.5333333", "city": "Rubona", "lon": "29.8666667"}, {"lat": "-1.4", "city": "Rugarama", "lon": "29.7333333"}, {"lat": "-1.5166667", "city": "Rugari", "lon": "29.85"}, {"lat": "-1.6333333", "city": "Rugendabari", "lon": "29.5833333"}, {"lat": "-1.6333333", "city": "Rugera", "lon": "29.6166667"}, {"lat": "-1.4833333", "city": "Ruhanga", "lon": "29.8333333"}, {"lat": "-1.4833333", "city": "Ruhengeri", "lon": "29.6166667"}, {"lat": "-1.6166667", "city": "Ruhinga", "lon": "29.75"}, {"lat": "-1.5291667", "city": "Ruhondo", "lon": "29.7244444"}, {"lat": "-1.4666667", "city": "Ruhurura", "lon": "29.85"}, {"lat": "-1.6166667", "city": "Rukoma", "lon": "29.5166667"}, {"lat": "-1.45", "city": "Rukona", "lon": "29.65"}, {"lat": "-1.5666667", "city": "Rukoro", "lon": "29.6333333"}, {"lat": "-1.7333333", "city": "Runyinya", "lon": "29.6833333"}, {"lat": "-1.6333333", "city": "Rusasa", "lon": "29.6666667"}, {"lat": "-1.5666667", "city": "Rusayo", "lon": "29.7333333"}, {"lat": "-1.6333333", "city": "Rusebeya", "lon": "29.6833333"}, {"lat": "-1.5666667", "city": "Rushari", "lon": "29.85"}, {"lat": "-1.7166667", "city": "Rusoro", "lon": "29.6666667"}, {"lat": "-1.4166667", "city": "Rutamba", "lon": "29.7166667"}, {"lat": "-1.5", "city": "Ruyange", "lon": "29.8166667"}, {"lat": "-1.65", "city": "Rwakirari", "lon": "29.75"}, {"lat": "-1.6", "city": "Rwankeri", "lon": "29.5333333"}, {"lat": "-1.5166667", "city": "Ryandinzi", "lon": "29.75"}, {"lat": "-1.5833333", "city": "Songa", "lon": "29.65"}, {"lat": "-1.6333333", "city": "Taba", "lon": "29.5833333"}, {"lat": "-1.55", "city": "Tandalukara", "lon": "29.8666667"}]}}