{"SD": {"": [{"lat": "17.2519444", "city": "Kajra", "lon": "34.4880556"}], "56": [{"lat": "13.1833333", "city": "Al Obayyid", "lon": "30.2166667"}, {"lat": "13.1833333", "city": "Al-`Ob\u00ead", "lon": "30.2166667"}, {"lat": "13.1833333", "city": "Al Ubayd", "lon": "30.2166667"}, {"lat": "13.1833333", "city": "Al Ubayyid", "lon": "30.2166667"}, {"lat": "13.1833333", "city": "El Obeid", "lon": "30.2166667"}, {"lat": "13.1833333", "city": "El Ubeiyad", "lon": "30.2166667"}, {"lat": "13.1833333", "city": "`Ub\u00ead", "lon": "30.2166667"}], "37": [{"lat": "6.2630556", "city": "Abiem", "lon": "31.1741667"}, {"lat": "6.1552778", "city": "Adol", "lon": "31.7269444"}, {"lat": "6.7305556", "city": "Adundut", "lon": "31.1616667"}, {"lat": "6.1472222", "city": "Aeng", "lon": "31.3305556"}, {"lat": "6.0438889", "city": "Agol", "lon": "31.3855556"}, {"lat": "6.1177778", "city": "Agorogwor", "lon": "31.1355556"}, {"lat": "6.8469444", "city": "Ajak Bikr", "lon": "31.3047222"}, {"lat": "6.3536111", "city": "Akwak", "lon": "31.4591667"}, {"lat": "6.1219444", "city": "Alul", "lon": "31.0408333"}, {"lat": "6.0972222", "city": "Anyat", "lon": "31.0408333"}, {"lat": "6.6044444", "city": "Anyei", "lon": "31.0136111"}, {"lat": "6.2436111", "city": "Areit", "lon": "31.5555556"}, {"lat": "6.3502778", "city": "Arer", "lon": "31.3691667"}, {"lat": "6.6386111", "city": "Atitwi", "lon": "31.0013889"}, {"lat": "6.0908333", "city": "Awau", "lon": "31.5330556"}, {"lat": "6.1816667", "city": "Aynyadi", "lon": "31.8125"}, {"lat": "6.1291667", "city": "Bafa", "lon": "31.3122222"}, {"lat": "6.4569444", "city": "Baidit", "lon": "31.5480556"}, {"lat": "6.1544444", "city": "Bakchien", "lon": "31.3597222"}, {"lat": "6.15", "city": "Bunagok", "lon": "31.0"}, {"lat": "6.5972222", "city": "Buol", "lon": "31.0658333"}, {"lat": "6.4227778", "city": "Bur Pini", "lon": "31.3713889"}, {"lat": "6.4430556", "city": "Chayol", "lon": "31.3616667"}, {"lat": "6.3936111", "city": "Dari", "lon": "31.5313889"}, {"lat": "6.3936111", "city": "Darri", "lon": "31.5313889"}, {"lat": "6.1552778", "city": "Deng Shol", "lon": "31.7269444"}, {"lat": "6.0961111", "city": "Dolinom", "lon": "31.3366667"}, {"lat": "6.0986111", "city": "Gak", "lon": "31.0063889"}, {"lat": "6.0705556", "city": "Gejang", "lon": "31.2761111"}, {"lat": "6.0822222", "city": "Gwalgo", "lon": "31.09"}, {"lat": "6.1905556", "city": "Jerweng", "lon": "31.1819444"}, {"lat": "6.1869444", "city": "Jier", "lon": "31.0030556"}, {"lat": "6.8469444", "city": "Jonglie", "lon": "31.3047222"}, {"lat": "6.4691667", "city": "Jungun", "lon": "31.3380556"}, {"lat": "6.8469444", "city": "Junqali", "lon": "31.3047222"}, {"lat": "6.8469444", "city": "Junqoley", "lon": "31.3047222"}, {"lat": "6.0483333", "city": "Komngol", "lon": "31.3527778"}, {"lat": "6.2258333", "city": "Kuidko", "lon": "31.7036111"}, {"lat": "5.8863889", "city": "Kuku", "lon": "31.6855556"}, {"lat": "5.8941667", "city": "Kullum", "lon": "31.6833333"}, {"lat": "6.8375", "city": "Kwat Nguk", "lon": "31.0775"}, {"lat": "6.8544444", "city": "Kwech", "lon": "31.0227778"}, {"lat": "6.3063889", "city": "Lang", "lon": "31.3180556"}, {"lat": "6.5566667", "city": "Lual", "lon": "31.1241667"}, {"lat": "6.2227778", "city": "Mading", "lon": "31.5727778"}, {"lat": "6.5541667", "city": "Maiyen", "lon": "31.1577778"}, {"lat": "6.3958333", "city": "Maker", "lon": "31.1847222"}, {"lat": "6.1172222", "city": "Makeyr", "lon": "31.0941667"}, {"lat": "6.1533333", "city": "Makjokoy", "lon": "31.7577778"}, {"lat": "6.1386111", "city": "Makoy", "lon": "31.2922222"}, {"lat": "6.4716667", "city": "Malek", "lon": "31.1661111"}, {"lat": "6.1822222", "city": "Mallid", "lon": "31.7475"}, {"lat": "6.5541667", "city": "Maryen", "lon": "31.1577778"}, {"lat": "6.5541667", "city": "Mayen", "lon": "31.1577778"}, {"lat": "6.1183333", "city": "Melwal", "lon": "31.5811111"}, {"lat": "6.1397222", "city": "Merchek", "lon": "31.0308333"}, {"lat": "6.0591667", "city": "Minkamman", "lon": "31.5519444"}, {"lat": "6.3869444", "city": "Nagak", "lon": "31.3661111"}, {"lat": "6.5038889", "city": "Nguenak", "lon": "31.2030556"}, {"lat": "6.5038889", "city": "Ngwenak", "lon": "31.2030556"}, {"lat": "6.4472222", "city": "Nkhomalek", "lon": "31.2013889"}, {"lat": "6.1613889", "city": "Nyang Long", "lon": "31.4144444"}, {"lat": "6.585", "city": "Pabuop", "lon": "31.3033333"}, {"lat": "6.5372222", "city": "Pagach", "lon": "31.3238889"}, {"lat": "6.2772222", "city": "Pagolong", "lon": "31.2997222"}, {"lat": "6.1383333", "city": "Pakowor", "lon": "31.1566667"}, {"lat": "6.6366667", "city": "Paliol", "lon": "31.2625"}, {"lat": "6.2813889", "city": "Panbol", "lon": "31.3144444"}, {"lat": "6.3219444", "city": "Paniardian", "lon": "31.0611111"}, {"lat": "6.5677778", "city": "Panjey", "lon": "31.1136111"}, {"lat": "6.5997222", "city": "Pan Pet", "lon": "31.2713889"}, {"lat": "6.6197222", "city": "Panyang Luel", "lon": "31.25"}, {"lat": "6.5066667", "city": "Papiu", "lon": "31.3302778"}, {"lat": "6.5066667", "city": "Papu", "lon": "31.3302778"}, {"lat": "6.1802778", "city": "Pateroping", "lon": "31.7822222"}, {"lat": "6.6419444", "city": "Patiang Chot", "lon": "31.2552778"}, {"lat": "6.7872222", "city": "Patuor", "lon": "31.1025"}, {"lat": "6.1561111", "city": "Pomarini", "lon": "31.4786111"}, {"lat": "6.5613889", "city": "Rel Ngong", "lon": "31.3033333"}, {"lat": "6.8", "city": "Rumbek", "lon": "29.6833333"}, {"lat": "6.3161111", "city": "Tarerau", "lon": "31.4113889"}, {"lat": "6.9861111", "city": "Tarkwem", "lon": "31.2844444"}, {"lat": "6.3775", "city": "Tior", "lon": "31.1791667"}, {"lat": "6.1205556", "city": "Wanarah", "lon": "31.2330556"}, {"lat": "6.1508333", "city": "Werre", "lon": "31.1205556"}, {"lat": "6.1205556", "city": "Wunarah", "lon": "31.2330556"}, {"lat": "6.0072222", "city": "Wunattau", "lon": "31.53"}, {"lat": "6.0230556", "city": "Wunbar", "lon": "31.4177778"}, {"lat": "6.3366667", "city": "Wunchwey", "lon": "31.3327778"}, {"lat": "6.3130556", "city": "Wun Dot", "lon": "31.3319444"}, {"lat": "6.2341667", "city": "Wuntut", "lon": "31.2961111"}], "45": [{"lat": "4.5705556", "city": "Yambio", "lon": "28.4163889"}, {"lat": "4.5705556", "city": "Yambiyo", "lon": "28.4163889"}], "43": [{"lat": "19.1666667", "city": "Dongola", "lon": "30.4833333"}, {"lat": "19.1666667", "city": "Donkola", "lon": "30.4833333"}, {"lat": "19.1666667", "city": "Donqola", "lon": "30.4833333"}, {"lat": "19.1666667", "city": "Dunkula", "lon": "30.4833333"}, {"lat": "19.1666667", "city": "Dunqulah", "lon": "30.4833333"}], "35": [{"lat": "9.5369444", "city": "Malakal", "lon": "31.6561111"}, {"lat": "16.6319444", "city": "Qoz El Motraq", "lon": "33.2347222"}], "52": [{"lat": "15.4558333", "city": "Cassala", "lon": "36.3988889"}, {"lat": "15.4558333", "city": "Kasala", "lon": "36.3988889"}, {"lat": "15.4558333", "city": "Kassala", "lon": "36.3988889"}], "26": [{"lat": "10.3", "city": "Abaiat", "lon": "32.55"}, {"lat": "10.05", "city": "Abaj", "lon": "32.5666667"}, {"lat": "9.2166667", "city": "Aballi", "lon": "33.8333333"}, {"lat": "9.7402778", "city": "Abarnima", "lon": "31.9366667"}, {"lat": "10.3", "city": "Abayat", "lon": "32.55"}, {"lat": "10.3", "city": "Abayath", "lon": "32.55"}, {"lat": "11.75", "city": "Abbeit", "lon": "32.8166667"}, {"lat": "10.2166667", "city": "`Abd ar Rijal", "lon": "33.2"}, {"lat": "10.2166667", "city": "`Abd er Rigal", "lon": "33.2"}, {"lat": "9.3333333", "city": "Abemnom", "lon": "28.9166667"}, {"lat": "10.1166667", "city": "Abiagyai", "lon": "32.2666667"}, {"lat": "10.1166667", "city": "Abiangyai", "lon": "32.2666667"}, {"lat": "10.1166667", "city": "Abiayai", "lon": "32.2666667"}, {"lat": "9.3333333", "city": "Abiemnom", "lon": "28.9166667"}, {"lat": "10.1166667", "city": "Abiengyai", "lon": "32.0833333"}, {"lat": "10.3", "city": "Abu Daqn", "lon": "33.3833333"}, {"lat": "10.3", "city": "Abu Diqn", "lon": "33.3833333"}, {"lat": "10.05", "city": "Abuj", "lon": "32.5666667"}, {"lat": "9.3555556", "city": "Abujon", "lon": "31.5163889"}, {"lat": "9.3683333", "city": "Abujop", "lon": "31.4663889"}, {"lat": "10.4833333", "city": "Abu Khamira", "lon": "33.2166667"}, {"lat": "10.4833333", "city": "Abu Khamirah", "lon": "33.2166667"}, {"lat": "9.95", "city": "Abuoy", "lon": "30.15"}, {"lat": "11.9", "city": "Abu Shalaya", "lon": "32.95"}, {"lat": "9.4527778", "city": "Abu Tong", "lon": "31.1430556"}, {"lat": "6.9730556", "city": "Abwong", "lon": "31.1291667"}, {"lat": "9.1166667", "city": "Abwonq", "lon": "32.2"}, {"lat": "9.1", "city": "Achel", "lon": "32.3666667"}, {"lat": "6.5666667", "city": "Achol", "lon": "31.5166667"}, {"lat": "9.5786111", "city": "Achop", "lon": "31.6669444"}, {"lat": "9.9333333", "city": "Achung", "lon": "32.0333333"}, {"lat": "9.8666667", "city": "Achwil", "lon": "32.15"}, {"lat": "9.5902778", "city": "Adado", "lon": "31.6225"}, {"lat": "10.9", "city": "Adal", "lon": "32.5166667"}, {"lat": "10.0166667", "city": "Adaudo Nyerur", "lon": "32.0666667"}, {"lat": "10.75", "city": "Adeiri", "lon": "32.35"}, {"lat": "6.5833333", "city": "Adet", "lon": "31.55"}, {"lat": "8.5369444", "city": "Ad Fakwan", "lon": "30.6536111"}, {"lat": "9.3955556", "city": "Adidiang Paych", "lon": "31.5411111"}, {"lat": "9.455", "city": "Adodo", "lon": "31.6488889"}, {"lat": "8.1833333", "city": "Adok", "lon": "30.3166667"}, {"lat": "8.9333333", "city": "Adong", "lon": "31.9833333"}, {"lat": "8.1833333", "city": "Aduk", "lon": "30.3166667"}, {"lat": "9.3636111", "city": "Adwojo", "lon": "31.4488889"}, {"lat": "9.3055556", "city": "Adwor", "lon": "31.7580556"}, {"lat": "8.4666667", "city": "Again", "lon": "29.9166667"}, {"lat": "9.3266667", "city": "Againg", "lon": "31.5041667"}, {"lat": "11.0166667", "city": "Agalak", "lon": "32.7"}, {"lat": "9.6333333", "city": "Agarak", "lon": "30.1333333"}, {"lat": "9.5666667", "city": "Agat", "lon": "32.1333333"}, {"lat": "9.7447222", "city": "Agodo", "lon": "31.8802778"}, {"lat": "10.2333333", "city": "Agor", "lon": "32.65"}, {"lat": "10.2333333", "city": "Agor Dit", "lon": "32.7166667"}, {"lat": "10.2333333", "city": "Agor Ti", "lon": "32.65"}, {"lat": "6.8166667", "city": "Aguatta", "lon": "34.5666667"}, {"lat": "9.3783333", "city": "Agugo", "lon": "31.51"}, {"lat": "11.7", "city": "Agum", "lon": "32.8666667"}, {"lat": "9.35", "city": "Agungok", "lon": "31.4333333"}, {"lat": "6.8166667", "city": "Agwetta", "lon": "34.5666667"}, {"lat": "9.9666667", "city": "Agyagya", "lon": "33.8666667"}, {"lat": "9.1666667", "city": "Ahmad `Arabi", "lon": "29.8166667"}, {"lat": "9.1666667", "city": "Ahmed `Arabi", "lon": "29.8166667"}, {"lat": "7.5333333", "city": "Aiweng", "lon": "31.4"}, {"lat": "10.75", "city": "Aiyota", "lon": "32.6666667"}, {"lat": "9.1183333", "city": "Aiyot", "lon": "31.6458333"}, {"lat": "9.3666667", "city": "Aiyung", "lon": "32.4666667"}, {"lat": "9.3636111", "city": "Ajaugo", "lon": "31.4488889"}, {"lat": "7.0", "city": "Ajibja", "lon": "31.3833333"}, {"lat": "9.2166667", "city": "Ajijo", "lon": "33.8333333"}, {"lat": "10.4166667", "city": "Ajingel", "lon": "32.5666667"}, {"lat": "7.4666667", "city": "Ajuini", "lon": "31.4166667"}, {"lat": "8.45", "city": "Ajungmir", "lon": "33.1833333"}, {"lat": "7.1166667", "city": "Ajwara", "lon": "33.9833333"}, {"lat": "8.7333333", "city": "Akai", "lon": "31.1"}, {"lat": "9.2333333", "city": "Akait", "lon": "29.6166667"}, {"lat": "6.8333333", "city": "Akelo", "lon": "33.6666667"}, {"lat": "7.7833333", "city": "Akobo", "lon": "33.0166667"}, {"lat": "7.7833333", "city": "Akobo Post", "lon": "33.0166667"}, {"lat": "9.7333333", "city": "Akoke", "lon": "32.1833333"}, {"lat": "7.9833333", "city": "Akola", "lon": "33.0333333"}, {"lat": "9.7", "city": "Akoraweng", "lon": "32.35"}, {"lat": "10.7166667", "city": "Akorwen", "lon": "32.7833333"}, {"lat": "10.7166667", "city": "Akorwet", "lon": "32.7833333"}, {"lat": "10.4833333", "city": "Akot", "lon": "32.4833333"}, {"lat": "6.9919444", "city": "Akowit", "lon": "31.0569444"}, {"lat": "7.7833333", "city": "Akubu", "lon": "33.0166667"}, {"lat": "10.5333333", "city": "Akurkwa", "lon": "32.1166667"}, {"lat": "10.5333333", "city": "Akurwa", "lon": "32.1166667"}, {"lat": "10.8166667", "city": "Akwaiya", "lon": "32.4"}, {"lat": "10.3833333", "city": "Akwaj", "lon": "32.6166667"}, {"lat": "9.0666667", "city": "Akwot", "lon": "32.4"}, {"lat": "11.9", "city": "Al `Alali", "lon": "32.9666667"}, {"lat": "10.4166667", "city": "Al Amin", "lon": "33.1666667"}, {"lat": "7.7166667", "city": "Alanga", "lon": "33.0666667"}, {"lat": "10.0", "city": "Alangalang", "lon": "29.9666667"}, {"lat": "9.65", "city": "Al `Ara'ish", "lon": "30.8666667"}, {"lat": "11.4", "city": "Alek", "lon": "32.7333333"}, {"lat": "9.4444444", "city": "Alel", "lon": "31.6411111"}, {"lat": "10.8666667", "city": "Al Guroh", "lon": "32.3333333"}, {"lat": "11.9166667", "city": "Al Habilah", "lon": "33.0"}, {"lat": "8.1833333", "city": "Aliab Dok", "lon": "30.3166667"}, {"lat": "6.5833333", "city": "Aliang", "lon": "31.5166667"}, {"lat": "9.9833333", "city": "Allah Gabo", "lon": "33.8166667"}, {"lat": "9.9833333", "city": "Allah Gabu", "lon": "33.8166667"}, {"lat": "9.9833333", "city": "Allah Jabu", "lon": "33.8166667"}, {"lat": "11.8833333", "city": "Al Mushash", "lon": "32.95"}, {"lat": "11.9833333", "city": "Al Qayqar", "lon": "32.7666667"}, {"lat": "11.9833333", "city": "Al Qeqar", "lon": "32.7666667"}, {"lat": "10.2833333", "city": "Al Qurdud", "lon": "29.9666667"}, {"lat": "9.8833333", "city": "Amairial", "lon": "32.1833333"}, {"lat": "9.2297222", "city": "Angay", "lon": "31.3775"}, {"lat": "9.7666667", "city": "Angeich", "lon": "30.2166667"}, {"lat": "9.1666667", "city": "Angnor", "lon": "31.6"}, {"lat": "10.9333333", "city": "Angok", "lon": "32.7166667"}, {"lat": "9.3247222", "city": "Anialbong", "lon": "31.4738889"}, {"lat": "8.6", "city": "An Nasir", "lon": "33.0666667"}, {"lat": "11.2833333", "city": "Anok", "lon": "32.7"}, {"lat": "10.85", "city": "Anunbul", "lon": "32.5166667"}, {"lat": "10.3833333", "city": "Anyoka", "lon": "32.55"}, {"lat": "6.7333333", "city": "Apati", "lon": "33.0666667"}, {"lat": "9.2666667", "city": "Apida", "lon": "33.7833333"}, {"lat": "10.25", "city": "Aqordit", "lon": "33.1666667"}, {"lat": "9.35", "city": "Aqungok", "lon": "31.4333333"}, {"lat": "11.85", "city": "Arbeit", "lon": "32.8"}, {"lat": "10.7333333", "city": "Arei", "lon": "32.7166667"}, {"lat": "10.0833333", "city": "Arer", "lon": "32.5833333"}, {"lat": "11.75", "city": "Ar Rank", "lon": "32.8"}, {"lat": "9.8666667", "city": "Aruch", "lon": "30.1666667"}, {"lat": "9.8666667", "city": "Aruich", "lon": "30.1666667"}, {"lat": "10.4", "city": "Arumbwot", "lon": "32.2166667"}, {"lat": "9.1", "city": "Ashel", "lon": "32.3666667"}, {"lat": "10.5166667", "city": "As Si`da", "lon": "33.3666667"}, {"lat": "10.4", "city": "`Ata el Mannan", "lon": "33.1833333"}, {"lat": "10.85", "city": "Atai", "lon": "32.4666667"}, {"lat": "10.1", "city": "Atara", "lon": "32.0666667"}, {"lat": "9.3386111", "city": "Atar", "lon": "31.4063889"}, {"lat": "6.7666667", "city": "Atcherah", "lon": "33.0666667"}, {"lat": "6.2630556", "city": "Atet", "lon": "31.7325"}, {"lat": "9.6333333", "city": "Atietit", "lon": "32.3166667"}, {"lat": "9.85", "city": "Atingrur", "lon": "30.3"}, {"lat": "8.95", "city": "Atoing", "lon": "32.1666667"}, {"lat": "10.3833333", "city": "Atonj", "lon": "32.5166667"}, {"lat": "9.47", "city": "Attigu", "lon": "31.0536111"}, {"lat": "9.7783333", "city": "Atuki", "lon": "31.9147222"}, {"lat": "10.6833333", "city": "Aturok", "lon": "32.6833333"}, {"lat": "10.6833333", "city": "Aturuk", "lon": "32.6833333"}, {"lat": "9.8333333", "city": "Atyoptyop", "lon": "32.1333333"}, {"lat": "9.3", "city": "Au'u", "lon": "33.7166667"}, {"lat": "9.2166667", "city": "Auyeir", "lon": "32.1666667"}, {"lat": "6.1027778", "city": "Awan", "lon": "31.7994444"}, {"lat": "9.5791667", "city": "Awangaling", "lon": "31.6216667"}, {"lat": "9.4491667", "city": "Awaw", "lon": "31.5752778"}, {"lat": "9.45", "city": "Aweragor", "lon": "28.8666667"}, {"lat": "10.35", "city": "Awet Shol", "lon": "32.2333333"}, {"lat": "9.7", "city": "Awolabul", "lon": "30.2"}, {"lat": "10.9833333", "city": "Aworo Kit", "lon": "32.6333333"}, {"lat": "9.8333333", "city": "Awulu", "lon": "30.1666667"}, {"lat": "10.45", "city": "Ayau", "lon": "32.6166667"}, {"lat": "9.1183333", "city": "Ayiot", "lon": "31.6458333"}, {"lat": "8.1166667", "city": "Ayod", "lon": "31.4333333"}, {"lat": "7.6666667", "city": "Ayom", "lon": "31.8833333"}, {"lat": "9.5719444", "city": "Ayowangen", "lon": "31.6652778"}, {"lat": "9.9", "city": "Babei", "lon": "32.1166667"}, {"lat": "10.1", "city": "Badi", "lon": "33.85"}, {"lat": "9.3016667", "city": "Badodi", "lon": "31.3813889"}, {"lat": "10.2333333", "city": "Balagat", "lon": "32.6666667"}, {"lat": "9.7666667", "city": "Ballah", "lon": "33.5833333"}, {"lat": "10.35", "city": "Ballilah", "lon": "33.25"}, {"lat": "10.4666667", "city": "Baloish", "lon": "32.5333333"}, {"lat": "10.4833333", "city": "Ban Burka", "lon": "33.2166667"}, {"lat": "10.1666667", "city": "Ban Donige", "lon": "33.1833333"}, {"lat": "10.25", "city": "Ban Dunna", "lon": "33.3833333"}, {"lat": "9.7333333", "city": "Bangarup", "lon": "30.0833333"}, {"lat": "9.9833333", "city": "Bang", "lon": "33.7833333"}, {"lat": "10.2666667", "city": "Ban Gieng Win", "lon": "33.1833333"}, {"lat": "11.3833333", "city": "Bangjang", "lon": "32.7"}, {"lat": "9.3416667", "city": "Banglai", "lon": "31.8808333"}, {"lat": "10.3166667", "city": "Ban Gurrum", "lon": "33.3"}, {"lat": "10.4", "city": "Banj", "lon": "32.5666667"}, {"lat": "10.4", "city": "Ban Jeila", "lon": "33.1"}, {"lat": "10.5", "city": "Ban Kaala", "lon": "33.2333333"}, {"lat": "10.3833333", "city": "Ban Sarra", "lon": "33.25"}, {"lat": "10.4166667", "city": "Ban Tami", "lon": "33.1666667"}, {"lat": "10.2166667", "city": "Ban Tollog", "lon": "33.2"}, {"lat": "10.3", "city": "Ban Toltukke", "lon": "33.2166667"}, {"lat": "10.3666667", "city": "Ban Wakka", "lon": "33.3166667"}, {"lat": "10.35", "city": "Ban Yaawin", "lon": "33.25"}, {"lat": "10.45", "city": "Ban Yako", "lon": "33.1666667"}, {"lat": "8.9666667", "city": "Banyjiel", "lon": "33.4666667"}, {"lat": "10.9833333", "city": "Banyong", "lon": "32.7333333"}, {"lat": "8.3458333", "city": "Bar", "lon": "30.9363889"}, {"lat": "7.1666667", "city": "Bashala", "lon": "34.0833333"}, {"lat": "9.2166667", "city": "Batarus", "lon": "33.85"}, {"lat": "6.3666667", "city": "Batimoru", "lon": "33.3833333"}, {"lat": "8.8166667", "city": "Bau", "lon": "34.0333333"}, {"lat": "8.8166667", "city": "Baw", "lon": "34.0333333"}, {"lat": "10.3333333", "city": "Begjuka", "lon": "32.5333333"}, {"lat": "6.7166667", "city": "Beh", "lon": "33.0333333"}, {"lat": "10.4833333", "city": "Beilwak", "lon": "32.5"}, {"lat": "10.75", "city": "Beimachok", "lon": "32.55"}, {"lat": "8.6333333", "city": "Bek", "lon": "33.7666667"}, {"lat": "10.1166667", "city": "Belgo", "lon": "32.3"}, {"lat": "6.55", "city": "Belichifor", "lon": "33.2666667"}, {"lat": "6.7333333", "city": "Belichinanu", "lon": "33.1666667"}, {"lat": "9.7666667", "city": "Bella", "lon": "33.5833333"}, {"lat": "10.35", "city": "Bellila", "lon": "33.25"}, {"lat": "9.1", "city": "Belwang", "lon": "33.3333333"}, {"lat": "10.4", "city": "Benj", "lon": "32.5666667"}, {"lat": "8.8222222", "city": "Berad", "lon": "30.6541667"}, {"lat": "9.4563889", "city": "Berboi", "lon": "31.0111111"}, {"lat": "8.8166667", "city": "Biar", "lon": "31.8833333"}, {"lat": "8.05", "city": "Biau", "lon": "31.15"}, {"lat": "9.395", "city": "Bi", "lon": "30.8330556"}, {"lat": "8.5166667", "city": "Biel", "lon": "32.7"}, {"lat": "8.9166667", "city": "Bielli", "lon": "29.8166667"}, {"lat": "10.0166667", "city": "Biem", "lon": "30.15"}, {"lat": "8.45", "city": "Biim", "lon": "32.9833333"}, {"lat": "6.6833333", "city": "Bilait", "lon": "33.25"}, {"lat": "9.1", "city": "Bilaiwal", "lon": "32.3"}, {"lat": "9.3166667", "city": "Bil", "lon": "31.9283333"}, {"lat": "10.0166667", "city": "Bimachuk", "lon": "30.1"}, {"lat": "7.0116667", "city": "Bior Arbit", "lon": "31.4455556"}, {"lat": "9.65", "city": "Biu", "lon": "30.35"}, {"lat": "6.6666667", "city": "Bobolein", "lon": "32.9333333"}, {"lat": "9.9666667", "city": "Boing", "lon": "33.7333333"}, {"lat": "7.3333333", "city": "Bol", "lon": "30.5166667"}, {"lat": "9.7166667", "city": "Bol Dis", "lon": "30.2666667"}, {"lat": "9.7166667", "city": "Bol Dit", "lon": "30.2666667"}, {"lat": "9.7333333", "city": "Bol Thi", "lon": "30.25"}, {"lat": "7.45", "city": "Bongak", "lon": "33.2333333"}, {"lat": "7.45", "city": "Bongok", "lon": "33.2333333"}, {"lat": "9.8833333", "city": "Bonje", "lon": "33.45"}, {"lat": "7.3605556", "city": "Borajoth", "lon": "30.4002778"}, {"lat": "7.85", "city": "Borawil", "lon": "33.0166667"}, {"lat": "7.6666667", "city": "Bor", "lon": "33.6333333"}, {"lat": "8.9", "city": "Boriak", "lon": "33.5833333"}, {"lat": "7.7833333", "city": "Boro", "lon": "31.9666667"}, {"lat": "9.3833333", "city": "Borr", "lon": "31.3333333"}, {"lat": "9.6669444", "city": "Both", "lon": "31.8233333"}, {"lat": "8.2666667", "city": "Budwot", "lon": "32.1166667"}, {"lat": "9.1638889", "city": "Buingfiort", "lon": "31.7027778"}, {"lat": "8.3166667", "city": "Buingfor", "lon": "31.0166667"}, {"lat": "8.0333333", "city": "Buk", "lon": "31.4333333"}, {"lat": "9.5986111", "city": "Bu Kieny", "lon": "31.6255556"}, {"lat": "8.3505556", "city": "Bulbil", "lon": "30.7266667"}, {"lat": "8.1333333", "city": "Bul", "lon": "31.4166667"}, {"lat": "8.6666667", "city": "Bulbuong", "lon": "32.75"}, {"lat": "8.2169444", "city": "Buldiya", "lon": "30.8327778"}, {"lat": "9.365", "city": "Bulriah", "lon": "30.8497222"}, {"lat": "9.8", "city": "Bumadol", "lon": "30.1833333"}, {"lat": "9.5166667", "city": "Bum", "lon": "31.65"}, {"lat": "10.1333333", "city": "Bumma", "lon": "33.9"}, {"lat": "9.1638889", "city": "Bungfiort", "lon": "31.7027778"}, {"lat": "7.4", "city": "Bungo", "lon": "33.9666667"}, {"lat": "8.85", "city": "Buolboin", "lon": "32.5666667"}, {"lat": "8.3166667", "city": "Buonfuot", "lon": "31.0166667"}, {"lat": "8.75", "city": "Buong", "lon": "32.7"}, {"lat": "9.45", "city": "Buothgark", "lon": "30.1833333"}, {"lat": "7.7833333", "city": "Bura", "lon": "31.9666667"}, {"lat": "7.7666667", "city": "Buragwa", "lon": "33.0333333"}, {"lat": "10.0166667", "city": "Burbok", "lon": "32.2"}, {"lat": "9.3833333", "city": "Bur", "lon": "31.3333333"}, {"lat": "6.6166667", "city": "Burbur", "lon": "32.9666667"}, {"lat": "9.3833333", "city": "Burr", "lon": "31.3333333"}, {"lat": "7.8833333", "city": "Burthoiny", "lon": "30.1666667"}, {"lat": "7.7", "city": "Burugila", "lon": "33.0666667"}, {"lat": "9.1833333", "city": "Bwell", "lon": "32.1833333"}, {"lat": "9.3041667", "city": "Bwing", "lon": "31.6005556"}, {"lat": "8.2166667", "city": "Bwom", "lon": "30.1666667"}, {"lat": "8.2166667", "city": "Bwon", "lon": "30.1666667"}, {"lat": "9.2355556", "city": "Bwon Ngera", "lon": "30.8122222"}, {"lat": "6.9666667", "city": "Chargoz", "lon": "33.0166667"}, {"lat": "8.7166667", "city": "Charir", "lon": "29.8833333"}, {"lat": "9.0825", "city": "Chatokbai", "lon": "31.5961111"}, {"lat": "9.6833333", "city": "Chidu", "lon": "33.5333333"}, {"lat": "6.9166667", "city": "Chindura", "lon": "33.0333333"}, {"lat": "9.1333333", "city": "Chinemung", "lon": "28.9666667"}, {"lat": "8.65", "city": "Chiulbong", "lon": "31.4"}, {"lat": "10.2166667", "city": "Cholei", "lon": "33.4333333"}, {"lat": "7.6333333", "city": "Chuayluark", "lon": "30.3"}, {"lat": "9.15", "city": "Chuth Akol", "lon": "30.4666667"}, {"lat": "8.05", "city": "Chwai Chuk", "lon": "31.4166667"}, {"lat": "9.1375", "city": "Chweg", "lon": "30.6975"}, {"lat": "9.15", "city": "Cobtoing", "lon": "32.1666667"}, {"lat": "8.5333333", "city": "Cwandir", "lon": "30.0166667"}, {"lat": "9.2166667", "city": "Daga Post", "lon": "33.9666667"}, {"lat": "9.2166667", "city": "Daga River Post", "lon": "33.9666667"}, {"lat": "7.1666667", "city": "Dailongo", "lon": "33.7833333"}, {"lat": "7.1666667", "city": "Daiong", "lon": "33.7833333"}, {"lat": "9.25", "city": "Dalbur", "lon": "29.6833333"}, {"lat": "10.2833333", "city": "Damawt", "lon": "32.2333333"}, {"lat": "10.2833333", "city": "Damawth", "lon": "32.2333333"}, {"lat": "10.2666667", "city": "Danga", "lon": "33.5833333"}, {"lat": "9.2166667", "city": "Daqa Post", "lon": "33.9666667"}, {"lat": "9.3", "city": "Dara Rom", "lon": "33.5"}, {"lat": "8.4833333", "city": "Darbor", "lon": "30.0666667"}, {"lat": "8.7833333", "city": "Darwan", "lon": "33.7666667"}, {"lat": "9.8666667", "city": "Dawir", "lon": "32.7"}, {"lat": "11.35", "city": "Dawmayah", "lon": "32.7"}, {"lat": "9.65", "city": "Debalo", "lon": "31.6936111"}, {"lat": "9.7855556", "city": "Debelo", "lon": "31.9194444"}, {"lat": "9.9", "city": "Debwar", "lon": "32.1166667"}, {"lat": "9.4063889", "city": "Dedigo", "lon": "31.5688889"}, {"lat": "9.7333333", "city": "Deingo", "lon": "33.5666667"}, {"lat": "10.4", "city": "Delal", "lon": "32.2166667"}, {"lat": "10.2833333", "city": "Demoth", "lon": "32.2333333"}, {"lat": "10.4166667", "city": "Demtemma", "lon": "32.25"}, {"lat": "10.1166667", "city": "Dena", "lon": "29.9333333"}, {"lat": "9.9", "city": "Den Akol", "lon": "30.0333333"}, {"lat": "9.8", "city": "Denchuk", "lon": "32.2"}, {"lat": "9.9", "city": "Deng Akol", "lon": "30.0333333"}, {"lat": "7.7833333", "city": "Deng", "lon": "31.3333333"}, {"lat": "8.5166667", "city": "Dengdur", "lon": "32.0333333"}, {"lat": "8.74", "city": "Deng Rial", "lon": "30.9944444"}, {"lat": "7.9333333", "city": "Denjok", "lon": "33.0"}, {"lat": "10.2833333", "city": "Dentoang", "lon": "32.4166667"}, {"lat": "10.3166667", "city": "Derib Jungara", "lon": "33.3"}, {"lat": "9.59", "city": "Detang", "lon": "31.6719444"}, {"lat": "11.7333333", "city": "Detau", "lon": "32.85"}, {"lat": "9.1666667", "city": "Diak", "lon": "32.2"}, {"lat": "9.2", "city": "Diam", "lon": "29.55"}, {"lat": "6.3", "city": "Didi", "lon": "34.4833333"}, {"lat": "10.0666667", "city": "Dido", "lon": "33.8"}, {"lat": "9.3758333", "city": "Diel", "lon": "31.3097222"}, {"lat": "8.9666667", "city": "Diera Buk", "lon": "31.25"}, {"lat": "8.9961111", "city": "Dier Abwogh", "lon": "31.2830556"}, {"lat": "8.9833333", "city": "Dier", "lon": "31.3166667"}, {"lat": "8.0333333", "city": "Dik", "lon": "32.2833333"}, {"lat": "9.9333333", "city": "Dima", "lon": "33.9333333"}, {"lat": "7.7666667", "city": "Dimma", "lon": "33.0333333"}, {"lat": "7.7666667", "city": "Dimmah", "lon": "33.0333333"}, {"lat": "8.9", "city": "Ding Ding", "lon": "32.65"}, {"lat": "8.7833333", "city": "Dingkar", "lon": "31.2166667"}, {"lat": "9.4286111", "city": "Dingu", "lon": "31.1486111"}, {"lat": "10.2666667", "city": "Dinka Degeis", "lon": "33.1833333"}, {"lat": "10.2666667", "city": "Dirdimma", "lon": "33.6166667"}, {"lat": "9.2333333", "city": "Ditchin", "lon": "32.7333333"}, {"lat": "9.4047222", "city": "Diwgu", "lon": "31.1686111"}, {"lat": "9.7472222", "city": "Diwo", "lon": "31.9686111"}, {"lat": "10.0166667", "city": "Dogwil", "lon": "30.05"}, {"lat": "9.4586111", "city": "Dok Alal", "lon": "31.1111111"}, {"lat": "10.5666667", "city": "Dok", "lon": "32.2"}, {"lat": "10.5666667", "city": "Dolbeck", "lon": "32.4"}, {"lat": "10.5666667", "city": "Dolbek", "lon": "32.4"}, {"lat": "9.3597222", "city": "Doleb", "lon": "31.6008333"}, {"lat": "9.8833333", "city": "Doleiba", "lon": "29.9833333"}, {"lat": "8.35", "city": "Doleib", "lon": "30.9"}, {"lat": "9.3597222", "city": "Doleib Hill", "lon": "31.6008333"}, {"lat": "10.5666667", "city": "Domaia ez Zeif", "lon": "31.9666667"}, {"lat": "10.5666667", "city": "Domat", "lon": "31.9666667"}, {"lat": "11.35", "city": "Domaya", "lon": "32.7"}, {"lat": "8.6666667", "city": "Dongashup", "lon": "31.1"}, {"lat": "10.3666667", "city": "Dong", "lon": "32.6333333"}, {"lat": "8.85", "city": "Dor Akoich", "lon": "29.8833333"}, {"lat": "9.1166667", "city": "Dorcheng Boh", "lon": "30.7666667"}, {"lat": "9.1830556", "city": "Dorchengdwot", "lon": "30.6525"}, {"lat": "9.3966667", "city": "Dor", "lon": "31.235"}, {"lat": "9.0441667", "city": "Doregh", "lon": "30.7097222"}, {"lat": "6.6166667", "city": "Dorein", "lon": "33.2833333"}, {"lat": "8.85", "city": "Dor Kich", "lon": "29.8833333"}, {"lat": "8.8966667", "city": "Dornor", "lon": "30.7175"}, {"lat": "8.65", "city": "Dor Nying Naitok", "lon": "29.9333333"}, {"lat": "9.9666667", "city": "Doro", "lon": "33.75"}, {"lat": "8.2333333", "city": "Dor Thir", "lon": "29.9833333"}, {"lat": "9.1833333", "city": "Dortwoi", "lon": "30.6686111"}, {"lat": "6.6166667", "city": "Doru", "lon": "31.55"}, {"lat": "8.05", "city": "Dorweng", "lon": "31.4333333"}, {"lat": "9.4588889", "city": "Dot", "lon": "31.6086111"}, {"lat": "9.2333333", "city": "Dud", "lon": "32.0833333"}, {"lat": "10.4", "city": "Dudu", "lon": "33.1"}, {"lat": "9.4166667", "city": "Dugang", "lon": "30.5"}, {"lat": "8.1166667", "city": "Duk Ayod", "lon": "31.4333333"}, {"lat": "7.75", "city": "Duk Fadiat", "lon": "31.4166667"}, {"lat": "7.75", "city": "Duk Fadyat", "lon": "31.4166667"}, {"lat": "7.5", "city": "Duk Faiwil", "lon": "31.4833333"}, {"lat": "7.5", "city": "Duk Fewil", "lon": "31.4833333"}, {"lat": "7.6833333", "city": "Duk Golwing", "lon": "31.45"}, {"lat": "7.5666667", "city": "Duk Kwenyakwol", "lon": "31.4666667"}, {"lat": "8.1166667", "city": "Duk Yod", "lon": "31.4333333"}, {"lat": "9.1863889", "city": "Dulareng", "lon": "31.6919444"}, {"lat": "9.8833333", "city": "Dulaybah", "lon": "29.9833333"}, {"lat": "8.35", "city": "Dulayb", "lon": "30.9"}, {"lat": "9.05", "city": "Dultang", "lon": "33.4166667"}, {"lat": "9.05", "city": "Dulthiang", "lon": "33.4166667"}, {"lat": "8.8666667", "city": "Duma", "lon": "32.5666667"}, {"lat": "9.0630556", "city": "Dungloch", "lon": "30.7119444"}, {"lat": "8.6666667", "city": "Dunyal", "lon": "33.1333333"}, {"lat": "8.1", "city": "Durbuoni", "lon": "30.0333333"}, {"lat": "8.5475", "city": "Dur", "lon": "30.9152778"}, {"lat": "9.4833333", "city": "Dute", "lon": "33.8833333"}, {"lat": "8.05", "city": "Dwal Dong", "lon": "32.2"}, {"lat": "7.7166667", "city": "Dweding", "lon": "32.0333333"}, {"lat": "8.8333333", "city": "Dwel Keil", "lon": "29.9166667"}, {"lat": "8.8333333", "city": "Dwil Keil", "lon": "29.9166667"}, {"lat": "11.9", "city": "El `Alali", "lon": "32.9666667"}, {"lat": "10.4166667", "city": "El Amin", "lon": "33.1666667"}, {"lat": "9.65", "city": "El Araish", "lon": "30.8666667"}, {"lat": "11.05", "city": "El Galhak", "lon": "32.7"}, {"lat": "10.8666667", "city": "El Guroh", "lon": "32.3333333"}, {"lat": "11.9166667", "city": "El Habila", "lon": "33.0"}, {"lat": "11.8833333", "city": "El Mashash", "lon": "32.95"}, {"lat": "11.75", "city": "El Renk", "lon": "32.8"}, {"lat": "10.7833333", "city": "Erdeib al Maryam", "lon": "32.3666667"}, {"lat": "10.7833333", "city": "Erdeib el Miriam", "lon": "32.3666667"}, {"lat": "11.75", "city": "Er Renk", "lon": "32.8"}, {"lat": "10.5166667", "city": "Es Sida", "lon": "33.3666667"}, {"lat": "10.0166667", "city": "Faabo", "lon": "31.9833333"}, {"lat": "7.7333333", "city": "Faberkoi", "lon": "31.4166667"}, {"lat": "10.0", "city": "Fabiu", "lon": "32.1833333"}, {"lat": "9.1569444", "city": "Fachod", "lon": "30.6791667"}, {"lat": "9.1197222", "city": "Fachop", "lon": "30.5588889"}, {"lat": "9.3527778", "city": "Fachul", "lon": "30.6819444"}, {"lat": "8.1166667", "city": "Faddoi", "lon": "32.2833333"}, {"lat": "8.1166667", "city": "Faddor", "lon": "32.2833333"}, {"lat": "9.2166667", "city": "Fadebbi", "lon": "33.9166667"}, {"lat": "7.7833333", "city": "Fadiak", "lon": "31.7166667"}, {"lat": "10.45", "city": "Fadiat", "lon": "32.4333333"}, {"lat": "9.9666667", "city": "Fadit", "lon": "32.2166667"}, {"lat": "9.7622222", "city": "Fadok", "lon": "31.9811111"}, {"lat": "8.1302778", "city": "Fadulay", "lon": "30.8269444"}, {"lat": "9.655", "city": "Faduth", "lon": "31.7975"}, {"lat": "9.5166667", "city": "Fafoijo", "lon": "30.9166667"}, {"lat": "9.5166667", "city": "Fafuojo", "lon": "30.9166667"}, {"lat": "8.1333333", "city": "Fagau", "lon": "31.5333333"}, {"lat": "9.2241667", "city": "Fagh", "lon": "30.6647222"}, {"lat": "8.2152778", "city": "Fagil", "lon": "30.7038889"}, {"lat": "8.1", "city": "Fagui", "lon": "31.4666667"}, {"lat": "8.1", "city": "Fagul", "lon": "31.4666667"}, {"lat": "10.5", "city": "Fagwat", "lon": "32.5166667"}, {"lat": "7.5333333", "city": "Fagweit", "lon": "31.55"}, {"lat": "9.0913889", "city": "Fagwir", "lon": "30.745"}, {"lat": "7.2894444", "city": "Fajak", "lon": "30.4466667"}, {"lat": "10.1166667", "city": "Fajoich", "lon": "32.0833333"}, {"lat": "8.125", "city": "Fajong", "lon": "30.8222222"}, {"lat": "9.0641667", "city": "Fajur", "lon": "31.7369444"}, {"lat": "9.2547222", "city": "Fajwong", "lon": "30.6888889"}, {"lat": "9.3652778", "city": "Fakang", "lon": "31.4561111"}, {"lat": "9.3788889", "city": "Fakanno", "lon": "31.2669444"}, {"lat": "7.0333333", "city": "Fakoi", "lon": "31.4666667"}, {"lat": "9.3591667", "city": "Fakur", "lon": "30.6416667"}, {"lat": "8.3672222", "city": "Fakwak", "lon": "30.7241667"}, {"lat": "9.3452778", "city": "Fakwam", "lon": "30.6922222"}, {"lat": "7.1166667", "city": "Fakwar", "lon": "31.3666667"}, {"lat": "8.6166667", "city": "Falagh", "lon": "31.05"}, {"lat": "10.1166667", "city": "Falaka", "lon": "33.2"}, {"lat": "10.1166667", "city": "Falakah", "lon": "33.2"}, {"lat": "10.0833333", "city": "Falang", "lon": "32.0666667"}, {"lat": "8.8833333", "city": "Falgwop", "lon": "33.6166667"}, {"lat": "9.3669444", "city": "Falo", "lon": "31.5980556"}, {"lat": "7.2166667", "city": "Falwal", "lon": "31.3333333"}, {"lat": "10.0166667", "city": "Fama", "lon": "31.9833333"}, {"lat": "7.7833333", "city": "Famat", "lon": "31.8833333"}, {"lat": "8.6", "city": "Fami", "lon": "33.9166667"}, {"lat": "7.7833333", "city": "Famwangkwai", "lon": "31.4333333"}, {"lat": "7.7833333", "city": "Famwangkwan", "lon": "31.4333333"}, {"lat": "10.05", "city": "Fanam Dit", "lon": "32.2666667"}, {"lat": "10.0333333", "city": "Fanam Tin", "lon": "32.2666667"}, {"lat": "9.0102778", "city": "Fanathiang", "lon": "31.8688889"}, {"lat": "9.3319444", "city": "Fanei", "lon": "31.8088889"}, {"lat": "9.0694444", "city": "Fangak", "lon": "30.8841667"}, {"lat": "7.3916667", "city": "Fanial", "lon": "30.4186111"}, {"lat": "8.5833333", "city": "Faniang Did", "lon": "32.0"}, {"lat": "9.4086111", "city": "Fanidway Paych", "lon": "31.5494444"}, {"lat": "9.3319444", "city": "Fanie", "lon": "31.8088889"}, {"lat": "7.5166667", "city": "Faniel", "lon": "31.3666667"}, {"lat": "9.0694444", "city": "Fanjak", "lon": "30.8841667"}, {"lat": "8.8605556", "city": "Fankir", "lon": "30.9927778"}, {"lat": "8.1333333", "city": "Fankur", "lon": "31.3666667"}, {"lat": "11.8666667", "city": "Fanna Maboich", "lon": "32.8"}, {"lat": "10.05", "city": "Fan Num Dit", "lon": "32.2666667"}, {"lat": "8.2269444", "city": "Fanok", "lon": "30.9586111"}, {"lat": "9.2666667", "city": "Fantam", "lon": "32.1333333"}, {"lat": "7.7166667", "city": "Fanyang", "lon": "31.75"}, {"lat": "10.1833333", "city": "Fanyekang", "lon": "32.2833333"}, {"lat": "10.1833333", "city": "Fanyikang", "lon": "32.2833333"}, {"lat": "7.85", "city": "Fanyok", "lon": "31.8166667"}, {"lat": "10.5333333", "city": "Fariak", "lon": "32.55"}, {"lat": "7.7333333", "city": "Farial", "lon": "31.9333333"}, {"lat": "8.9430556", "city": "Fasay", "lon": "30.7069444"}, {"lat": "9.8333333", "city": "Fashada", "lon": "32.0833333"}, {"lat": "9.75", "city": "Fashak", "lon": "30.6"}, {"lat": "9.8833333", "city": "Fashoda", "lon": "32.1166667"}, {"lat": "9.2561111", "city": "Fatach", "lon": "30.5919444"}, {"lat": "8.1552778", "city": "Fataing", "lon": "30.8316667"}, {"lat": "8.0833333", "city": "Fathai", "lon": "31.8"}, {"lat": "9.6602778", "city": "Fathau", "lon": "31.8088889"}, {"lat": "8.0833333", "city": "Fathay", "lon": "31.8"}, {"lat": "9.6094444", "city": "Fathworo", "lon": "31.6933333"}, {"lat": "7.9", "city": "Fatitet", "lon": "31.95"}, {"lat": "6.5166667", "city": "Fatoich", "lon": "31.55"}, {"lat": "9.4186111", "city": "Fatugo", "lon": "31.56"}, {"lat": "9.3891667", "city": "Fatugu", "lon": "31.2494444"}, {"lat": "8.45", "city": "Fatwerk", "lon": "32.1"}, {"lat": "9.3486111", "city": "Fatworo", "lon": "31.6063889"}, {"lat": "9.3619444", "city": "Fatwuk", "lon": "30.5333333"}, {"lat": "9.2", "city": "Fauel", "lon": "29.5166667"}, {"lat": "8.6166667", "city": "Faurel", "lon": "32.7"}, {"lat": "8.6166667", "city": "Fawel", "lon": "32.7"}, {"lat": "9.015", "city": "Fayat", "lon": "30.7008333"}, {"lat": "10.0333333", "city": "Feika", "lon": "33.6666667"}, {"lat": "9.3238889", "city": "Fekang", "lon": "31.4552778"}, {"lat": "9.85", "city": "Ferinjuk", "lon": "30.2"}, {"lat": "6.6833333", "city": "Fertait", "lon": "33.1833333"}, {"lat": "8.6333333", "city": "Finfil", "lon": "33.7833333"}, {"lat": "11.0333333", "city": "Fingagul", "lon": "32.7166667"}, {"lat": "6.9", "city": "Fingting", "lon": "34.4833333"}, {"lat": "9.05", "city": "Foan", "lon": "30.6666667"}, {"lat": "10.4833333", "city": "Foibe", "lon": "32.35"}, {"lat": "10.4833333", "city": "Fojbe", "lon": "32.35"}, {"lat": "6.8", "city": "Fort Bruce", "lon": "33.1333333"}, {"lat": "9.0666667", "city": "Ful Kawhni", "lon": "28.95"}, {"lat": "8.6122222", "city": "Fulkit", "lon": "30.9877778"}, {"lat": "9.0666667", "city": "Ful Kwahni", "lon": "28.95"}, {"lat": "9.2572222", "city": "Ful Lual", "lon": "30.8833333"}, {"lat": "9.3958333", "city": "Ful Luini", "lon": "30.7852778"}, {"lat": "9.3591667", "city": "Ful Nyak", "lon": "30.8930556"}, {"lat": "8.6333333", "city": "Fulwal", "lon": "30.7333333"}, {"lat": "11.9666667", "city": "Fur", "lon": "32.7666667"}, {"lat": "9.0736111", "city": "Fuyach", "lon": "30.7486111"}, {"lat": "9.0805556", "city": "Fwor", "lon": "30.7705556"}, {"lat": "10.55", "city": "Gabek", "lon": "32.4166667"}, {"lat": "8.8072222", "city": "Gadul", "lon": "30.6480556"}, {"lat": "11.6666667", "city": "Gaikwach", "lon": "32.8166667"}, {"lat": "7.4188889", "city": "Gainglil", "lon": "30.5141667"}, {"lat": "8.9666667", "city": "Gairang", "lon": "32.9833333"}, {"lat": "8.6", "city": "Gair", "lon": "30.0166667"}, {"lat": "11.05", "city": "Galhak", "lon": "32.7"}, {"lat": "10.05", "city": "Gambi Atrash", "lon": "33.7833333"}, {"lat": "9.1663889", "city": "Gamtong", "lon": "30.8316667"}, {"lat": "8.6166667", "city": "Gap", "lon": "30.0166667"}, {"lat": "8.4666667", "city": "Garayan", "lon": "30.0333333"}, {"lat": "9.3616667", "city": "Gar", "lon": "30.6988889"}, {"lat": "7.9", "city": "Garkong", "lon": "33.0"}, {"lat": "9.05", "city": "Gassar", "lon": "34.1"}, {"lat": "10.9166667", "city": "Geibek", "lon": "32.7666667"}, {"lat": "11.9833333", "city": "Geigar", "lon": "32.7666667"}, {"lat": "11.9833333", "city": "Geiger", "lon": "32.7666667"}, {"lat": "11.35", "city": "Geil", "lon": "32.7166667"}, {"lat": "9.0833333", "city": "Gel Achel", "lon": "32.4"}, {"lat": "11.05", "city": "Gelhak", "lon": "32.7"}, {"lat": "9.0833333", "city": "Ghaat", "lon": "33.5333333"}, {"lat": "9.0333333", "city": "Ghabat al `Arab", "lon": "29.4833333"}, {"lat": "9.0333333", "city": "Ghabat el `Arab", "lon": "29.4833333"}, {"lat": "8.7166667", "city": "Gharir", "lon": "29.8833333"}, {"lat": "9.1833333", "city": "Gholyil Rar", "lon": "29.9166667"}, {"lat": "6.7", "city": "Gichalier", "lon": "33.05"}, {"lat": "11.35", "city": "Giel", "lon": "32.7166667"}, {"lat": "6.5666667", "city": "Giggigamba", "lon": "32.9333333"}, {"lat": "6.2666667", "city": "Gigiman", "lon": "34.6166667"}, {"lat": "10.6", "city": "Gikakur", "lon": "32.55"}, {"lat": "12.0", "city": "Girbanat", "lon": "33.1"}, {"lat": "9.1663889", "city": "Gmatong", "lon": "30.8316667"}, {"lat": "7.35", "city": "Gneum", "lon": "34.0166667"}, {"lat": "7.7666667", "city": "Gnop", "lon": "30.2666667"}, {"lat": "8.8", "city": "Gnopp", "lon": "29.8833333"}, {"lat": "9.2766667", "city": "Gobjak", "lon": "31.7261111"}, {"lat": "9.6", "city": "Gob Kwero", "lon": "32.1666667"}, {"lat": "9.15", "city": "Gobtoing", "lon": "32.1666667"}, {"lat": "10.8333333", "city": "Gobtok", "lon": "32.7666667"}, {"lat": "9.0666667", "city": "Goelika", "lon": "28.8666667"}, {"lat": "10.8333333", "city": "Gogotok", "lon": "32.7666667"}, {"lat": "9.8166667", "city": "Gogvir", "lon": "32.7166667"}, {"lat": "9.7", "city": "Goi", "lon": "32.2666667"}, {"lat": "10.05", "city": "Gong Kok", "lon": "30.0333333"}, {"lat": "8.9666667", "city": "Gon", "lon": "30.3666667"}, {"lat": "8.2", "city": "Gorbek", "lon": "30.2"}, {"lat": "8.6", "city": "Gub", "lon": "30.0166667"}, {"lat": "8.5666667", "city": "Gudoi", "lon": "33.85"}, {"lat": "8.3166667", "city": "Gultwong", "lon": "30.1166667"}, {"lat": "8.5691667", "city": "Gumbiel", "lon": "30.6719444"}, {"lat": "9.95", "city": "Gumma Khadiga", "lon": "33.9"}, {"lat": "8.2166667", "city": "Gung", "lon": "31.3833333"}, {"lat": "8.1333333", "city": "Guol", "lon": "30.05"}, {"lat": "9.0666667", "city": "Gurial", "lon": "29.15"}, {"lat": "9.2972222", "city": "Gutur", "lon": "31.7766667"}, {"lat": "8.5166667", "city": "Gwaa", "lon": "34.0833333"}, {"lat": "8.4833333", "city": "Gwaar", "lon": "30.05"}, {"lat": "8.5166667", "city": "Gwa", "lon": "34.0833333"}, {"lat": "6.1113889", "city": "Gwalla", "lon": "31.7008333"}, {"lat": "10.05", "city": "Gwaname", "lon": "29.9666667"}, {"lat": "8.5333333", "city": "Gwandir", "lon": "30.0166667"}, {"lat": "9.9666667", "city": "Gwatan", "lon": "32.6"}, {"lat": "10.0833333", "city": "Gwem", "lon": "29.9333333"}, {"lat": "8.5166667", "city": "Gwer", "lon": "30.0"}, {"lat": "8.7758333", "city": "Gwigwi", "lon": "30.6611111"}, {"lat": "9.05", "city": "Gwiljak", "lon": "32.8333333"}, {"lat": "8.6333333", "city": "Gwir", "lon": "33.7666667"}, {"lat": "9.1166667", "city": "Gwit", "lon": "29.9166667"}, {"lat": "8.75", "city": "Gwol", "lon": "33.6166667"}, {"lat": "8.9333333", "city": "Gwong Tur", "lon": "31.5"}, {"lat": "8.9333333", "city": "Gwong Tut", "lon": "31.5"}, {"lat": "8.1669444", "city": "Gwor", "lon": "30.5722222"}, {"lat": "8.9333333", "city": "Gwung Tur", "lon": "31.5"}, {"lat": "10.95", "city": "Hajlij", "lon": "32.5833333"}, {"lat": "10.25", "city": "Harbi", "lon": "33.3833333"}, {"lat": "10.5333333", "city": "Hawaga", "lon": "33.2666667"}, {"lat": "10.95", "city": "Heglig", "lon": "32.5833333"}, {"lat": "8.1833333", "city": "Hillat An-Nuwer", "lon": "30.3166667"}, {"lat": "8.1833333", "city": "Hillet Nuer", "lon": "30.3166667"}, {"lat": "8.9166667", "city": "Jaai", "lon": "33.4833333"}, {"lat": "9.1166667", "city": "Jak", "lon": "33.3833333"}, {"lat": "11.05", "city": "Jalhak", "lon": "32.7"}, {"lat": "9.8833333", "city": "Jali", "lon": "30.15"}, {"lat": "10.3666667", "city": "Jantoka", "lon": "33.3166667"}, {"lat": "8.4666667", "city": "Jarayan", "lon": "30.0333333"}, {"lat": "9.1291667", "city": "Jat", "lon": "30.6941667"}, {"lat": "8.3833333", "city": "Jekau", "lon": "33.7833333"}, {"lat": "8.3833333", "city": "Jikao", "lon": "33.7833333"}, {"lat": "12.0", "city": "Jirbanat", "lon": "33.1"}, {"lat": "8.3166667", "city": "Joe", "lon": "29.9666667"}, {"lat": "9.0666667", "city": "Joelika", "lon": "28.8666667"}, {"lat": "9.3", "city": "Jogiel", "lon": "32.7166667"}, {"lat": "9.75", "city": "Jokabar", "lon": "30.2333333"}, {"lat": "8.4", "city": "Jokau", "lon": "33.8166667"}, {"lat": "8.4", "city": "Jokaw", "lon": "33.8166667"}, {"lat": "9.0666667", "city": "Joknyang", "lon": "30.0666667"}, {"lat": "9.3138889", "city": "Jokwot", "lon": "30.6722222"}, {"lat": "11.8", "city": "Jonglow", "lon": "32.8166667"}, {"lat": "9.85", "city": "Joteng", "lon": "32.2333333"}, {"lat": "9.9", "city": "Jotoich", "lon": "32.2333333"}, {"lat": "9.3833333", "city": "Juac Bor", "lon": "30.7"}, {"lat": "8.0333333", "city": "Juai", "lon": "31.1666667"}, {"lat": "6.7375", "city": "Juet", "lon": "31.4211111"}, {"lat": "9.8833333", "city": "Juli", "lon": "30.15"}, {"lat": "8.5691667", "city": "Jumbel", "lon": "30.6719444"}, {"lat": "8.19", "city": "Jummayzah", "lon": "30.6683333"}, {"lat": "8.1111111", "city": "Jungshol", "lon": "30.8319444"}, {"lat": "10.1333333", "city": "Junguls", "lon": "33.35"}, {"lat": "9.1602778", "city": "Jungyang", "lon": "31.5469444"}, {"lat": "8.8666667", "city": "Juong", "lon": "32.9666667"}, {"lat": "9.1666667", "city": "Juot", "lon": "33.5666667"}, {"lat": "9.2405556", "city": "Jwol", "lon": "30.6669444"}, {"lat": "8.15", "city": "Jwong", "lon": "30.6833333"}, {"lat": "10.55", "city": "Kaddah", "lon": "33.3166667"}, {"lat": "10.2666667", "city": "Kagyana", "lon": "33.5833333"}, {"lat": "9.75", "city": "Kaiedin", "lon": "32.1833333"}, {"lat": "9.3", "city": "Kaikang", "lon": "29.15"}, {"lat": "9.0333333", "city": "Kainjbek", "lon": "32.0166667"}, {"lat": "10.6", "city": "Kaka", "lon": "32.1833333"}, {"lat": "6.6333333", "city": "Kalana", "lon": "32.8833333"}, {"lat": "9.035", "city": "Kaljak", "lon": "31.2608333"}, {"lat": "10.0833333", "city": "Kaluang", "lon": "33.2666667"}, {"lat": "10.05", "city": "Kamel", "lon": "30.0166667"}, {"lat": "10.05", "city": "Kamil", "lon": "30.0166667"}, {"lat": "8.5666667", "city": "Kandag", "lon": "31.1333333"}, {"lat": "8.5666667", "city": "Kandak", "lon": "31.1333333"}, {"lat": "10.05", "city": "Kanje", "lon": "33.7"}, {"lat": "9.0136111", "city": "Kan", "lon": "31.7641667"}, {"lat": "9.95", "city": "Kannah", "lon": "33.85"}, {"lat": "9.95", "city": "Kanna", "lon": "33.85"}, {"lat": "10.05", "city": "Kanshur", "lon": "33.3166667"}, {"lat": "7.9333333", "city": "Kardi", "lon": "30.1166667"}, {"lat": "11.9333333", "city": "Karshawal", "lon": "32.7833333"}, {"lat": "11.9333333", "city": "Karshwal", "lon": "32.7833333"}, {"lat": "9.2108333", "city": "Katjur", "lon": "30.6188889"}, {"lat": "6.7833333", "city": "Katuruchi", "lon": "33.0666667"}, {"lat": "9.2608333", "city": "Kau", "lon": "30.6461111"}, {"lat": "7.6833333", "city": "Kayana", "lon": "33.0333333"}, {"lat": "7.4525", "city": "Kaych", "lon": "30.4808333"}, {"lat": "9.0816667", "city": "Kayoh", "lon": "30.7036111"}, {"lat": "8.5572222", "city": "Kayteng", "lon": "30.6697222"}, {"lat": "9.0166667", "city": "Kegh", "lon": "32.85"}, {"lat": "8.2166667", "city": "Keij", "lon": "32.1333333"}, {"lat": "9.8166667", "city": "Keiwa", "lon": "33.6"}, {"lat": "8.8166667", "city": "Kera", "lon": "33.0333333"}, {"lat": "9.2144444", "city": "Kerial", "lon": "30.7111111"}, {"lat": "8.1166667", "city": "Kerthiang", "lon": "30.0333333"}, {"lat": "10.15", "city": "Khawr Tunbak", "lon": "33.8833333"}, {"lat": "10.15", "city": "Khor Tombak", "lon": "33.8833333"}, {"lat": "8.5", "city": "Khul", "lon": "32.7166667"}, {"lat": "8.6666667", "city": "Kigille", "lon": "34.0333333"}, {"lat": "8.6666667", "city": "Kigille Post", "lon": "34.0333333"}, {"lat": "8.6666667", "city": "Kiqilli", "lon": "34.0333333"}, {"lat": "9.0666667", "city": "Kir", "lon": "32.2"}, {"lat": "8.9833333", "city": "Koarel", "lon": "31.7666667"}, {"lat": "9.8833333", "city": "Kodak", "lon": "32.1166667"}, {"lat": "9.8833333", "city": "Kodok", "lon": "32.1166667"}, {"lat": "7.6333333", "city": "Koich", "lon": "31.4333333"}, {"lat": "7.4458333", "city": "Koker", "lon": "30.4333333"}, {"lat": "9.3261111", "city": "Kokfiat", "lon": "31.8877778"}, {"lat": "8.6", "city": "Kokpuot", "lon": "33.6833333"}, {"lat": "8.9833333", "city": "Kolarel", "lon": "31.7666667"}, {"lat": "8.9", "city": "Kolatong", "lon": "31.2333333"}, {"lat": "8.8147222", "city": "Koljak", "lon": "30.6977778"}, {"lat": "9.1222222", "city": "Kolunyeir", "lon": "31.8233333"}, {"lat": "9.8166667", "city": "Kolweng", "lon": "32.2166667"}, {"lat": "7.4333333", "city": "Kongettit", "lon": "32.7833333"}, {"lat": "9.85", "city": "Kong", "lon": "30.05"}, {"lat": "7.1666667", "city": "Kongor", "lon": "31.35"}, {"lat": "9.2991667", "city": "Konna", "lon": "31.4041667"}, {"lat": "9.2666667", "city": "Konor", "lon": "29.55"}, {"lat": "7.1666667", "city": "Konqor", "lon": "31.35"}, {"lat": "8.7872222", "city": "Konyial", "lon": "30.6927778"}, {"lat": "10.7833333", "city": "Kopyop", "lon": "32.5833333"}, {"lat": "10.7833333", "city": "Kopyot", "lon": "32.5833333"}, {"lat": "8.05", "city": "Koratong", "lon": "33.05"}, {"lat": "9.0333333", "city": "Kormayom", "lon": "32.4166667"}, {"lat": "9.4155556", "city": "Kota", "lon": "30.965"}, {"lat": "7.2136111", "city": "Kotek", "lon": "30.6466667"}, {"lat": "8.2833333", "city": "Kotker", "lon": "33.1666667"}, {"lat": "8.1666667", "city": "Kot", "lon": "30.1"}, {"lat": "6.85", "city": "Kuac", "lon": "34.45"}, {"lat": "8.83", "city": "Kuan", "lon": "30.6883333"}, {"lat": "7.2666667", "city": "Kuaralak", "lon": "34.0166667"}, {"lat": "9.0016667", "city": "Kub", "lon": "31.9141667"}, {"lat": "10.55", "city": "Kudda", "lon": "33.3166667"}, {"lat": "7.1686111", "city": "Kuihai", "lon": "30.3788889"}, {"lat": "9.3202778", "city": "Kuir Kwol", "lon": "30.8916667"}, {"lat": "9.3", "city": "Kukukilu", "lon": "33.75"}, {"lat": "8.3833333", "city": "Kull", "lon": "30.6333333"}, {"lat": "7.2911111", "city": "Kulong", "lon": "30.4888889"}, {"lat": "10.25", "city": "Kumwon", "lon": "32.2666667"}, {"lat": "10.1333333", "city": "Kunjila", "lon": "33.2666667"}, {"lat": "9.1894444", "city": "Kuo", "lon": "30.9358333"}, {"lat": "8.3166667", "city": "Kur", "lon": "32.9166667"}, {"lat": "9.2833333", "city": "Kusdonga", "lon": "33.7333333"}, {"lat": "9.2", "city": "Kusgila", "lon": "33.9833333"}, {"lat": "7.1686111", "city": "Kuthai", "lon": "30.3788889"}, {"lat": "8.1833333", "city": "Kut", "lon": "30.15"}, {"lat": "6.8", "city": "Kuyi", "lon": "33.1666667"}, {"lat": "10.7166667", "city": "Kwa al Mango", "lon": "32.3333333"}, {"lat": "8.5", "city": "Kwach", "lon": "30.0333333"}, {"lat": "10.7166667", "city": "Kwa el Mango", "lon": "32.3333333"}, {"lat": "8.9833333", "city": "Kwaich", "lon": "29.9"}, {"lat": "8.95", "city": "Kwainchekthuan", "lon": "32.5833333"}, {"lat": "8.3833333", "city": "Kwain Gun Mut", "lon": "32.8333333"}, {"lat": "6.1775", "city": "Kwal Tiu", "lon": "31.8127778"}, {"lat": "9.3102778", "city": "Kwan", "lon": "31.5913889"}, {"lat": "8.6333333", "city": "Kwanulualthuan", "lon": "33.05"}, {"lat": "7.2666667", "city": "Kwaralak", "lon": "34.0166667"}, {"lat": "8.65", "city": "Kwat", "lon": "33.1166667"}, {"lat": "8.1866667", "city": "Kwa Tod", "lon": "30.8655556"}, {"lat": "7.9833333", "city": "Kweichar", "lon": "33.0333333"}, {"lat": "8.55", "city": "Kwei", "lon": "31.1166667"}, {"lat": "7.7666667", "city": "Kwe", "lon": "31.3166667"}, {"lat": "8.5", "city": "Kwemdthol", "lon": "32.0166667"}, {"lat": "9.2833333", "city": "Kwenagwetta", "lon": "33.7666667"}, {"lat": "9.03", "city": "Kwendil", "lon": "30.7372222"}, {"lat": "9.14", "city": "Kwenek", "lon": "31.8458333"}, {"lat": "8.6", "city": "Kwevnyang", "lon": "29.9833333"}, {"lat": "9.2833333", "city": "Kwi Kwi", "lon": "33.75"}, {"lat": "10.1333333", "city": "Kwili", "lon": "32.6166667"}, {"lat": "9.4108333", "city": "Kwirthar", "lon": "30.8127778"}, {"lat": "9.53", "city": "Kwogo", "lon": "31.6097222"}, {"lat": "9.1666667", "city": "Kwoinlo", "lon": "30.7688889"}, {"lat": "8.7333333", "city": "Kwoldau", "lon": "33.0666667"}, {"lat": "8.8833333", "city": "Kwombor", "lon": "33.7333333"}, {"lat": "9.7908333", "city": "Kwom", "lon": "31.9447222"}, {"lat": "9.2997222", "city": "Kwong", "lon": "30.7116667"}, {"lat": "8.31", "city": "Lachkwat", "lon": "30.6480556"}, {"lat": "9.3991667", "city": "Lachtanjak", "lon": "30.9538889"}, {"lat": "8.3666667", "city": "Laimyok", "lon": "33.0"}, {"lat": "9.1", "city": "Lajak", "lon": "32.2"}, {"lat": "6.9833333", "city": "Lakatang", "lon": "33.0166667"}, {"lat": "9.25", "city": "Lamchuk", "lon": "33.8"}, {"lat": "8.7166667", "city": "Langkei", "lon": "33.7333333"}, {"lat": "9.1166667", "city": "Lang Nyok", "lon": "31.7"}, {"lat": "8.4833333", "city": "Lankein", "lon": "32.0333333"}, {"lat": "8.8952778", "city": "Laulau", "lon": "30.6972222"}, {"lat": "8.3433333", "city": "Lay Kaych", "lon": "30.6394444"}, {"lat": "8.3166667", "city": "Lear", "lon": "30.1166667"}, {"lat": "9.9", "city": "Lebang", "lon": "30.0666667"}, {"lat": "7.1166667", "city": "Leho", "lon": "33.8666667"}, {"lat": "9.2", "city": "Leich", "lon": "29.65"}, {"lat": "9.5486111", "city": "Lelo", "lon": "31.6177778"}, {"lat": "9.6333333", "city": "Lengchok", "lon": "30.3833333"}, {"lat": "8.3", "city": "Ler", "lon": "30.1333333"}, {"lat": "9.2438889", "city": "Lerping", "lon": "30.6966667"}, {"lat": "8.8727778", "city": "Letkabon", "lon": "30.7052778"}, {"lat": "8.3666667", "city": "Liamyok", "lon": "33.0"}, {"lat": "9.8666667", "city": "Liang", "lon": "33.65"}, {"lat": "6.7166667", "city": "Lichinairo", "lon": "33.1166667"}, {"lat": "6.9166667", "city": "Lieg", "lon": "34.4666667"}, {"lat": "9.95", "city": "Liepganop", "lon": "30.2"}, {"lat": "8.5", "city": "Liet", "lon": "30.1666667"}, {"lat": "9.4833333", "city": "Liette", "lon": "30.2833333"}, {"lat": "9.6166667", "city": "Likchuk", "lon": "32.1833333"}, {"lat": "10.0", "city": "Lilang", "lon": "29.9666667"}, {"lat": "9.0619444", "city": "Lil", "lon": "30.6827778"}, {"lat": "8.4833333", "city": "Limkwanchek", "lon": "31.9666667"}, {"lat": "9.8833333", "city": "Ling", "lon": "30.1666667"}, {"lat": "8.3", "city": "Lir", "lon": "30.1333333"}, {"lat": "8.8036111", "city": "List", "lon": "30.6808333"}, {"lat": "7.1091667", "city": "Lit", "lon": "30.3586111"}, {"lat": "6.6333333", "city": "Lobaye", "lon": "33.7166667"}, {"lat": "6.7833333", "city": "Lochifor", "lon": "33.1"}, {"lat": "8.1666667", "city": "Loing", "lon": "32.2"}, {"lat": "10.25", "city": "Lok", "lon": "32.2833333"}, {"lat": "8.9166667", "city": "Longlet", "lon": "32.4166667"}, {"lat": "8.9366667", "city": "Long", "lon": "30.9686111"}, {"lat": "9.15", "city": "Longnum", "lon": "32.7833333"}, {"lat": "8.9730556", "city": "Longtam", "lon": "30.7213889"}, {"lat": "8.9333333", "city": "Longtem", "lon": "32.5166667"}, {"lat": "6.6333333", "city": "Lopaye", "lon": "33.7166667"}, {"lat": "9.65", "city": "Loye", "lon": "32.2833333"}, {"lat": "8.75", "city": "Luakping", "lon": "33.05"}, {"lat": "9.1755556", "city": "Luale", "lon": "30.7013889"}, {"lat": "8.5333333", "city": "Lual", "lon": "33.1"}, {"lat": "11.35", "city": "Luentam", "lon": "32.7"}, {"lat": "8.3858333", "city": "Lugtug", "lon": "30.8077778"}, {"lat": "9.9", "city": "Luil", "lon": "32.6666667"}, {"lat": "8.9333333", "city": "Luing", "lon": "32.5"}, {"lat": "7.65", "city": "Luk Luk", "lon": "31.75"}, {"lat": "9.7688889", "city": "Lul", "lon": "31.9380556"}, {"lat": "8.5666667", "city": "Luth Gorkh", "lon": "30.05"}, {"lat": "7.6666667", "city": "Luth", "lon": "31.75"}, {"lat": "9.8666667", "city": "Lwakchuk", "lon": "32.2666667"}, {"lat": "10.45", "city": "Lwang Le Dit", "lon": "32.5666667"}, {"lat": "6.7", "city": "Lwol", "lon": "32.9666667"}, {"lat": "8.3666667", "city": "Lyamyok", "lon": "33.0"}, {"lat": "10.45", "city": "Mabiel", "lon": "32.3"}, {"lat": "9.2833333", "city": "Mabil", "lon": "29.1833333"}, {"lat": "9.2297222", "city": "Machar", "lon": "31.3775"}, {"lat": "11.95", "city": "Maghara", "lon": "32.7666667"}, {"lat": "8.6", "city": "Maiwut", "lon": "33.9166667"}, {"lat": "8.5666667", "city": "Majak", "lon": "33.8333333"}, {"lat": "8.4833333", "city": "Majlau", "lon": "29.9666667"}, {"lat": "7.7833333", "city": "Majok", "lon": "30.2833333"}, {"lat": "7.4097222", "city": "Makang", "lon": "30.5130556"}, {"lat": "9.8666667", "city": "Maker", "lon": "30.2666667"}, {"lat": "5.9688889", "city": "Maktiweng", "lon": "31.8388889"}, {"lat": "8.6666667", "city": "Makwach", "lon": "33.8166667"}, {"lat": "6.0677778", "city": "Malek", "lon": "31.6041667"}, {"lat": "6.0677778", "city": "Malik", "lon": "31.6041667"}, {"lat": "9.1555556", "city": "Maling", "lon": "31.7175"}, {"lat": "8.4525", "city": "Malith", "lon": "30.6358333"}, {"lat": "10.4333333", "city": "Malut", "lon": "32.2"}, {"lat": "8.8666667", "city": "Malwal", "lon": "32.5833333"}, {"lat": "9.6666667", "city": "Malwel", "lon": "32.25"}, {"lat": "8.9833333", "city": "Manadwai", "lon": "31.4166667"}, {"lat": "9.95", "city": "Manajunga", "lon": "29.9833333"}, {"lat": "9.4", "city": "Manakishi", "lon": "33.95"}, {"lat": "10.9166667", "city": "Manam", "lon": "32.5166667"}, {"lat": "10.9166667", "city": "Manang", "lon": "32.5166667"}, {"lat": "6.7", "city": "Manbitshei", "lon": "33.0666667"}, {"lat": "8.5333333", "city": "Mandeng", "lon": "33.1166667"}, {"lat": "11.95", "city": "Mangara", "lon": "32.7666667"}, {"lat": "10.15", "city": "Mang", "lon": "29.9166667"}, {"lat": "11.7833333", "city": "Maningok", "lon": "32.8333333"}, {"lat": "8.45", "city": "Mankaich", "lon": "32.7"}, {"lat": "7.9166667", "city": "Mankwauka", "lon": "32.0333333"}, {"lat": "9.3619444", "city": "Manpagweir", "lon": "30.6644444"}, {"lat": "6.9166667", "city": "Mantakaro", "lon": "33.05"}, {"lat": "6.8333333", "city": "Mantoloch", "lon": "33.1166667"}, {"lat": "9.1", "city": "Mantong", "lon": "29.4166667"}, {"lat": "6.65", "city": "Manyal", "lon": "32.95"}, {"lat": "7.4569444", "city": "Manyang", "lon": "30.4036111"}, {"lat": "6.8333333", "city": "Manyeran", "lon": "33.0833333"}, {"lat": "6.65", "city": "Manyu", "lon": "33.25"}, {"lat": "6.8666667", "city": "Manyumen", "lon": "33.0666667"}, {"lat": "10.3333333", "city": "Mardi", "lon": "33.5"}, {"lat": "8.3833333", "city": "Margug", "lon": "31.3333333"}, {"lat": "9.8666667", "city": "Marker", "lon": "30.2666667"}, {"lat": "8.7666667", "city": "Mar", "lon": "29.9166667"}, {"lat": "8.3833333", "city": "Marquq", "lon": "31.3333333"}, {"lat": "7.3925", "city": "Mathiang", "lon": "30.3516667"}, {"lat": "8.1886111", "city": "Matjang", "lon": "30.6152778"}, {"lat": "9.7833333", "city": "Maundi", "lon": "33.5833333"}, {"lat": "6.6", "city": "Mawel", "lon": "32.9166667"}, {"lat": "9.1469444", "city": "Mayeir", "lon": "30.8577778"}, {"lat": "7.2594444", "city": "Mayil", "lon": "30.4661111"}, {"lat": "12.0333333", "city": "Meheida esh Sherif", "lon": "32.7666667"}, {"lat": "6.2", "city": "Meino", "lon": "34.6666667"}, {"lat": "6.2", "city": "Meiyino", "lon": "34.6666667"}, {"lat": "10.3166667", "city": "Mejuk", "lon": "32.55"}, {"lat": "10.4333333", "city": "Melut", "lon": "32.2"}, {"lat": "5.9166667", "city": "Melwel Latuk", "lon": "31.5666667"}, {"lat": "10.4666667", "city": "Meriok", "lon": "32.5166667"}, {"lat": "7.8", "city": "Mer", "lon": "30.3"}, {"lat": "8.5", "city": "Methiang", "lon": "30.2"}, {"lat": "9.0666667", "city": "Miakol", "lon": "32.8666667"}, {"lat": "10.0666667", "city": "Mialek", "lon": "32.2833333"}, {"lat": "9.0333333", "city": "Miau", "lon": "32.4333333"}, {"lat": "8.1", "city": "Milkerr", "lon": "32.0166667"}, {"lat": "10.9333333", "city": "Mimnum", "lon": "32.7166667"}, {"lat": "10.9333333", "city": "Mimnun", "lon": "32.7166667"}, {"lat": "9.6833333", "city": "Minbar", "lon": "32.2166667"}, {"lat": "9.7494444", "city": "Missia Lul", "lon": "31.9191667"}, {"lat": "9.1166667", "city": "Miyan", "lon": "33.4"}, {"lat": "6.6", "city": "Moarkeyor", "lon": "32.7666667"}, {"lat": "8.4333333", "city": "Mogogh", "lon": "31.3166667"}, {"lat": "9.35", "city": "Moiyil", "lon": "29.8833333"}, {"lat": "8.4333333", "city": "Mojogh", "lon": "31.3166667"}, {"lat": "10.4166667", "city": "Mongdor", "lon": "32.3833333"}, {"lat": "7.2333333", "city": "Moragok", "lon": "30.4761111"}, {"lat": "10.6333333", "city": "Moro", "lon": "32.2333333"}, {"lat": "9.2980556", "city": "Mudi", "lon": "30.8855556"}, {"lat": "9.02", "city": "Mulgak", "lon": "31.7311111"}, {"lat": "9.0", "city": "Multhiang", "lon": "33.5"}, {"lat": "9.6833333", "city": "Munbar", "lon": "32.2166667"}, {"lat": "9.3025", "city": "Mundeing", "lon": "30.8672222"}, {"lat": "8.2438889", "city": "Mungud", "lon": "30.6263889"}, {"lat": "8.8833333", "city": "Mutthiang", "lon": "33.6166667"}, {"lat": "8.0333333", "city": "Mwot Did", "lon": "31.8"}, {"lat": "10.0666667", "city": "Nabaqai", "lon": "29.9666667"}, {"lat": "8.5833333", "city": "Naintut", "lon": "30.05"}, {"lat": "9.8833333", "city": "Najunga", "lon": "30.2666667"}, {"lat": "9.7166667", "city": "Namalat", "lon": "29.9166667"}, {"lat": "6.6833333", "city": "Narful", "lon": "33.1666667"}, {"lat": "9.4", "city": "Narir", "lon": "29.9"}, {"lat": "8.6", "city": "Nasir", "lon": "33.0666667"}, {"lat": "8.6", "city": "Nasser", "lon": "33.0666667"}, {"lat": "7.05", "city": "N'Dwetti", "lon": "33.6666667"}, {"lat": "10.0166667", "city": "Negak", "lon": "30.0833333"}, {"lat": "9.4333333", "city": "Neigding", "lon": "33.4833333"}, {"lat": "9.1427778", "city": "Neinjang", "lon": "31.5244444"}, {"lat": "8.8566667", "city": "Nekan", "lon": "30.7194444"}, {"lat": "8.2333333", "city": "Nek", "lon": "30.2833333"}, {"lat": "8.3166667", "city": "Nerboar", "lon": "29.8666667"}, {"lat": "7.35", "city": "Neum", "lon": "34.0166667"}, {"lat": "9.3636111", "city": "Neyalwal", "lon": "31.3466667"}, {"lat": "9.2913889", "city": "Neyar", "lon": "31.4136111"}, {"lat": "7.6166667", "city": "Ngaich", "lon": "30.3"}, {"lat": "10.0166667", "city": "Ngak", "lon": "30.0833333"}, {"lat": "9.3219444", "city": "Ngautoch", "lon": "30.8566667"}, {"lat": "8.4833333", "city": "Ngoiny", "lon": "30.0833333"}, {"lat": "8.1666667", "city": "Ngok", "lon": "31.55"}, {"lat": "8.8", "city": "Ngorp", "lon": "29.8833333"}, {"lat": "9.3258333", "city": "Ngwer", "lon": "30.5291667"}, {"lat": "6.5833333", "city": "Nialeir", "lon": "32.95"}, {"lat": "9.0833333", "city": "Nianthon", "lon": "33.4333333"}, {"lat": "10.1333333", "city": "Niayok", "lon": "32.3"}, {"lat": "9.4925", "city": "Nibodo", "lon": "31.0213889"}, {"lat": "9.4233333", "city": "Nielwag", "lon": "31.2669444"}, {"lat": "9.2983333", "city": "Niereng", "lon": "31.7925"}, {"lat": "9.3163889", "city": "Nijok", "lon": "31.8205556"}, {"lat": "7.7833333", "city": "Nikowa", "lon": "33.0333333"}, {"lat": "9.4333333", "city": "Ninding", "lon": "33.4833333"}, {"lat": "9.0941667", "city": "Nin Kwon", "lon": "30.7266667"}, {"lat": "9.4061111", "city": "Niyagwado", "lon": "31.1316667"}, {"lat": "9.0666667", "city": "Noarchoar", "lon": "28.85"}, {"lat": "8.5833333", "city": "Nor", "lon": "33.0333333"}, {"lat": "9.1666667", "city": "Nuer Akon", "lon": "32.2"}, {"lat": "10.4", "city": "Nun", "lon": "32.1833333"}, {"lat": "10.1", "city": "Nurah", "lon": "33.85"}, {"lat": "10.1", "city": "Nura", "lon": "33.85"}, {"lat": "8.1583333", "city": "Nur Barau", "lon": "30.8213889"}, {"lat": "9.0666667", "city": "Nurichoar", "lon": "28.85"}, {"lat": "9.2505556", "city": "Nurlonga", "lon": "30.9322222"}, {"lat": "9.1641667", "city": "Nur", "lon": "30.6763889"}, {"lat": "10.2833333", "city": "Nushur", "lon": "33.6333333"}, {"lat": "8.6833333", "city": "Nyabiong", "lon": "33.7166667"}, {"lat": "8.6833333", "city": "Nyaboing", "lon": "33.7166667"}, {"lat": "9.9666667", "city": "Nyafer", "lon": "32.15"}, {"lat": "9.6833333", "city": "Nyaitok", "lon": "32.3333333"}, {"lat": "8.6708333", "city": "Nyakang", "lon": "30.7141667"}, {"lat": "8.4166667", "city": "Nyakoi", "lon": "32.1166667"}, {"lat": "7.75", "city": "Nyal", "lon": "30.2666667"}, {"lat": "8.6166667", "city": "Nyanding", "lon": "32.6666667"}, {"lat": "7.65", "city": "Nyandong", "lon": "30.2"}, {"lat": "10.9166667", "city": "Nyangenlwal", "lon": "32.7833333"}, {"lat": "6.7872222", "city": "Nyang", "lon": "31.4630556"}, {"lat": "6.5833333", "city": "Nyangobal", "lon": "32.75"}, {"lat": "8.6166667", "city": "Nyangora", "lon": "32.6666667"}, {"lat": "8.95", "city": "Nyangwath", "lon": "32.5666667"}, {"lat": "9.2019444", "city": "Nyankennah", "lon": "30.7177778"}, {"lat": "9.2833333", "city": "Nyantim", "lon": "32.0666667"}, {"lat": "10.8666667", "city": "Nyanwey", "lon": "32.4833333"}, {"lat": "10.1166667", "city": "Nyanya", "lon": "33.45"}, {"lat": "6.1777778", "city": "Nyap", "lon": "31.8480556"}, {"lat": "8.5166667", "city": "Nyarian", "lon": "33.1666667"}, {"lat": "7.8333333", "city": "Nyaugith", "lon": "31.2166667"}, {"lat": "10.1333333", "city": "Nyeda Fadlullah", "lon": "33.2666667"}, {"lat": "10.05", "city": "Nyefino", "lon": "32.1"}, {"lat": "8.6833333", "city": "Nyerol", "lon": "32.0333333"}, {"lat": "11.8", "city": "Nyetong", "lon": "32.8166667"}, {"lat": "10.2166667", "city": "Nyiliech", "lon": "32.25"}, {"lat": "9.4233333", "city": "Nyilwag", "lon": "31.2669444"}, {"lat": "10.2166667", "city": "Nyilyich", "lon": "32.25"}, {"lat": "8.8833333", "city": "Nyinabot", "lon": "31.8166667"}, {"lat": "9.6891667", "city": "Nyingar", "lon": "31.8558333"}, {"lat": "9.6891667", "city": "Nyingaro", "lon": "31.8558333"}, {"lat": "9.1161111", "city": "Nyin Munnerode", "lon": "30.7105556"}, {"lat": "9.2494444", "city": "Nyin Yar", "lon": "30.4994444"}, {"lat": "9.8", "city": "Nyirial", "lon": "32.0333333"}, {"lat": "9.6266667", "city": "Nyithko", "lon": "31.7336111"}, {"lat": "10.3666667", "city": "Nyiwudo", "lon": "32.2333333"}, {"lat": "9.2913889", "city": "Nyiyar", "lon": "31.4136111"}, {"lat": "8.6166667", "city": "Nyod", "lon": "30.7"}, {"lat": "8.3333333", "city": "Nyoing", "lon": "30.1"}, {"lat": "8.7627778", "city": "Nyongchar", "lon": "30.995"}, {"lat": "9.75", "city": "Nyor", "lon": "30.2"}, {"lat": "7.7666667", "city": "Nyot", "lon": "30.2833333"}, {"lat": "8.45", "city": "Nyuarweng", "lon": "33.8166667"}, {"lat": "10.0333333", "city": "Nyu Fan Num Ti", "lon": "32.2666667"}, {"lat": "9.3866667", "city": "Obai Dego", "lon": "31.5297222"}, {"lat": "9.5580556", "city": "Oboa", "lon": "31.6141667"}, {"lat": "9.6158333", "city": "Obodiang", "lon": "31.7105556"}, {"lat": "7.7", "city": "Obor", "lon": "33.0666667"}, {"lat": "10.2666667", "city": "Obwi", "lon": "32.2333333"}, {"lat": "9.3055556", "city": "Odwar", "lon": "31.7580556"}, {"lat": "9.3586111", "city": "Odwoigo", "lon": "31.3525"}, {"lat": "9.3572222", "city": "Ofyo", "lon": "31.5916667"}, {"lat": "9.3572222", "city": "Ofyu", "lon": "31.5916667"}, {"lat": "9.6402778", "city": "Ogod Butu", "lon": "31.7580556"}, {"lat": "9.6138889", "city": "Ogod-Fatad", "lon": "31.6416667"}, {"lat": "10.15", "city": "Ogon", "lon": "32.2666667"}, {"lat": "9.4425", "city": "Olam", "lon": "31.6463889"}, {"lat": "7.5666667", "city": "Omila", "lon": "33.7"}, {"lat": "7.0166667", "city": "Omini", "lon": "34.2333333"}, {"lat": "11.8833333", "city": "Onabut", "lon": "32.8"}, {"lat": "10.3333333", "city": "Onkjer", "lon": "32.35"}, {"lat": "6.25", "city": "Orarak", "lon": "32.3833333"}, {"lat": "8.6833333", "city": "Oshima", "lon": "34.1166667"}, {"lat": "10.0166667", "city": "Otchogo", "lon": "32.1666667"}, {"lat": "10.0166667", "city": "Otichogo", "lon": "32.1666667"}, {"lat": "9.3952778", "city": "Owachi", "lon": "31.6044444"}, {"lat": "8.7666667", "city": "Paayam", "lon": "32.6833333"}, {"lat": "7.3194444", "city": "Pabair", "lon": "30.3947222"}, {"lat": "9.6666667", "city": "Pabodyet", "lon": "32.15"}, {"lat": "7.1666667", "city": "Pachala", "lon": "34.0833333"}, {"lat": "7.1666667", "city": "Pachalla", "lon": "34.0833333"}, {"lat": "10.0666667", "city": "Pachuai", "lon": "29.9666667"}, {"lat": "9.7666667", "city": "Pachuark", "lon": "30.0833333"}, {"lat": "7.05", "city": "Pachwil", "lon": "31.1666667"}, {"lat": "9.05", "city": "Padaich", "lon": "29.3"}, {"lat": "10.0666667", "city": "Padara", "lon": "29.9833333"}, {"lat": "9.6666667", "city": "Padendem", "lon": "30.1166667"}, {"lat": "8.1", "city": "Padeng", "lon": "30.0166667"}, {"lat": "9.2", "city": "Paderna", "lon": "33.8666667"}, {"lat": "9.7166667", "city": "Padok", "lon": "32.1666667"}, {"lat": "8.7333333", "city": "Padwei", "lon": "33.0333333"}, {"lat": "8.4666667", "city": "Pagak", "lon": "34.0333333"}, {"lat": "7.0833333", "city": "Pagot", "lon": "31.2333333"}, {"lat": "8.6833333", "city": "Pagwar", "lon": "32.8"}, {"lat": "9.7833333", "city": "Paiuel", "lon": "32.1833333"}, {"lat": "7.3458333", "city": "Paja Rial", "lon": "30.3908333"}, {"lat": "9.8166667", "city": "Pakol", "lon": "30.1666667"}, {"lat": "8.4666667", "city": "Pakwar", "lon": "30.65"}, {"lat": "9.8666667", "city": "Paljok", "lon": "30.0833333"}, {"lat": "10.4666667", "city": "Paloich", "lon": "32.5333333"}, {"lat": "9.8333333", "city": "Pamir", "lon": "32.2333333"}, {"lat": "8.8833333", "city": "Pam Mak", "lon": "33.75"}, {"lat": "9.7166667", "city": "Panegwibek", "lon": "32.1833333"}, {"lat": "9.7", "city": "Panejangnyong", "lon": "32.3"}, {"lat": "9.65", "city": "Panenul", "lon": "32.3166667"}, {"lat": "7.3916667", "city": "Panial", "lon": "30.4186111"}, {"lat": "9.8833333", "city": "Pan Iyik", "lon": "32.1833333"}, {"lat": "8.7", "city": "Panomdojop", "lon": "33.6"}, {"lat": "10.0666667", "city": "Panyang", "lon": "29.9666667"}, {"lat": "7.6666667", "city": "Panyara", "lon": "33.0666667"}, {"lat": "9.85", "city": "Panyireth", "lon": "32.1166667"}, {"lat": "7.2555556", "city": "Paraken", "lon": "30.6027778"}, {"lat": "7.1166667", "city": "Param", "lon": "31.15"}, {"lat": "7.2830556", "city": "Pashar", "lon": "30.3530556"}, {"lat": "8.6833333", "city": "Paten", "lon": "34.1166667"}, {"lat": "8.9", "city": "Patielnyang", "lon": "32.4666667"}, {"lat": "9.7", "city": "Patuok", "lon": "30.1166667"}, {"lat": "8.7833333", "city": "Pawienb", "lon": "32.6333333"}, {"lat": "8.7833333", "city": "Pawieng", "lon": "32.6333333"}, {"lat": "8.7833333", "city": "Pawien", "lon": "32.6333333"}, {"lat": "6.9166667", "city": "Pentin", "lon": "34.4333333"}, {"lat": "7.0666667", "city": "Peper", "lon": "33.0"}, {"lat": "7.2438889", "city": "Pernalwal", "lon": "30.4722222"}, {"lat": "8.5", "city": "Petit", "lon": "30.0333333"}, {"lat": "6.8", "city": "Pibor Post", "lon": "33.1333333"}, {"lat": "8.0333333", "city": "Pieri", "lon": "32.0333333"}, {"lat": "9.3855556", "city": "Pieth", "lon": "30.8486111"}, {"lat": "8.2666667", "city": "Piling", "lon": "30.2"}, {"lat": "8.2666667", "city": "Pilling", "lon": "30.2"}, {"lat": "8.6166667", "city": "Pil", "lon": "34.15"}, {"lat": "7.05", "city": "Piom Pur", "lon": "31.2333333"}, {"lat": "7.1666667", "city": "Pochala", "lon": "34.0833333"}, {"lat": "8.5666667", "city": "Pochumu", "lon": "34.1166667"}, {"lat": "8.5666667", "city": "Pokumu", "lon": "34.1166667"}, {"lat": "7.3377778", "city": "Poweir", "lon": "30.4388889"}, {"lat": "8.95", "city": "Powoi", "lon": "29.8333333"}, {"lat": "9.1166667", "city": "Puig", "lon": "29.8"}, {"lat": "8.1333333", "city": "Pul Lual", "lon": "30.0666667"}, {"lat": "8.2166667", "city": "Pul Rieli", "lon": "33.1666667"}, {"lat": "8.6166667", "city": "Pwol", "lon": "29.95"}, {"lat": "9.6116667", "city": "Pwot", "lon": "31.6630556"}, {"lat": "10.3", "city": "Quffah", "lon": "33.7666667"}, {"lat": "10.3", "city": "Quffa", "lon": "33.7666667"}, {"lat": "8.4941667", "city": "Raad", "lon": "30.6333333"}, {"lat": "8.8666667", "city": "Raarm", "lon": "33.0666667"}, {"lat": "8.4941667", "city": "Ra`d", "lon": "30.6333333"}, {"lat": "8.8333333", "city": "Raichum", "lon": "32.5833333"}, {"lat": "7.7333333", "city": "Rath", "lon": "30.2833333"}, {"lat": "9.2833333", "city": "Reng", "lon": "29.5333333"}, {"lat": "9.9166667", "city": "Renjnom", "lon": "30.1"}, {"lat": "11.75", "city": "Renk", "lon": "32.8"}, {"lat": "8.8666667", "city": "Rial", "lon": "33.1833333"}, {"lat": "9.9166667", "city": "Riangnom", "lon": "30.0166667"}, {"lat": "8.7", "city": "Riek", "lon": "32.7"}, {"lat": "8.8666667", "city": "Riel", "lon": "33.1833333"}, {"lat": "9.0772222", "city": "Riep", "lon": "30.7547222"}, {"lat": "8.6833333", "city": "Rogrog", "lon": "33.15"}, {"lat": "7.8666667", "city": "Roinyar", "lon": "30.1333333"}, {"lat": "8.8166667", "city": "Rokok", "lon": "32.6666667"}, {"lat": "10.8", "city": "Rom", "lon": "32.45"}, {"lat": "8.4333333", "city": "Rom Yieri", "lon": "33.2166667"}, {"lat": "8.7333333", "city": "Roradwei", "lon": "33.0666667"}, {"lat": "9.1333333", "city": "Roth Den", "lon": "29.1833333"}, {"lat": "8.95", "city": "Rouweng", "lon": "32.6166667"}, {"lat": "10.5666667", "city": "Rowan", "lon": "32.1666667"}, {"lat": "8.1333333", "city": "Rual", "lon": "31.4166667"}, {"lat": "8.8666667", "city": "Ruarm", "lon": "33.0666667"}, {"lat": "8.1961111", "city": "Rub Leil", "lon": "30.8308333"}, {"lat": "9.15", "city": "Rublietti", "lon": "29.0166667"}, {"lat": "8.7961111", "city": "Rublik", "lon": "30.6433333"}, {"lat": "8.3775", "city": "Rublu", "lon": "30.7841667"}, {"lat": "8.0866667", "city": "Ruboani", "lon": "30.7313889"}, {"lat": "8.4116667", "city": "Rufniel", "lon": "30.7561111"}, {"lat": "9.7333333", "city": "Rukchuk", "lon": "32.2333333"}, {"lat": "8.1833333", "city": "Rumakeir", "lon": "32.0333333"}, {"lat": "7.4405556", "city": "Rumakwaich", "lon": "30.4197222"}, {"lat": "9.4", "city": "Rumla Ngork", "lon": "28.7666667"}, {"lat": "9.1333333", "city": "Ruoth Deng", "lon": "29.1833333"}, {"lat": "8.1833333", "city": "Rupchai", "lon": "30.1166667"}, {"lat": "9.3019444", "city": "Rupdid", "lon": "30.9061111"}, {"lat": "9.15", "city": "Ruphiethni", "lon": "29.0166667"}, {"lat": "9.1675", "city": "Rupiana", "lon": "30.6319444"}, {"lat": "8.8166667", "city": "Rupwal", "lon": "32.6666667"}, {"lat": "8.8166667", "city": "Rupwat", "lon": "32.6666667"}, {"lat": "8.98", "city": "Ruv-dub", "lon": "30.6847222"}, {"lat": "9.6166667", "city": "Ryagdo", "lon": "32.15"}, {"lat": "10.4", "city": "Saadan", "lon": "33.1833333"}, {"lat": "10.4", "city": "Sa`dan", "lon": "33.1833333"}, {"lat": "11.95", "city": "Sahlat", "lon": "33.05"}, {"lat": "9.2333333", "city": "Saskosko", "lon": "33.8166667"}, {"lat": "8.0725", "city": "Shapot", "lon": "30.8936111"}, {"lat": "10.2333333", "city": "Shaykh Bade", "lon": "33.55"}, {"lat": "10.9666667", "city": "Shaykh Jok", "lon": "32.65"}, {"lat": "9.2947222", "city": "Shebalueng", "lon": "30.6958333"}, {"lat": "10.2333333", "city": "Sheikh Bade", "lon": "33.55"}, {"lat": "10.9666667", "city": "Sheikh Jok", "lon": "32.65"}, {"lat": "9.2172222", "city": "Shol Ajok", "lon": "31.6813889"}, {"lat": "9.1333333", "city": "Sholayik", "lon": "31.75"}, {"lat": "9.2666667", "city": "Shol", "lon": "32.0833333"}, {"lat": "8.15", "city": "Shotfeng", "lon": "30.8666667"}, {"lat": "8.65", "city": "Shuilbwang", "lon": "31.4"}, {"lat": "11.7333333", "city": "Shukdash", "lon": "32.8666667"}, {"lat": "10.9666667", "city": "Shukkaba", "lon": "32.6"}, {"lat": "8.05", "city": "Shwai Chuk", "lon": "31.4166667"}, {"lat": "8.85", "city": "Shwai", "lon": "32.5166667"}, {"lat": "9.0", "city": "Shwil", "lon": "32.4166667"}, {"lat": "8.5833333", "city": "Sullup", "lon": "32.7666667"}, {"lat": "10.0333333", "city": "Tagga", "lon": "33.6333333"}, {"lat": "9.3788889", "city": "Takanno", "lon": "31.2669444"}, {"lat": "10.3333333", "city": "Tamation", "lon": "32.3166667"}, {"lat": "8.8261111", "city": "Tanyir", "lon": "30.7230556"}, {"lat": "9.6", "city": "Tareng", "lon": "30.4166667"}, {"lat": "7.0166667", "city": "Tarkwem", "lon": "31.2333333"}, {"lat": "7.0166667", "city": "Tarkwen", "lon": "31.2333333"}, {"lat": "9.1669444", "city": "Tarom", "lon": "31.6761111"}, {"lat": "9.3597222", "city": "Tatuga", "lon": "31.6008333"}, {"lat": "9.4316667", "city": "Taufikia", "lon": "31.6294444"}, {"lat": "10.95", "city": "Tau", "lon": "32.5833333"}, {"lat": "8.6", "city": "Tawbai", "lon": "32.9"}, {"lat": "9.4316667", "city": "Tawfiqiyah", "lon": "31.6294444"}, {"lat": "9.4316667", "city": "Tawfiqiyya", "lon": "31.6294444"}, {"lat": "8.5666667", "city": "Tawpot", "lon": "33.1166667"}, {"lat": "12.0333333", "city": "Tayiba", "lon": "32.7666667"}, {"lat": "12.0333333", "city": "Tayyibah", "lon": "32.7666667"}, {"lat": "9.7", "city": "Tebusaya", "lon": "29.0333333"}, {"lat": "9.6833333", "city": "Tebu", "lon": "32.1833333"}, {"lat": "10.35", "city": "Tedau", "lon": "32.5"}, {"lat": "9.6333333", "city": "Temchuk-de-gi", "lon": "32.1666667"}, {"lat": "9.65", "city": "Temchuk", "lon": "32.1666667"}, {"lat": "9.6333333", "city": "Temchung-de-gi", "lon": "32.1666667"}, {"lat": "8.2666667", "city": "Temrol", "lon": "30.6166667"}, {"lat": "8.1666667", "city": "Tengler", "lon": "30.1166667"}, {"lat": "11.1666667", "city": "Tereiba", "lon": "32.6833333"}, {"lat": "9.6333333", "city": "Ternchung-de-apien", "lon": "32.1666667"}, {"lat": "9.1666667", "city": "Thangoro", "lon": "29.5666667"}, {"lat": "9.1833333", "city": "Thanilak", "lon": "31.6833333"}, {"lat": "8.2166667", "city": "Thar Cheng", "lon": "30.2166667"}, {"lat": "8.2166667", "city": "Thar Jain", "lon": "30.2166667"}, {"lat": "8.4666667", "city": "Thar Jath", "lon": "30.3166667"}, {"lat": "7.4288889", "city": "Thar Nhom", "lon": "30.4783333"}, {"lat": "7.4288889", "city": "Thar", "lon": "30.4783333"}, {"lat": "8.5333333", "city": "Thar Wang", "lon": "30.0"}, {"lat": "9.3833333", "city": "Thaworo", "lon": "31.2797222"}, {"lat": "9.3333333", "city": "Thepkeni", "lon": "29.6833333"}, {"lat": "7.7833333", "city": "Thiam", "lon": "31.7666667"}, {"lat": "7.7333333", "city": "Thiang", "lon": "31.8833333"}, {"lat": "7.8166667", "city": "Thiep Shawor", "lon": "32.3166667"}, {"lat": "9.2333333", "city": "Thir", "lon": "29.2666667"}, {"lat": "8.6666667", "city": "Thorial", "lon": "29.9333333"}, {"lat": "9.3883333", "city": "Thukak", "lon": "30.9186111"}, {"lat": "9.1705556", "city": "Thukchak", "lon": "30.7569444"}, {"lat": "8.5", "city": "Thul", "lon": "32.05"}, {"lat": "8.3", "city": "Thurnum", "lon": "30.1166667"}, {"lat": "10.3", "city": "Thuro Adawdo", "lon": "32.2333333"}, {"lat": "10.3", "city": "Thuro Adodo", "lon": "32.2333333"}, {"lat": "10.3166667", "city": "Thuro Nyiyar", "lon": "32.2333333"}, {"lat": "8.2666667", "city": "Thur", "lon": "30.25"}, {"lat": "9.3833333", "city": "Thworo", "lon": "31.2797222"}, {"lat": "7.7333333", "city": "Tiam", "lon": "30.25"}, {"lat": "9.1975", "city": "Tiangdediar", "lon": "30.6869444"}, {"lat": "10.3", "city": "Tiang Rial", "lon": "32.2666667"}, {"lat": "10.8166667", "city": "Tibnah", "lon": "33.1833333"}, {"lat": "10.8166667", "city": "Tibna", "lon": "33.1833333"}, {"lat": "8.8166667", "city": "Tidbal", "lon": "31.2"}, {"lat": "8.8166667", "city": "Tidbil", "lon": "31.2"}, {"lat": "9.3391667", "city": "Tidfok", "lon": "30.8222222"}, {"lat": "9.3391667", "city": "Tidfolk", "lon": "30.8222222"}, {"lat": "9.3391667", "city": "Tidfo", "lon": "30.8222222"}, {"lat": "9.3266667", "city": "Tidwach", "lon": "30.8825"}, {"lat": "7.8166667", "city": "Tiep Shawor", "lon": "32.3166667"}, {"lat": "9.4022222", "city": "Tiep", "lon": "30.895"}, {"lat": "9.1530556", "city": "Tige", "lon": "30.7655556"}, {"lat": "9.2808333", "city": "Tiltil", "lon": "30.635"}, {"lat": "10.5", "city": "Tingya", "lon": "32.55"}, {"lat": "10.5333333", "city": "Tir", "lon": "32.4833333"}, {"lat": "8.7833333", "city": "Tiura", "lon": "33.0"}, {"lat": "9.2836111", "city": "Toi", "lon": "31.5936111"}, {"lat": "8.0666667", "city": "Tokur", "lon": "30.15"}, {"lat": "10.55", "city": "Tokwaich", "lon": "32.1333333"}, {"lat": "9.2638889", "city": "Toladul", "lon": "30.7172222"}, {"lat": "8.8166667", "city": "Tol", "lon": "33.6166667"}, {"lat": "9.4097222", "city": "Tondiak", "lon": "31.1536111"}, {"lat": "9.4869444", "city": "Tonga", "lon": "31.0377778"}, {"lat": "6.4622222", "city": "Tong", "lon": "31.6322222"}, {"lat": "7.1", "city": "Tong Tong", "lon": "33.05"}, {"lat": "9.4869444", "city": "Tonja", "lon": "31.0377778"}, {"lat": "8.8", "city": "Toragain", "lon": "31.1"}, {"lat": "10.9833333", "city": "Torakit", "lon": "32.6333333"}, {"lat": "8.6", "city": "Torbar", "lon": "32.9"}, {"lat": "8.5666667", "city": "Torfot", "lon": "33.1166667"}, {"lat": "8.75", "city": "Toriak", "lon": "32.1"}, {"lat": "8.4666667", "city": "Torkej", "lon": "33.15"}, {"lat": "9.225", "city": "Torniok", "lon": "30.7738889"}, {"lat": "10.5833333", "city": "Toro", "lon": "32.15"}, {"lat": "8.5666667", "city": "Torpot", "lon": "33.1166667"}, {"lat": "10.5833333", "city": "Tor", "lon": "32.15"}, {"lat": "9.0666667", "city": "Tot", "lon": "29.0"}, {"lat": "6.2", "city": "Towath", "lon": "34.4166667"}, {"lat": "6.2", "city": "Towot", "lon": "34.4166667"}, {"lat": "8.9569444", "city": "Toych", "lon": "30.7091667"}, {"lat": "9.4027778", "city": "Tuai Bor", "lon": "30.6769444"}, {"lat": "9.4027778", "city": "Tuai Bur", "lon": "30.6769444"}, {"lat": "9.1833333", "city": "Tubug", "lon": "32.1333333"}, {"lat": "9.95", "city": "Tumma", "lon": "33.8166667"}, {"lat": "9.9666667", "city": "Tungia", "lon": "32.0"}, {"lat": "9.7072222", "city": "Tungmir", "lon": "31.8438889"}, {"lat": "8.1780556", "city": "Tungrib", "lon": "30.8294444"}, {"lat": "8.1780556", "city": "Tungrub", "lon": "30.8294444"}, {"lat": "6.6666667", "city": "Tungyun", "lon": "32.9166667"}, {"lat": "9.8333333", "city": "Tungyu", "lon": "33.6166667"}, {"lat": "8.7833333", "city": "Tunra", "lon": "33.0"}, {"lat": "9.9333333", "city": "Turakon", "lon": "30.15"}, {"lat": "11.1666667", "city": "Turaybah", "lon": "32.6833333"}, {"lat": "10.05", "city": "Tuyo Quffah", "lon": "33.7333333"}, {"lat": "10.05", "city": "Tuyo Quffa", "lon": "33.7333333"}, {"lat": "9.5597222", "city": "Tvoro-Buzchi", "lon": "31.6794444"}, {"lat": "10.15", "city": "Twaber", "lon": "32.6166667"}, {"lat": "10.15", "city": "Twabor", "lon": "32.6166667"}, {"lat": "8.835", "city": "Twengdeng", "lon": "30.6602778"}, {"lat": "7.6833333", "city": "Twilong", "lon": "33.0666667"}, {"lat": "8.2666667", "city": "Twoich Pair", "lon": "30.1333333"}, {"lat": "8.35", "city": "Twoich", "lon": "29.95"}, {"lat": "9.7536111", "city": "Twolong", "lon": "31.8883333"}, {"lat": "9.4055556", "city": "Tworo", "lon": "31.6097222"}, {"lat": "7.7166667", "city": "Ubeir", "lon": "33.0666667"}, {"lat": "6.7666667", "city": "Ucua", "lon": "34.5666667"}, {"lat": "7.0333333", "city": "Ugar", "lon": "34.2333333"}, {"lat": "7.2666667", "city": "Ujak", "lon": "33.4666667"}, {"lat": "7.0", "city": "Ukaadi", "lon": "34.25"}, {"lat": "7.0", "city": "Ukadi", "lon": "34.25"}, {"lat": "10.05", "city": "Ukka", "lon": "33.35"}, {"lat": "6.7666667", "city": "Ukwaa", "lon": "34.5666667"}, {"lat": "6.7666667", "city": "Ukwar", "lon": "34.5666667"}, {"lat": "7.7166667", "city": "Ulali", "lon": "33.0666667"}, {"lat": "8.8666667", "city": "Ulang", "lon": "33.15"}, {"lat": "7.65", "city": "Umberi", "lon": "33.65"}, {"lat": "10.9333333", "city": "Umm Barbit", "lon": "32.55"}, {"lat": "9.95", "city": "Umm Kaddadah", "lon": "30.5"}, {"lat": "9.95", "city": "Umm Keddada", "lon": "30.5"}, {"lat": "9.6333333", "city": "Umm Sagura", "lon": "29.8333333"}, {"lat": "7.2833333", "city": "Umm Shutur", "lon": "33.2333333"}, {"lat": "6.9666667", "city": "Upal", "lon": "34.2666667"}, {"lat": "6.9666667", "city": "Uphal", "lon": "34.2666667"}, {"lat": "10.6166667", "city": "Uriang", "lon": "32.2"}, {"lat": "7.6833333", "city": "Ushini", "lon": "33.5666667"}, {"lat": "7.1166667", "city": "Utalo", "lon": "33.8333333"}, {"lat": "7.75", "city": "Utili", "lon": "33.05"}, {"lat": "8.1666667", "city": "Wa`at", "lon": "32.1166667"}, {"lat": "9.45", "city": "Wabuit", "lon": "32.1166667"}, {"lat": "11.9333333", "city": "Wad Battah", "lon": "33.0166667"}, {"lat": "11.9333333", "city": "Wad Batta", "lon": "33.0166667"}, {"lat": "10.3833333", "city": "Wad Tabir", "lon": "33.25"}, {"lat": "8.4833333", "city": "Wai Kwai", "lon": "32.7"}, {"lat": "9.7833333", "city": "Wakau", "lon": "32.1833333"}, {"lat": "9.0166667", "city": "Waka", "lon": "34.0666667"}, {"lat": "8.5833333", "city": "Wak Rial", "lon": "33.0833333"}, {"lat": "6.7833333", "city": "Walichmar", "lon": "33.1"}, {"lat": "8.5666667", "city": "Wangbop", "lon": "33.0666667"}, {"lat": "8.0666667", "city": "Wangding", "lon": "33.0666667"}, {"lat": "9.0333333", "city": "Wang Kai", "lon": "29.4833333"}, {"lat": "9.1763889", "city": "Wang Kiel", "lon": "30.8958333"}, {"lat": "9.4311111", "city": "Wang Tar", "lon": "30.9919444"}, {"lat": "9.2894444", "city": "Wang Yag", "lon": "30.9044444"}, {"lat": "9.0333333", "city": "Wanj Kay", "lon": "29.4833333"}, {"lat": "8.3", "city": "Wankarkh", "lon": "29.9666667"}, {"lat": "7.85", "city": "Warawar", "lon": "31.6833333"}, {"lat": "10.4", "city": "Warawut", "lon": "32.5166667"}, {"lat": "11.6", "city": "Warrit", "lon": "32.7833333"}, {"lat": "8.9833333", "city": "Warweng", "lon": "33.4666667"}, {"lat": "9.6333333", "city": "Watau", "lon": "32.2166667"}, {"lat": "9.0833333", "city": "Wath Jak", "lon": "29.6166667"}, {"lat": "9.4536111", "city": "Wath Kech", "lon": "30.8038889"}, {"lat": "9.4536111", "city": "Wath Wang Kech", "lon": "30.8038889"}, {"lat": "8.1666667", "city": "Wa`th", "lon": "32.1166667"}, {"lat": "8.25", "city": "Wau", "lon": "31.3833333"}, {"lat": "8.25", "city": "Waw", "lon": "31.3833333"}, {"lat": "7.2188889", "city": "Wayluark", "lon": "30.4475"}, {"lat": "8.3333333", "city": "Wegbail", "lon": "33.2"}, {"lat": "8.9166667", "city": "Weibuini", "lon": "32.45"}, {"lat": "8.5833333", "city": "Weibuon", "lon": "33.0166667"}, {"lat": "7.7166667", "city": "Weidany", "lon": "32.95"}, {"lat": "8.3333333", "city": "Weinial", "lon": "31.8833333"}, {"lat": "10.05", "city": "Wer Ngorp", "lon": "30.1166667"}, {"lat": "9.4666667", "city": "Wer Ping", "lon": "28.9166667"}, {"lat": "8.9", "city": "Weth", "lon": "33.0833333"}, {"lat": "9.8166667", "city": "Widhong", "lon": "30.3166667"}, {"lat": "9.7833333", "city": "Wijbur", "lon": "31.9"}, {"lat": "9.6025", "city": "Wij-Malakal", "lon": "31.685"}, {"lat": "9.2666667", "city": "Wijur", "lon": "32.1"}, {"lat": "9.0833333", "city": "Willa", "lon": "29.2166667"}, {"lat": "9.4111111", "city": "Wilniang", "lon": "31.3133333"}, {"lat": "9.37", "city": "Wilnyang", "lon": "31.3361111"}, {"lat": "9.4338889", "city": "Wit Dokott", "lon": "31.5752778"}, {"lat": "7.7333333", "city": "Wongotero", "lon": "33.0666667"}, {"lat": "10.4666667", "city": "Wontoi", "lon": "32.4666667"}, {"lat": "8.5", "city": "Wor", "lon": "30.6666667"}, {"lat": "9.8333333", "city": "Wubek", "lon": "30.0833333"}, {"lat": "8.2166667", "city": "Wulang", "lon": "32.2"}, {"lat": "8.0997222", "city": "Wulyang", "lon": "30.8533333"}, {"lat": "10.2333333", "city": "Wunachfiel", "lon": "32.4666667"}, {"lat": "10.2333333", "city": "Wunachwil", "lon": "32.4666667"}, {"lat": "9.0052778", "city": "Wunadong", "lon": "31.2883333"}, {"lat": "10.2666667", "city": "Wunadup", "lon": "32.5666667"}, {"lat": "9.3", "city": "Wunagak", "lon": "32.0833333"}, {"lat": "9.05", "city": "Wunaget", "lon": "32.3833333"}, {"lat": "9.0833333", "city": "Wunagoi Din", "lon": "32.3833333"}, {"lat": "9.0833333", "city": "Wunagoi", "lon": "32.3833333"}, {"lat": "9.7333333", "city": "Wunagwan", "lon": "32.2833333"}, {"lat": "9.1586111", "city": "Wunajok", "lon": "31.6997222"}, {"lat": "8.95", "city": "Wunakei", "lon": "31.7833333"}, {"lat": "9.2458333", "city": "Wunakir", "lon": "31.6811111"}, {"lat": "9.7833333", "city": "Wunakoich", "lon": "32.15"}, {"lat": "9.0955556", "city": "Wunalam", "lon": "31.7380556"}, {"lat": "7.2208333", "city": "Wun Aliet", "lon": "30.3263889"}, {"lat": "9.26", "city": "Wunalong", "lon": "31.6708333"}, {"lat": "9.7", "city": "Wunamith", "lon": "30.75"}, {"lat": "10.8166667", "city": "Wunangwi", "lon": "32.6"}, {"lat": "9.1372222", "city": "Wunanyak", "lon": "31.7244444"}, {"lat": "8.9333333", "city": "Wunapith", "lon": "31.8"}, {"lat": "8.8166667", "city": "Wunarual", "lon": "31.8666667"}, {"lat": "7.1941667", "city": "Wunatau", "lon": "30.4397222"}, {"lat": "10.8166667", "city": "Wunawol", "lon": "32.6"}, {"lat": "10.6", "city": "Wunayan", "lon": "32.5333333"}, {"lat": "11.8833333", "city": "Wunbut", "lon": "32.8"}, {"lat": "10.3666667", "city": "Wundok", "lon": "32.6"}, {"lat": "7.4638889", "city": "Wundong", "lon": "30.455"}, {"lat": "11.9", "city": "Wun Ghir", "lon": "32.7833333"}, {"lat": "8.9166667", "city": "Wunging", "lon": "31.8166667"}, {"lat": "10.2833333", "city": "Wuniyer", "lon": "32.4833333"}, {"lat": "9.0166667", "city": "Wunkir", "lon": "33.4666667"}, {"lat": "8.9166667", "city": "Wunkoi", "lon": "33.6"}, {"lat": "6.8833333", "city": "Wunkok", "lon": "33.0666667"}, {"lat": "9.6833333", "city": "Wunkur", "lon": "30.7833333"}, {"lat": "8.2", "city": "Wunkwil", "lon": "32.2166667"}, {"lat": "7.2597222", "city": "Wun Rual", "lon": "30.3597222"}, {"lat": "7.1333333", "city": "Wunshaiye", "lon": "33.8"}, {"lat": "9.7166667", "city": "Wuntao", "lon": "32.25"}, {"lat": "10.25", "city": "Wuntau", "lon": "32.55"}, {"lat": "8.6333333", "city": "Wunthou", "lon": "33.1"}, {"lat": "10.25", "city": "Wunua", "lon": "32.55"}, {"lat": "9.25", "city": "Wunyar", "lon": "29.1166667"}, {"lat": "10.5833333", "city": "Wunyat", "lon": "32.5333333"}, {"lat": "9.3802778", "city": "Wuobo", "lon": "31.2952778"}, {"lat": "10.25", "city": "Wurang", "lon": "32.5833333"}, {"lat": "9.0005556", "city": "Wuriyang", "lon": "31.5266667"}, {"lat": "9.6333333", "city": "Wutau", "lon": "32.2166667"}, {"lat": "9.0", "city": "Wuthoing", "lon": "29.8166667"}, {"lat": "9.2688889", "city": "Wuthol", "lon": "31.6391667"}, {"lat": "7.8333333", "city": "Wyaugith", "lon": "31.2166667"}, {"lat": "8.755", "city": "Yafgar", "lon": "30.9775"}, {"lat": "8.95", "city": "Yaiwal", "lon": "33.55"}, {"lat": "8.9166667", "city": "Yarkwaich", "lon": "32.4166667"}, {"lat": "8.2", "city": "Yedid", "lon": "32.2666667"}, {"lat": "10.0166667", "city": "Yelgo", "lon": "33.5166667"}, {"lat": "10.0166667", "city": "Yelgu", "lon": "33.5166667"}, {"lat": "10.0166667", "city": "Yelqu", "lon": "33.5166667"}, {"lat": "9.1527778", "city": "Yenanoi", "lon": "31.5344444"}, {"lat": "9.05", "city": "Yih", "lon": "32.9166667"}, {"lat": "8.3333333", "city": "Yill", "lon": "30.0333333"}, {"lat": "9.8333333", "city": "Yinkusa", "lon": "30.05"}, {"lat": "10.4", "city": "Yolwot", "lon": "32.3166667"}, {"lat": "8.6333333", "city": "Yomding", "lon": "32.85"}, {"lat": "9.1788889", "city": "Yom", "lon": "30.7858333"}, {"lat": "8.3", "city": "Yor", "lon": "32.9166667"}, {"lat": "9.2666667", "city": "Yoynyang", "lon": "29.8333333"}, {"lat": "10.0333333", "city": "Yusuf Batil", "lon": "33.5833333"}, {"lat": "10.0666667", "city": "Yusuf Natcha", "lon": "33.45"}], "27": [{"lat": "11.0666667", "city": "Abania", "lon": "34.55"}, {"lat": "11.1333333", "city": "Abauadala", "lon": "34.5666667"}, {"lat": "14.0333333", "city": "`Abbas `Abd Allah", "lon": "33.3166667"}, {"lat": "14.0333333", "city": "`Abbas `Abdullah", "lon": "33.3166667"}, {"lat": "13.1333333", "city": "Abbasiya", "lon": "32.7666667"}, {"lat": "13.1333333", "city": "Abbassia Gedida", "lon": "32.7666667"}, {"lat": "11.1833333", "city": "Abbogol", "lon": "34.6333333"}, {"lat": "14.35", "city": "`Abd ad Da'im", "lon": "33.45"}, {"lat": "13.6333333", "city": "`Abd al Baqi", "lon": "32.5166667"}, {"lat": "14.0833333", "city": "`Abd al Fadil", "lon": "33.7833333"}, {"lat": "10.2666667", "city": "`Abd al Farraj", "lon": "34.05"}, {"lat": "13.2833333", "city": "`Abd al Ghaffar", "lon": "32.7"}, {"lat": "14.2166667", "city": "`Abd al Ghani", "lon": "33.25"}, {"lat": "14.35", "city": "`Abd al Hafiz\u00cc\u00a7", "lon": "33.4166667"}, {"lat": "14.5333333", "city": "`Abd al Jalil", "lon": "33.35"}, {"lat": "13.0666667", "city": "`Abd al Karim", "lon": "33.8166667"}, {"lat": "14.4833333", "city": "`Abd Allah", "lon": "33.6666667"}, {"lat": "13.8666667", "city": "`Abd Allah `Ali", "lon": "32.9166667"}, {"lat": "14.9166667", "city": "`Abd Allah Kahli", "lon": "32.8166667"}, {"lat": "13.9166667", "city": "`Abd Allah Na'imah", "lon": "32.8833333"}, {"lat": "14.7666667", "city": "`Abd al Majid", "lon": "32.7666667"}, {"lat": "14.6666667", "city": "`Abd al Mawl\u00e1", "lon": "32.5"}, {"lat": "14.4666667", "city": "Abdanab", "lon": "32.9"}, {"lat": "14.4666667", "city": "`Abd an Nab", "lon": "32.9"}, {"lat": "15.1", "city": "`Abd an Nur", "lon": "32.6833333"}, {"lat": "14.5666667", "city": "`Abd ar Rahman", "lon": "33.25"}, {"lat": "14.2833333", "city": "`Abd ar Rasul", "lon": "32.6"}, {"lat": "14.4333333", "city": "`Abd as Sadiq", "lon": "32.5166667"}, {"lat": "14.35", "city": "`Abd ed Daim", "lon": "33.45"}, {"lat": "13.6333333", "city": "`Abd el Bagi", "lon": "32.5166667"}, {"lat": "14.2", "city": "`Abd el Baqi", "lon": "33.3666667"}, {"lat": "14.0833333", "city": "`Abd el Fadil", "lon": "33.7833333"}, {"lat": "10.2666667", "city": "`Abd el Farrag", "lon": "34.05"}, {"lat": "14.5333333", "city": "`Abd el Galil", "lon": "33.35"}, {"lat": "13.2833333", "city": "`Abd el Ghaffar", "lon": "32.7"}, {"lat": "14.2166667", "city": "`Abd el Ghani", "lon": "33.25"}, {"lat": "14.35", "city": "`Abd el Hafiz", "lon": "33.4166667"}, {"lat": "13.0666667", "city": "`Abd el Karim", "lon": "33.8166667"}, {"lat": "14.7666667", "city": "`Abd el Magid", "lon": "32.7666667"}, {"lat": "14.6666667", "city": "`Abd el Mula", "lon": "32.5"}, {"lat": "14.4666667", "city": "`Abd en Nab", "lon": "32.9"}, {"lat": "15.1", "city": "`Abd en Nur", "lon": "32.6833333"}, {"lat": "14.5666667", "city": "`Abd er Rahman", "lon": "33.25"}, {"lat": "14.2833333", "city": "`Abd er Rasul", "lon": "32.6"}, {"lat": "14.4333333", "city": "`Abd es Sadiq", "lon": "32.5166667"}, {"lat": "13.3333333", "city": "`Abdin", "lon": "33.7166667"}, {"lat": "11.0666667", "city": "Abdullah", "lon": "34.6666667"}, {"lat": "14.4833333", "city": "`Abdullah", "lon": "33.6666667"}, {"lat": "13.8666667", "city": "`Abdullah `Ali", "lon": "32.9166667"}, {"lat": "14.9166667", "city": "`Abdullah Kahl", "lon": "32.8166667"}, {"lat": "13.9166667", "city": "`Abdullah Naima", "lon": "32.8833333"}, {"lat": "11.0666667", "city": "Abdullah Qeissan", "lon": "34.6666667"}, {"lat": "14.7666667", "city": "Abdul Majid", "lon": "32.7666667"}, {"lat": "14.3333333", "city": "Abeikli", "lon": "33.4666667"}, {"lat": "11.4166667", "city": "Abela", "lon": "34.5833333"}, {"lat": "9.6166667", "city": "Abguana", "lon": "34.1166667"}, {"lat": "13.3333333", "city": "`Abidin", "lon": "33.7166667"}, {"lat": "14.3833333", "city": "Abraq", "lon": "33.0166667"}, {"lat": "14.6333333", "city": "Abu `Agag", "lon": "32.2833333"}, {"lat": "14.6333333", "city": "Abu `Ajaj", "lon": "32.2833333"}, {"lat": "13.1166667", "city": "Abu Andud", "lon": "32.6833333"}, {"lat": "12.8", "city": "Abu `Aqla", "lon": "34.1"}, {"lat": "13.45", "city": "Abu `Araish", "lon": "32.4"}, {"lat": "14.15", "city": "Abu `Aun", "lon": "32.8"}, {"lat": "14.15", "city": "Abu `Awn", "lon": "32.8"}, {"lat": "10.8666667", "city": "Abu Baras", "lon": "34.5166667"}, {"lat": "14.9", "city": "Abu Dab", "lon": "33.45"}, {"lat": "14.2666667", "city": "Abu Dabarah", "lon": "33.3833333"}, {"lat": "14.2333333", "city": "`Abud", "lon": "33.1333333"}, {"lat": "11.5666667", "city": "Abu Dawaia", "lon": "34.4333333"}, {"lat": "11.5666667", "city": "Abu Dawaya", "lon": "34.4333333"}, {"lat": "11.5666667", "city": "Abu Dawayah", "lon": "34.4333333"}, {"lat": "14.55", "city": "Abu Dawmah", "lon": "33.7333333"}, {"lat": "14.4333333", "city": "Abu Dhaqn", "lon": "33.0333333"}, {"lat": "14.4333333", "city": "Abu Dign", "lon": "33.0333333"}, {"lat": "14.55", "city": "Abu Doma", "lon": "33.7333333"}, {"lat": "14.2666667", "city": "Abu Dubara", "lon": "33.3833333"}, {"lat": "11.0", "city": "Abu Dugur", "lon": "34.95"}, {"lat": "14.7166667", "city": "Abu Galfa", "lon": "33.4833333"}, {"lat": "11.4833333", "city": "Abu Gedaf", "lon": "34.8333333"}, {"lat": "13.5833333", "city": "Abu Geili", "lon": "33.6166667"}, {"lat": "11.5166667", "city": "Abu Gemai", "lon": "34.5"}, {"lat": "11.15", "city": "Abugga", "lon": "34.5166667"}, {"lat": "14.7166667", "city": "Abu Ghanim", "lon": "32.3333333"}, {"lat": "14.6166667", "city": "Abu Gheneiwa", "lon": "32.6166667"}, {"lat": "14.6166667", "city": "Abu Ghunaywah", "lon": "32.6166667"}, {"lat": "14.3166667", "city": "Abu Gi`eirin", "lon": "33.1333333"}, {"lat": "13.85", "city": "Abu Gimri", "lon": "32.25"}, {"lat": "14.9333333", "city": "Abu Guta", "lon": "32.7333333"}, {"lat": "14.1166667", "city": "Abu Halaqim", "lon": "32.45"}, {"lat": "13.8166667", "city": "Abu Hamra'", "lon": "32.1166667"}, {"lat": "13.55", "city": "Abu Har", "lon": "32.1"}, {"lat": "14.4833333", "city": "Abu Haraz", "lon": "33.5166667"}, {"lat": "11.95", "city": "Abu Hashim", "lon": "34.3333333"}, {"lat": "14.2166667", "city": "Abu Hauwa", "lon": "32.6666667"}, {"lat": "14.2166667", "city": "Abu Hawwa'", "lon": "32.6666667"}, {"lat": "14.0333333", "city": "Abu Hibeira", "lon": "32.3833333"}, {"lat": "12.8666667", "city": "Abu Higar", "lon": "34.0"}, {"lat": "12.8666667", "city": "Abu Hijar", "lon": "34.0"}, {"lat": "13.7166667", "city": "Abu Hindi", "lon": "32.5"}, {"lat": "12.4666667", "city": "Abu Hirab", "lon": "34.25"}, {"lat": "15.1833333", "city": "Abu Horira", "lon": "33.5"}, {"lat": "14.2833333", "city": "Abu Hugeir", "lon": "33.3166667"}, {"lat": "12.8666667", "city": "Abu Hujar", "lon": "34.0"}, {"lat": "14.2833333", "city": "Abu Hujayr", "lon": "33.3166667"}, {"lat": "13.05", "city": "Abu Humayrah", "lon": "32.2666667"}, {"lat": "13.05", "city": "Abu Humeira", "lon": "32.2666667"}, {"lat": "12.4666667", "city": "Abu Hurab", "lon": "34.25"}, {"lat": "14.7166667", "city": "Abu Jalfah", "lon": "33.4833333"}, {"lat": "13.5833333", "city": "Abu Jayli", "lon": "33.6166667"}, {"lat": "11.5166667", "city": "Abu Jumayy", "lon": "34.5"}, {"lat": "10.2", "city": "Abu Karish", "lon": "33.9333333"}, {"lat": "11.6", "city": "Abu Kartod", "lon": "34.3833333"}, {"lat": "12.7", "city": "Abu Khadiga", "lon": "34.15"}, {"lat": "12.7", "city": "Abu Khadijah", "lon": "34.15"}, {"lat": "14.55", "city": "Abu Khamsin", "lon": "33.7166667"}, {"lat": "13.5666667", "city": "Abu Khudeira", "lon": "32.3166667"}, {"lat": "12.1333333", "city": "Abu Kuk", "lon": "34.3"}, {"lat": "10.2166667", "city": "Abu Maugud", "lon": "33.9833333"}, {"lat": "10.2166667", "city": "Abu Muqud", "lon": "33.9833333"}, {"lat": "12.7333333", "city": "Abu Na`ama", "lon": "34.1333333"}, {"lat": "12.7333333", "city": "Abu Na`amah", "lon": "34.1333333"}, {"lat": "9.9666667", "city": "Abungoro", "lon": "34.1"}, {"lat": "13.15", "city": "Abu Qandul", "lon": "33.75"}, {"lat": "11.4833333", "city": "Abu Qudaf", "lon": "34.8333333"}, {"lat": "13.85", "city": "Abu Qurun", "lon": "32.4"}, {"lat": "14.9333333", "city": "Abu Quta", "lon": "32.7333333"}, {"lat": "14.9333333", "city": "Abu Qutah", "lon": "32.7333333"}, {"lat": "12.3", "city": "Abu Rakhia", "lon": "32.3"}, {"lat": "11.8833333", "city": "Abu Ramad", "lon": "34.3666667"}, {"lat": "11.9666667", "city": "Abu Regeiba", "lon": "34.7333333"}, {"lat": "12.9333333", "city": "Abu Rukba", "lon": "32.0"}, {"lat": "12.9333333", "city": "Abu Rukbah", "lon": "32.0"}, {"lat": "12.9333333", "city": "Abu Rukha", "lon": "32.0"}, {"lat": "11.9666667", "city": "Abu Ruqaybah", "lon": "34.7333333"}, {"lat": "11.9666667", "city": "Abu Ruqeiba", "lon": "34.7333333"}, {"lat": "11.0", "city": "Abus", "lon": "34.7"}, {"lat": "12.6166667", "city": "Abu Sa`id", "lon": "34.4333333"}, {"lat": "14.7666667", "city": "Abu Sayr", "lon": "33.15"}, {"lat": "14.7666667", "city": "Abu Seir", "lon": "33.15"}, {"lat": "12.5166667", "city": "Abu Shagar", "lon": "32.7333333"}, {"lat": "12.5166667", "city": "Abu Shajar", "lon": "32.7333333"}, {"lat": "11.35", "city": "Abu Shandi", "lon": "34.7"}, {"lat": "11.35", "city": "Abu Shendi", "lon": "34.7"}, {"lat": "11.3833333", "city": "Abu Sheneina", "lon": "34.6666667"}, {"lat": "12.5166667", "city": "Abu Shidar", "lon": "32.7333333"}, {"lat": "11.3833333", "city": "Abu Shinena", "lon": "34.6666667"}, {"lat": "14.9", "city": "Abu Shunayb", "lon": "33.0"}, {"lat": "11.3833333", "city": "Abu Shunaynah", "lon": "34.6666667"}, {"lat": "14.9", "city": "Abu Shuneib", "lon": "33.0"}, {"lat": "14.4166667", "city": "Abu Suneina", "lon": "33.4"}, {"lat": "13.9666667", "city": "Abu Suqra", "lon": "33.6166667"}, {"lat": "13.9666667", "city": "Abu Suqrah", "lon": "33.6166667"}, {"lat": "14.0833333", "city": "Abu Tagara", "lon": "32.0666667"}, {"lat": "12.75", "city": "Abu Tiga", "lon": "34.15"}, {"lat": "13.7833333", "city": "Abu `Urf", "lon": "32.1833333"}, {"lat": "13.7166667", "city": "Abu `Urug", "lon": "34.2166667"}, {"lat": "13.7166667", "city": "Abu `Uruq", "lon": "34.2166667"}, {"lat": "13.2166667", "city": "Abu `Usfur", "lon": "32.1833333"}, {"lat": "14.9166667", "city": "Abu `Ushar", "lon": "33.1833333"}, {"lat": "11.7333333", "city": "Abu Zagholi", "lon": "34.3833333"}, {"lat": "14.2833333", "city": "Abu Zarawi", "lon": "32.3833333"},