{"SG": {"00": [{"lat": "1.3316667", "city": "Adam Park", "lon": "103.8122222"}, {"lat": "1.355", "city": "Adelphi Park Estate", "lon": "103.8288889"}, {"lat": "1.3502778", "city": "Ah Soo Garden", "lon": "103.9002778"}, {"lat": "1.3908333", "city": "Aik Hong and Aik Chiang Estate", "lon": "103.7286111"}, {"lat": "1.2938889", "city": "Alexandra", "lon": "103.8197222"}, {"lat": "1.2938889", "city": "Alexandra Estate", "lon": "103.8197222"}, {"lat": "1.4044444", "city": "Ama Keng", "lon": "103.7066667"}, {"lat": "1.4044444", "city": "Ama Keng Village", "lon": "103.7066667"}, {"lat": "1.3691667", "city": "Ang Mo Kio", "lon": "103.8497222"}, {"lat": "1.3691667", "city": "Ang Mo Kio New Town", "lon": "103.8497222"}, {"lat": "1.3691667", "city": "Ang Mo Kio Village", "lon": "103.8497222"}, {"lat": "1.3094444", "city": "Ardmore Flats", "lon": "103.83"}, {"lat": "1.305", "city": "Ayer Rajah", "lon": "103.7833333"}, {"lat": "1.305", "city": "Ayer Raja New Town", "lon": "103.7833333"}, {"lat": "1.3369444", "city": "Bajau Estate", "lon": "103.6633333"}, {"lat": "1.3577778", "city": "Bamboo Grove Park", "lon": "103.7577778"}, {"lat": "1.3341667", "city": "Bandar Baharu Jurong", "lon": "103.7227778"}, {"lat": "1.3236111", "city": "Ban Guan Park", "lon": "103.7891667"}, {"lat": "1.35", "city": "Banta Tengeh", "lon": "103.65"}, {"lat": "1.3225", "city": "Bedok", "lon": "103.9613889"}, {"lat": "1.3227778", "city": "Bedok Garden", "lon": "103.9577778"}, {"lat": "1.3263889", "city": "Bedok New Town", "lon": "103.9416667"}, {"lat": "1.3225", "city": "Bedok Village", "lon": "103.9613889"}, {"lat": "1.3244444", "city": "Bedok Ville", "lon": "103.9544444"}, {"lat": "1.3516667", "city": "Bena Park", "lon": "103.975"}, {"lat": "1.3205556", "city": "Bin Tong Park", "lon": "103.7975"}, {"lat": "1.3463889", "city": "Bishan New Town", "lon": "103.8530556"}, {"lat": "1.3333333", "city": "Boon Lay", "lon": "103.7"}, {"lat": "1.3352778", "city": "Boon Lay Resettlement Area", "lon": "103.6988889"}, {"lat": "1.3452778", "city": "Braddell Heights Estate", "lon": "103.8652778"}, {"lat": "1.2872222", "city": "Brickworks Estate", "lon": "103.8083333"}, {"lat": "1.35", "city": "Bright Hill Crescent", "lon": "103.8333333"}, {"lat": "1.3302778", "city": "Brizay Park", "lon": "103.7866667"}, {"lat": "1.3516667", "city": "Bukit Batok", "lon": "103.7627778"}, {"lat": "1.3516667", "city": "Bukit Batok New Town", "lon": "103.7627778"}, {"lat": "1.2877778", "city": "Bukit Ho Swee Estate", "lon": "103.83"}, {"lat": "1.4122222", "city": "Bukit Mandai", "lon": "103.7566667"}, {"lat": "1.4122222", "city": "Bukit Mandai Village", "lon": "103.7566667"}, {"lat": "1.2841667", "city": "Bukit Merah Estate", "lon": "103.8230556"}, {"lat": "1.3797222", "city": "Bukit Panjang", "lon": "103.7647222"}, {"lat": "1.3816667", "city": "Bukit Panjang Estate", "lon": "103.7525"}, {"lat": "1.3797222", "city": "Bukit Panjang New Town", "lon": "103.7647222"}, {"lat": "1.3597222", "city": "Bukit Sembawang Estate", "lon": "103.9702778"}, {"lat": "1.3402778", "city": "Bukit Timah", "lon": "103.7758333"}, {"lat": "1.3402778", "city": "Bukit Timah Estate", "lon": "103.7758333"}, {"lat": "1.3402778", "city": "Bukit Timah Village", "lon": "103.7758333"}, {"lat": "1.3744444", "city": "Bulim", "lon": "103.7177778"}, {"lat": "1.3744444", "city": "Bulim Village", "lon": "103.7177778"}, {"lat": "1.2805556", "city": "Buona Vista", "lon": "103.7880556"}, {"lat": "1.2805556", "city": "Buona Vista Village", "lon": "103.7880556"}, {"lat": "1.3366667", "city": "Caidecutt Hill Estate", "lon": "103.835"}, {"lat": "1.3366667", "city": "Caldecott Hill Estate", "lon": "103.835"}, {"lat": "1.3277778", "city": "Camden Park", "lon": "103.8163889"}, {"lat": "1.3266667", "city": "Chai Chee Estate", "lon": "103.9333333"}, {"lat": "1.3416667", "city": "Changi", "lon": "103.9636111"}, {"lat": "1.3844444", "city": "Changi Village", "lon": "103.9830556"}, {"lat": "1.3563889", "city": "Charlton Park", "lon": "103.9013889"}, {"lat": "1.36", "city": "Chia Keng", "lon": "103.8916667"}, {"lat": "1.36", "city": "Chia Keng Village", "lon": "103.8916667"}, {"lat": "1.4086111", "city": "Chia Tong Quah Estate", "lon": "104.0508333"}, {"lat": "1.3113889", "city": "Chinese Gardens", "lon": "103.7977778"}, {"lat": "1.3202778", "city": "Chip Hock Garden", "lon": "103.8136111"}, {"lat": "1.3825", "city": "Choa Chu Kang", "lon": "103.7497222"}, {"lat": "1.3825", "city": "Choa Chu Kang New Town", "lon": "103.7497222"}, {"lat": "1.4444444", "city": "Chong Pang", "lon": "103.8238889"}, {"lat": "1.4444444", "city": "Chong Pang Village", "lon": "103.8238889"}, {"lat": "1.4261111", "city": "Chye Kay", "lon": "103.8241667"}, {"lat": "1.3166667", "city": "City West", "lon": "103.8166667"}, {"lat": "1.3158333", "city": "Clementi", "lon": "103.7647222"}, {"lat": "1.3158333", "city": "Clementi Housing Estate", "lon": "103.7647222"}, {"lat": "1.3158333", "city": "Clementi New Town", "lon": "103.7647222"}, {"lat": "1.3233333", "city": "Coronation Gardens", "lon": "103.8036111"}, {"lat": "1.2911111", "city": "Delta Estate", "lon": "103.8294444"}, {"lat": "1.3972222", "city": "Dixil", "lon": "103.8719444"}, {"lat": "1.2955556", "city": "Dragon View Park", "lon": "103.8238889"}, {"lat": "1.3252778", "city": "Dunearn Estate", "lon": "103.8230556"}, {"lat": "1.3180556", "city": "Eastern Gardens", "lon": "103.945"}, {"lat": "1.3458333", "city": "East View Garden", "lon": "103.9652778"}, {"lat": "1.3105556", "city": "Eden Hall", "lon": "103.8219444"}, {"lat": "1.3313889", "city": "Eden Park", "lon": "103.7925"}, {"lat": "1.3361111", "city": "Eng Khong Gardens", "lon": "103.7705556"}, {"lat": "1.3247222", "city": "Ewart Park", "lon": "103.7825"}, {"lat": "1.3630556", "city": "Faber Garden", "lon": "103.8297222"}, {"lat": "1.3208333", "city": "Faber Hills", "lon": "103.7597222"}, {"lat": "1.3144444", "city": "Fernhill Gardens", "lon": "103.8222222"}, {"lat": "1.3636111", "city": "Fish Farming Estate", "lon": "103.9136111"}, {"lat": "1.3136111", "city": "Frankel Estate", "lon": "103.9294444"}, {"lat": "1.3594444", "city": "Fuyong Estate", "lon": "103.7680556"}, {"lat": "1.3111111", "city": "Gay World Park", "lon": "103.8911111"}, {"lat": "1.32", "city": "Geylang Serai", "lon": "103.91"}, {"lat": "1.32", "city": "Geylang Serai Village", "lon": "103.91"}, {"lat": "1.3111111", "city": "Ghim Moh", "lon": "103.7877778"}, {"lat": "1.3222222", "city": "Goldhill Gardens", "lon": "103.8319444"}, {"lat": "1.3636111", "city": "Hai Sing Park", "lon": "103.905"}, {"lat": "1.3305556", "city": "Happy Gardens", "lon": "103.8963889"}, {"lat": "1.2911111", "city": "Havelock/Delta Estate", "lon": "103.8294444"}, {"lat": "1.2911111", "city": "Havelock Estate", "lon": "103.8294444"}, {"lat": "1.2666667", "city": "Heap Guan", "lon": "103.8"}, {"lat": "1.2666667", "city": "Heap Guan Village", "lon": "103.8"}, {"lat": "1.2891667", "city": "Henderson Estate", "lon": "103.8233333"}, {"lat": "1.3347222", "city": "Hillcrest Park", "lon": "103.8091667"}, {"lat": "1.3136111", "city": "Holland Grove Park", "lon": "103.7802778"}, {"lat": "1.3119444", "city": "Holland", "lon": "103.7933333"}, {"lat": "1.3119444", "city": "Holland Village", "lon": "103.7933333"}, {"lat": "1.3594444", "city": "Hong Kah", "lon": "103.7227778"}, {"lat": "1.3594444", "city": "Hong Kah Village", "lon": "103.7227778"}, {"lat": "1.3397222", "city": "Hong Kong Park", "lon": "103.7855556"}, {"lat": "1.3194444", "city": "Hong Leong Garden", "lon": "103.7547222"}, {"lat": "1.3566667", "city": "Hougang New Town", "lon": "103.8908333"}, {"lat": "1.34", "city": "Huat Choe", "lon": "103.6936111"}, {"lat": "1.34", "city": "Huat Choe Village", "lon": "103.6936111"}, {"lat": "1.355", "city": "Hume Heights", "lon": "103.765"}, {"lat": "1.3686111", "city": "Hun Yeang", "lon": "103.9319444"}, {"lat": "1.3686111", "city": "Hun Yeang Village", "lon": "103.9319444"}, {"lat": "1.2947222", "city": "Island View Estate", "lon": "103.7727778"}, {"lat": "1.3972222", "city": "Jalan Kayu", "lon": "103.8719444"}, {"lat": "1.3413889", "city": "Jurong East", "lon": "103.7391667"}, {"lat": "1.3413889", "city": "Jurong East New Town", "lon": "103.7391667"}, {"lat": "1.3341667", "city": "Jurong", "lon": "103.7227778"}, {"lat": "1.3341667", "city": "Jurong New Town", "lon": "103.7227778"}, {"lat": "1.3341667", "city": "Jurong Town", "lon": "103.7227778"}, {"lat": "1.3341667", "city": "Jurong Village", "lon": "103.7227778"}, {"lat": "1.3502778", "city": "Jurong West", "lon": "103.7227778"}, {"lat": "1.3502778", "city": "Jurong West New Town", "lon": "103.7227778"}, {"lat": "1.3375", "city": "Kaki Bukit Estate", "lon": "103.9091667"}, {"lat": "1.3333333", "city": "Kalang", "lon": "103.8666667"}, {"lat": "1.3333333", "city": "Kallang", "lon": "103.8666667"}, {"lat": "1.3002778", "city": "Kampong Amber", "lon": "103.9116667"}, {"lat": "1.3833333", "city": "Kampong Amoy Quee", "lon": "103.85"}, {"lat": "1.3666667", "city": "Kampong Ayer Bajau", "lon": "103.65"}, {"lat": "1.35", "city": "Kampong Ayer Gemuruh", "lon": "103.9833333"}, {"lat": "1.2833333", "city": "Kampong Ayer Limau", "lon": "103.7166667"}, {"lat": "1.2666667", "city": "Kampong Ayer Merbau", "lon": "103.7166667"}, {"lat": "1.4138889", "city": "Kampong Ayer Samak Darat", "lon": "104.0722222"}, {"lat": "1.4205556", "city": "Kampong Ayer Samak", "lon": "104.0794444"}, {"lat": "1.2666667", "city": "Kampong Baharu", "lon": "103.7333333"}, {"lat": "1.4186111", "city": "Kampong Bahru", "lon": "103.9702778"}, {"lat": "1.3438889", "city": "Kampong Batak", "lon": "103.9216667"}, {"lat": "1.3969444", "city": "Kampong Batu Koyok", "lon": "104.0477778"}, {"lat": "1.3711111", "city": "Kampong Belimbing", "lon": "103.6919444"}, {"lat": "1.3741667", "city": "Kampong Bereh", "lon": "103.6844444"}, {"lat": "1.3813889", "city": "Kampong Beremban", "lon": "103.9158333"}, {"lat": "1.35", "city": "Kampong Blukang", "lon": "103.65"}, {"lat": "1.2166667", "city": "Kampong Bugis", "lon": "103.7666667"}, {"lat": "1.3836111", "city": "Kampong Bukit Panjang", "lon": "103.76"}, {"lat": "1.3333333", "city": "Kampong Chai Chee", "lon": "103.9333333"}, {"lat": "1.3833333", "city": "Kampong Changi", "lon": "104.0"}, {"lat": "1.35", "city": "Kampong Chantek Baharu", "lon": "103.7883333"}, {"lat": "1.4144444", "city": "Kampong Che Jevah", "lon": "103.9897222"}, {"lat": "1.3819444", "city": "Kampong Cutforth", "lon": "103.7363889"}, {"lat": "1.3580556", "city": "Kampong Darat Nanas", "lon": "103.9794444"}, {"lat": "1.3833333", "city": "Kampong Dulah", "lon": "103.6666667"}, {"lat": "1.3208333", "city": "Kampong Eunos", "lon": "103.9177778"}, {"lat": "1.3436111", "city": "Kampong Harvey", "lon": "103.9586111"}, {"lat": "1.3166667", "city": "Kampong Hock Soon", "lon": "103.8666667"}, {"lat": "1.2666667", "city": "Kampong Jagoh", "lon": "103.8166667"}, {"lat": "1.3333333", "city": "Kampong Java Teban", "lon": "103.7333333"}, {"lat": "1.4011111", "city": "Kampong Jelutong", "lon": "103.9588889"}, {"lat": "1.3666667", "city": "Kampong Kebun Baharu", "lon": "103.8666667"}, {"lat": "1.3230556", "city": "Kampong Kembangan", "lon": "103.9283333"}, {"lat": "1.435", "city": "Kampong Kitin", "lon": "103.8591667"}, {"lat": "1.2666667", "city": "Kampong Kopit", "lon": "103.8333333"}, {"lat": "1.4333333", "city": "Kampong Kranji", "lon": "103.75"}, {"lat": "1.3166667", "city": "Kampong Kuchai", "lon": "103.8666667"}, {"lat": "1.3333333", "city": "Kampong Ladang", "lon": "103.9"}, {"lat": "1.35", "city": "Kampong Lew Lian", "lon": "103.8666667"}, {"lat": "1.3777778", "city": "Kampong Loya", "lon": "103.9594444"}, {"lat": "1.3777778", "city": "Kampong Loyang", "lon": "103.9594444"}, {"lat": "1.2666667", "city": "Kampong Mak Baok", "lon": "103.7166667"}, {"lat": "1.4086111", "city": "Kampong Malayu", "lon": "103.9794444"}, {"lat": "1.4172222", "city": "Kampong Mamam", "lon": "103.9761111"}, {"lat": "1.4408333", "city": "Kampong Mandai Kechil", "lon": "103.7652778"}, {"lat": "1.4086111", "city": "Kampong Melayu", "lon": "103.9794444"}, {"lat": "1.4177778", "city": "Kampong Noordin", "lon": "103.965"}, {"lat": "1.3", "city": "Kampong O'Carroll Scott", "lon": "103.7833333"}, {"lat": "1.3166667", "city": "Kampong Pachitan", "lon": "103.9166667"}, {"lat": "1.33", "city": "Kampong Padang Terbakar", "lon": "103.9666667"}, {"lat": "1.4091667", "city": "Kampong Pahang", "lon": "104.0327778"}, {"lat": "1.4083333", "city": "Kampong Pasir", "lon": "104.0841667"}, {"lat": "1.4291667", "city": "Kampong Pasir Merah", "lon": "104.0469444"}, {"lat": "1.3783333", "city": "Kampong Pasir Ris", "lon": "103.9319444"}, {"lat": "1.41", "city": "Kampong Pengkalan Kundor", "lon": "103.8444444"}, {"lat": "1.4094444", "city": "Kampong Pengkalan Pakau", "lon": "104.0725"}, {"lat": "1.4033333", "city": "Kampong Pengkalan Petai", "lon": "103.85"}, {"lat": "1.2333333", "city": "Kampong Perigi Piau", "lon": "103.7666667"}, {"lat": "1.4241667", "city": "Kampong Permatang", "lon": "104.0388889"}, {"lat": "1.2833333", "city": "Kampong Pesek", "lon": "103.6833333"}, {"lat": "1.3811111", "city": "Kampong Pinang", "lon": "103.8941667"}, {"lat": "1.3333333", "city": "Kampong Potong Pasir", "lon": "103.8666667"}, {"lat": "1.2833333", "city": "Kampong Pulau Kechil", "lon": "103.7333333"}, {"lat": "1.4033333", "city": "Kampong Pulau Ubin", "lon": "103.9713889"}, {"lat": "1.4125", "city": "Kampong Punggol", "lon": "103.9102778"}, {"lat": "1.2738889", "city": "Kampong Radin Mas", "lon": "103.8241667"}, {"lat": "1.3333333", "city": "Kampong Reteh", "lon": "103.9"}, {"lat": "1.2166667", "city": "Kampong Saigon", "lon": "103.7666667"}, {"lat": "1.2077778", "city": "Kampong Sakeng", "lon": "103.7777778"}, {"lat": "1.4161111", "city": "Kampong Salabin", "lon": "104.0333333"}, {"lat": "1.3469444", "city": "Kampong San Teng", "lon": "103.8408333"}, {"lat": "1.3983333", "city": "Kampong Sanyongkong", "lon": "104.0577778"}, {"lat": "1.4061111", "city": "Kampong Sanyonkong Parit", "lon": "104.0658333"}, {"lat": "1.3325", "city": "Kampong Sek Lim", "lon": "103.9616667"}, {"lat": "1.4069444", "city": "Kampong Seminei", "lon": "104.0394444"}, {"lat": "1.39", "city": "Kampong Serangoon Kechil", "lon": "103.9072222"}, {"lat": "1.2833333", "city": "Kampong Seraya", "lon": "103.7333333"}, {"lat": "1.2788889", "city": "Kampong Silat Estate", "lon": "103.8263889"}, {"lat": "1.35", "city": "Kampong Sireh", "lon": "103.8833333"}, {"lat": "1.3522222", "city": "Kampong Siren", "lon": "103.8980556"}, {"lat": "1.3166667", "city": "Kampong Soopoo", "lon": "103.8666667"}, {"lat": "1.2063889", "city": "Kampong Sudong", "lon": "103.7286111"}, {"lat": "1.2833333", "city": "Kampong Sultan", "lon": "103.7833333"}, {"lat": "1.4233333", "city": "Kampong Sungai Belang", "lon": "104.0666667"}, {"lat": "1.3880556", "city": "Kampong Sungai Blukar", "lon": "103.9183333"}, {"lat": "1.3516667", "city": "Kampong Sungai Jurong", "lon": "103.7336111"}, {"lat": "1.3166667", "city": "Kampong Sungai Pandan", "lon": "103.75"}, {"lat": "1.3833333", "city": "Kampong Sungai Tengah", "lon": "103.9"}, {"lat": "1.3811111", "city": "Kampong Sungi Pinang", "lon": "103.8941667"}, {"lat": "1.37", "city": "Kampong Tampines", "lon": "103.9511111"}, {"lat": "1.2625", "city": "Kampong Tanah Merah", "lon": "103.7"}, {"lat": "1.3205556", "city": "Kampong Tanah Merah Kechil", "lon": "103.9555556"}, {"lat": "1.4566667", "city": "Kampong Tanjong Irau", "lon": "103.8466667"}, {"lat": "1.3", "city": "Kampong Tanjong Penjuru", "lon": "103.75"}, {"lat": "1.3", "city": "Kampong Tanjong Penuru", "lon": "103.75"}, {"lat": "1.3786111", "city": "Kampong Teban", "lon": "103.9077778"}, {"lat": "1.3333333", "city": "Kampong Tebing Terjun", "lon": "103.75"}, {"lat": "1.3833333", "city": "Kampong Telok", "lon": "103.65"}, {"lat": "1.3719444", "city": "Kampong Tengah", "lon": "103.7038889"}, {"lat": "1.4213889", "city": "Kampong Todak", "lon": "104.0216667"}, {"lat": "1.39", "city": "Kampong Tongkang Pechah", "lon": "103.8763889"}, {"lat": "1.3", "city": "Kampong Tulloch", "lon": "103.7833333"}, {"lat": "1.3166667", "city": "Kampong Ubi", "lon": "103.9"}, {"lat": "1.35", "city": "Kampong Ulu Jurong", "lon": "103.7166667"}, {"lat": "1.3461111", "city": "Kampong Ulu Pandan", "lon": "103.745"}, {"lat": "1.4313889", "city": "Kampong Unam", "lon": "104.0597222"}, {"lat": "1.4313889", "city": "Kampong Unum", "lon": "104.0597222"}, {"lat": "1.4566667", "city": "Kampong Wah Tuang", "lon": "103.8466667"}, {"lat": "1.2833333", "city": "Kampong Wak Bechik", "lon": "103.7166667"}, {"lat": "1.3833333", "city": "Kampong Wak Dulah", "lon": "103.6666667"}, {"lat": "1.4613889", "city": "Kampong Wak Hassan", "lon": "103.8363889"}, {"lat": "1.2666667", "city": "Kampong Wak Sekak", "lon": "103.7"}, {"lat": "1.3166667", "city": "Kampong Wak Tanjong", "lon": "103.9"}, {"lat": "1.35", "city": "Kampong Wing Loong", "lon": "103.9719444"}, {"lat": "1.3419444", "city": "Kampong Woodleigh", "lon": "103.8719444"}, {"lat": "1.4375", "city": "Kam Wak Hassan", "lon": "103.8305556"}, {"lat": "1.3761111", "city": "Kangkar", "lon": "103.9016667"}, {"lat": "1.3777778", "city": "Keat Hong", "lon": "103.7441667"}, {"lat": "1.3777778", "city": "Keat Hong Village", "lon": "103.7441667"}, {"lat": "1.3230556", "city": "Kembangan", "lon": "103.9283333"}, {"lat": "1.2930556", "city": "Kent Ridge", "lon": "103.7844444"}, {"lat": "1.3572222", "city": "Kian Hong Estate", "lon": "103.7261111"}, {"lat": "1.3616667", "city": "Kian Teck San Estate", "lon": "103.6652778"}, {"lat": "1.3402778", "city": "Kilburn Estate", "lon": "103.7813889"}, {"lat": "1.3413889", "city": "Kim Chuan", "lon": "103.9033333"}, {"lat": "1.3016667", "city": "Kimlin Park", "lon": "103.8269444"}, {"lat": "1.3344444", "city": "King Albert Park", "lon": "103.7797222"}, {"lat": "1.3183333", "city": "Kingsmead Hall", "lon": "103.805"}, {"lat": "1.4333333", "city": "Kranji", "lon": "103.75"}, {"lat": "1.3491667", "city": "Lam Kiong Estate", "lon": "103.6527778"}, {"lat": "1.3769444", "city": "Lam San", "lon": "103.7313889"}, {"lat": "1.3769444", "city": "Lam San Village", "lon": "103.7313889"}, {"lat": "1.3169444", "city": "Leedon Park", "lon": "103.7941667"}, {"lat": "1.4152778", "city": "Lim Chu Kang Estate", "lon": "103.6766667"}, {"lat": "1.4366667", "city": "Lim Chu Kang", "lon": "103.7094444"}, {"lat": "1.33", "city": "Lokvang", "lon": "103.6813889"}, {"lat": "1.33", "city": "Lokyang", "lon": "103.6813889"}, {"lat": "1.33", "city": "Lokyang Village", "lon": "103.6813889"}, {"lat": "1.3166667", "city": "Lorong Tiga Estate", "lon": "103.8666667"}, {"lat": "1.3255556", "city": "Lucky Hills", "lon": "103.9527778"}, {"lat": "1.3286111", "city": "Lucky Park", "lon": "103.7913889"}, {"lat": "1.4122222", "city": "Mandai", "lon": "103.7566667"}, {"lat": "1.4122222", "city": "Mandai Road Village", "lon": "103.7566667"}, {"lat": "1.3041667", "city": "Marine Parade Estate", "lon": "103.9247222"}, {"lat": "1.4297222", "city": "Marsiling Estate", "lon": "103.7675"}, {"lat": "1.4411111", "city": "Marsiling", "lon": "103.7708333"}, {"lat": "1.3202778", "city": "Maryland Estate", "lon": "103.7869444"}, {"lat": "1.3361111", "city": "Mata Ikan", "lon": "103.975"}, {"lat": "1.3361111", "city": "Mata Ikan Village", "lon": "103.975"}, {"lat": "1.3994444", "city": "Matilda Estate", "lon": "103.9027778"}, {"lat": "1.3719444", "city": "Mayflower Estate", "lon": "103.8394444"}, {"lat": "1.3144444", "city": "McMahon Park", "lon": "103.785"}, {"lat": "1.3055556", "city": "Medway Park", "lon": "103.7755556"}, {"lat": "1.4455556", "city": "Mok Peng Hiang Estate", "lon": "103.7969444"}, {"lat": "1.3047222", "city": "Mount Emily Park", "lon": "103.8472222"}, {"lat": "1.3316667", "city": "Mount Pleasant", "lon": "103.8327778"}, {"lat": "1.3233333", "city": "Mount Rosie", "lon": "103.8341667"}, {"lat": "1.3358333", "city": "Mount Vernon", "lon": "103.8975"}, {"lat": "1.4219444", "city": "Namazie Estate", "lon": "103.7069444"}, {"lat": "1.4027778", "city": "Nee Soon Estate", "lon": "103.8177778"}, {"lat": "1.4027778", "city": "Nee Soon", "lon": "103.8177778"}, {"lat": "1.4027778", "city": "Nee Soon Village", "lon": "103.8177778"}, {"lat": "1.3016667", "city": "Nepal Park", "lon": "103.7880556"}, {"lat": "1.4394444", "city": "Ng Kay Boon Estate", "lon": "103.7311111"}, {"lat": "1.3152778", "city": "Oei Tiong Ham Park", "lon": "103.7938889"}, {"lat": "1.3088889", "city": "Old Kallang Airport Estate", "lon": "103.9013889"}, {"lat": "1.35", "city": "Ong Lee", "lon": "103.75"}, {"lat": "1.35", "city": "Ong Lee Village", "lon": "103.75"}, {"lat": "1.3180556", "city": "Opera Estate", "lon": "103.9369444"}, {"lat": "1.2825", "city": "Outram Park", "lon": "103.8380556"}, {"lat": "1.33", "city": "Padang Terbakar Village", "lon": "103.9666667"}, {"lat": "1.3183333", "city": "Pandan Valley", "lon": "103.7758333"}, {"lat": "1.2927778", "city": "Pasir Panjang", "lon": "103.7708333"}, {"lat": "1.2927778", "city": "Pasir Panjang Village", "lon": "103.7708333"}, {"lat": "1.3722222", "city": "Pasir Ris New Town", "lon": "103.9477778"}, {"lat": "1.3722222", "city": "Pasir Ris", "lon": "103.9477778"}, {"lat": "1.3722222", "city": "Pasir Ris Village", "lon": "103.9477778"}, {"lat": "1.3538889", "city": "Paya Lebar", "lon": "103.8905556"}, {"lat": "1.3694444", "city": "Peoples Garden", "lon": "103.9047222"}, {"lat": "1.2844444", "city": "People's Park", "lon": "103.8419444"}, {"lat": "1.3302778", "city": "Perseverance Estate", "lon": "103.9113889"}, {"lat": "1.2988889", "city": "Phoenix Park", "lon": "103.8122222"}, {"lat": "1.3333333", "city": "Playfair Estate", "lon": "103.8833333"}, {"lat": "1.2963889", "city": "Prince Edward Park", "lon": "103.7736111"}, {"lat": "1.3", "city": "Prince Edward Point", "lon": "103.7666667"}, {"lat": "1.3622222", "city": "Princess Elizabeth Estate", "lon": "103.7594444"}, {"lat": "1.3166667", "city": "Pulau Minyak", "lon": "103.8666667"}, {"lat": "1.4033333", "city": "Pulau Ubin", "lon": "103.9713889"}, {"lat": "1.4033333", "city": "Pulau Ubin Village", "lon": "103.9713889"}, {"lat": "1.3627778", "city": "Punggol Estate", "lon": "103.9083333"}, {"lat": "1.4144444", "city": "Punggol", "lon": "103.9069444"}, {"lat": "1.4144444", "city": "Punggol Village", "lon": "103.9069444"}, {"lat": "1.3188889", "city": "Queen Astrid Park", "lon": "103.7908333"}, {"lat": "1.2941667", "city": "Queenstown Estate", "lon": "103.8025"}, {"lat": "1.2941667", "city": "Queenstown New Town", "lon": "103.8025"}, {"lat": "1.2941667", "city": "Queenstown", "lon": "103.8025"}, {"lat": "1.3441667", "city": "Quemoy Park", "lon": "103.8972222"}, {"lat": "1.3333333", "city": "Race Course Village", "lon": "103.8"}, {"lat": "1.2738889", "city": "Radin Mas", "lon": "103.8241667"}, {"lat": "1.3322222", "city": "Raffles Park", "lon": "103.8044444"}, {"lat": "1.3480556", "city": "Raya Garden", "lon": "103.8972222"}, {"lat": "1.3219444", "city": "Rebecca Park", "lon": "103.8008333"}, {"lat": "1.3061111", "city": "Rochester Park", "lon": "103.7866667"}, {"lat": "1.3027778", "city": "Rose Garden", "lon": "103.9147222"}, {"lat": "1.2666667", "city": "Saga", "lon": "103.8333333"}, {"lat": "1.2666667", "city": "Saga Village", "lon": "103.8333333"}, {"lat": "1.3277778", "city": "Saint Michael's Estate", "lon": "103.8608333"}, {"lat": "1.4136111", "city": "Sam Heng Estate", "lon": "103.9755556"}, {"lat": "1.4136111", "city": "Sam Hin Estate", "lon": "103.9755556"}, {"lat": "1.2597222", "city": "Sarang Rimau", "lon": "103.8088889"}, {"lat": "1.3", "city": "Sea View Estate", "lon": "103.9088889"}, {"lat": "1.3844444", "city": "Seletar Hills Estate", "lon": "103.8680556"}, {"lat": "1.41", "city": "Seletar", "lon": "103.8741667"}, {"lat": "1.4508333", "city": "Sembawang Estate", "lon": "103.8286111"}, {"lat": "1.3727778", "city": "Sembawang Hills Estate", "lon": "103.8302778"}, {"lat": "1.4508333", "city": "Sembawang", "lon": "103.8286111"}, {"lat": "1.4508333", "city": "Sembawang Village", "lon": "103.8286111"}, {"lat": "1.4069444", "city": "Seminoi", "lon": "104.0394444"}, {"lat": "1.3319444", "city": "Sennett Estate", "lon": "103.8716667"}, {"lat": "1.3638889", "city": "Serangoon Garden Estate", "lon": "103.8575"}, {"lat": "1.3508333", "city": "Serangoon New Town", "lon": "103.8708333"}, {"lat": "1.3508333", "city": "Serangoon", "lon": "103.8708333"}, {"lat": "1.3627778", "city": "Serangoon Village", "lon": "103.8975"}, {"lat": "1.3277778", "city": "Shamrock Park", "lon": "103.7969444"}, {"lat": "1.3280556", "city": "Siew Lim Park", "lon": "103.9533333"}, {"lat": "1.3411111", "city": "Simei Estate", "lon": "103.9561111"}, {"lat": "1.3411111", "city": "Simei New Town", "lon": "103.9561111"}, {"lat": "1.3411111", "city": "Simei", "lon": "103.9561111"}, {"lat": "1.3341667", "city": "Simpang Bedok", "lon": "103.9522222"}, {"lat": "1.3341667", "city": "Simpang Bedok Village", "lon": "103.9522222"}, {"lat": "1.2930556", "city": "Singapore City", "lon": "103.8558333"}, {"lat": "1.2930556", "city": "Singapore", "lon": "103.8558333"}, {"lat": "1.3791667", "city": "Singapore United Plantation", "lon": "103.8577778"}, {"lat": "1.4141667", "city": "Sin Watt Estate", "lon": "103.9505556"}, {"lat": "1.3158333", "city": "Sit Estate", "lon": "103.7647222"}, {"lat": "1.3416667", "city": "Somapah Changi", "lon": "103.9636111"}, {"lat": "1.3416667", "city": "Somapah Changi Village", "lon": "103.9636111"}, {"lat": "1.3594444", "city": "Somapah Serangoon", "lon": "103.9019444"}, {"lat": "1.36", "city": "Somapah", "lon": "103.8916667"}, {"lat": "1.3138889", "city": "Sommerville Estate", "lon": "103.8069444"}, {"lat": "1.3588889", "city": "Song Hah Estate", "lon": "103.6647222"}, {"lat": "1.3533333", "city": "Soo Chow Garden", "lon": "103.8308333"}, {"lat": "1.3952778", "city": "Springleaf Park", "lon": "103.8213889"}, {"lat": "1.3158333", "city": "Spring Park Estate", "lon": "103.9444444"}, {"lat": "1.4105556", "city": "Sungai Mandai", "lon": "103.7769444"}, {"lat": "1.4105556", "city": "Sungai Mandai Village", "lon": "103.7769444"}, {"lat": "1.4380556", "city": "Sungai Simpang", "lon": "103.8266667"}, {"lat": "1.4213889", "city": "Sungai Unum Estate", "lon": "104.0502778"}, {"lat": "1.4380556", "city": "Sungei Simpang Village", "lon": "103.8266667"}, {"lat": "1.3088889", "city": "Sussex Estate", "lon": "103.7688889"}, {"lat": "1.32", "city": "Swiss Cottage Estate", "lon": "103.8316667"}, {"lat": "1.3552778", "city": "Tai Hwan Gardens", "lon": "103.8608333"}, {"lat": "1.3475", "city": "Tai Kheng Gardens", "lon": "103.8997222"}, {"lat": "1.3361111", "city": "Tai Seng", "lon": "103.9036111"}, {"lat": "1.3580556", "city": "Tampines Estate", "lon": "103.9402778"}, {"lat": "1.3491667", "city": "Tampines New Town", "lon": "103.9497222"}, {"lat": "1.3491667", "city": "Tampines", "lon": "103.9497222"}, {"lat": "1.3013889", "city": "Tanglin Halt", "lon": "103.7975"}, {"lat": "1.3022222", "city": "Tanglin Hill", "lon": "103.8147222"}, {"lat": "1.3166667", "city": "Tanglin", "lon": "103.8166667"}, {"lat": "1.4091667", "city": "Tan Hua Gek Estate", "lon": "103.6958333"}, {"lat": "1.2833333", "city": "Tanjong Pagar", "lon": "103.8333333"}, {"lat": "1.4533333", "city": "Tay Keng Loon Estate", "lon": "103.7988889"}, {"lat": "1.3833333", "city": "Teacher's Housing Estate", "lon": "103.8286111"}, {"lat": "1.4155556", "city": "Teck Chong Estate", "lon": "103.7616667"}, {"lat": "1.3675", "city": "Teck Hock", "lon": "103.9161111"}, {"lat": "1.3675", "city": "Teck Hock Village", "lon": "103.9161111"}, {"lat": "1.2747222", "city": "Telok Blangah Estate", "lon": "103.8116667"}, {"lat": "1.2747222", "city": "Telok Blangah New Town", "lon": "103.8116667"}, {"lat": "1.2747222", "city": "Telok Blanga", "lon": "103.8116667"}, {"lat": "1.3719444", "city": "Tengah", "lon": "103.7038889"}, {"lat": "1.3536111", "city": "Thomson Garden Estate", "lon": "103.8386111"}, {"lat": "1.3572222", "city": "Thomson Park", "lon": "103.8363889"}, {"lat": "1.3513889", "city": "Thomson Ridge Estate", "lon": "103.8327778"}, {"lat": "1.3491667", "city": "Thomson Rise Estate", "lon": "103.8436111"}, {"lat": "1.3491667", "city": "Thomson", "lon": "103.8436111"}, {"lat": "1.3491667", "city": "Thomson Village", "lon": "103.8436111"}, {"lat": "1.4180556", "city": "Thong Hoe", "lon": "103.7019444"}, {"lat": "1.4180556", "city": "Thong Hoe Village", "lon": "103.7019444"}, {"lat": "1.3597222", "city": "Tian Guan Estate", "lon": "103.8261111"}, {"lat": "1.2833333", "city": "Tiong Baharu", "lon": "103.8327778"}, {"lat": "1.2833333", "city": "Tiong Bahru Estate", "lon": "103.8327778"}, {"lat": "1.3561111", "city": "Tiong Guan Estate", "lon": "103.8258333"}, {"lat": "1.3361111", "city": "Toa Payoh New Town", "lon": "103.85"}, {"lat": "1.3361111", "city": "Toa Payoh", "lon": "103.85"}, {"lat": "1.3141667", "city": "Tua Kang Lye", "lon": "103.7766667"}, {"lat": "1.3213889", "city": "Tuas", "lon": "103.6566667"}, {"lat": "1.3213889", "city": "Tuas Village", "lon": "103.6566667"}, {"lat": "1.2930556", "city": "Tumasik", "lon": "103.8558333"}, {"lat": "1.3105556", "city": "Tyersall Park", "lon": "103.8136111"}, {"lat": "1.3333333", "city": "Ulu Bedok", "lon": "103.9333333"}, {"lat": "1.3333333", "city": "Ulu Bedok Village", "lon": "103.9333333"}, {"lat": "1.3202778", "city": "Victoria Park", "lon": "103.8022222"}, {"lat": "1.3266667", "city": "Watten Estate", "lon": "103.8113889"}, {"lat": "1.3330556", "city": "Watten Park", "lon": "103.81"}, {"lat": "1.2969444", "city": "Wessex Estate", "lon": "103.7952778"}, {"lat": "1.3166667", "city": "West Coast Village", "lon": "103.75"}, {"lat": "1.3569444", "city": "Windsor Park Estate", "lon": "103.8247222"}, {"lat": "1.4444444", "city": "Woodlands New Town", "lon": "103.7766667"}, {"lat": "1.4444444", "city": "Woodlands", "lon": "103.7766667"}, {"lat": "1.3416667", "city": "Woodleigh Park", "lon": "103.8677778"}, {"lat": "1.3161111", "city": "Woollerton Park", "lon": "103.8091667"}, {"lat": "1.3322222", "city": "Xilin Estate", "lon": "103.9658333"}, {"lat": "1.3572222", "city": "Yan Kit Village", "lon": "103.9719444"}, {"lat": "1.3572222", "city": "Yan Kit", "lon": "103.9719444"}, {"lat": "1.3944444", "city": "Yew Tee Village", "lon": "103.7538889"}, {"lat": "1.3944444", "city": "Yew Tee", "lon": "103.7538889"}, {"lat": "1.3897222", "city": "Yio Chu Kang Estate", "lon": "103.8538889"}, {"lat": "1.3911111", "city": "Yio Chu Kang Village", "lon": "103.8513889"}, {"lat": "1.3911111", "city": "Yio Chu Kang", "lon": "103.8513889"}, {"lat": "1.4333333", "city": "Yishun New Town", "lon": "103.8311111"}, {"lat": "1.4333333", "city": "Yishun", "lon": "103.8311111"}, {"lat": "1.2872222", "city": "York Hill Estate", "lon": "103.8375"}, {"lat": "1.3944444", "city": "Yow Toe", "lon": "103.7538889"}]}}