{"SR": {"11": [{"lat": "5.9", "city": "Aliance", "lon": "-54.9"}, {"lat": "5.85", "city": "Alkmaar", "lon": "-55.0333333"}, {"lat": "5.9", "city": "Alliance", "lon": "-54.9"}, {"lat": "5.85", "city": "Belwaarde", "lon": "-55.0833333"}, {"lat": "5.6", "city": "Berendslust", "lon": "-55.0333333"}, {"lat": "5.55", "city": "Bergen op Zoom", "lon": "-55.0333333"}, {"lat": "5.6166667", "city": "Bethesda", "lon": "-55.0666667"}, {"lat": "5.8166667", "city": "Boom Jachtlust", "lon": "-55.1"}, {"lat": "5.7166667", "city": "Boxel", "lon": "-55.1"}, {"lat": "5.8666667", "city": "Charlotteburg", "lon": "-54.7833333"}, {"lat": "5.8666667", "city": "Charlottenburg", "lon": "-54.7833333"}, {"lat": "5.6166667", "city": "Chatillon", "lon": "-55.0666667"}, {"lat": "5.8666667", "city": "Clevia", "lon": "-55.1"}, {"lat": "5.9166667", "city": "Constancia", "lon": "-54.9166667"}, {"lat": "5.9166667", "city": "Constantia", "lon": "-54.9166667"}, {"lat": "5.9166667", "city": "Constantin", "lon": "-54.9166667"}, {"lat": "5.6", "city": "De Drie Gebroeders", "lon": "-55.0666667"}, {"lat": "5.7", "city": "Destombesburg", "lon": "-54.7166667"}, {"lat": "5.9166667", "city": "Einde Rust", "lon": "-55.0833333"}, {"lat": "5.9", "city": "Elisabeth's Hoop", "lon": "-55.0333333"}, {"lat": "5.8166667", "city": "Ephrata", "lon": "-54.75"}, {"lat": "5.8166667", "city": "Ephratha", "lon": "-54.75"}, {"lat": "5.5166667", "city": "Esterslust", "lon": "-55.0166667"}, {"lat": "5.5166667", "city": "Esthers Lust", "lon": "-55.0166667"}, {"lat": "5.8833333", "city": "Fort Amsterdam", "lon": "-55.0833333"}, {"lat": "5.8833333", "city": "Fort Neu-Amsterdam", "lon": "-55.0833333"}, {"lat": "5.8833333", "city": "Fort New Amsterdam", "lon": "-55.0833333"}, {"lat": "5.8833333", "city": "Geertruidenberg", "lon": "-55.05"}, {"lat": "5.6166667", "city": "Groot Chatillon en Bethesda", "lon": "-55.0666667"}, {"lat": "5.6166667", "city": "Groot Chatillon", "lon": "-55.0666667"}, {"lat": "5.8833333", "city": "Hecht en Sterk", "lon": "-54.9666667"}, {"lat": "5.6166667", "city": "Herstelling", "lon": "-54.7333333"}, {"lat": "5.8166667", "city": "Jachtlust", "lon": "-55.1"}, {"lat": "5.8166667", "city": "Jacklust", "lon": "-55.1"}, {"lat": "5.8166667", "city": "Jacktlust", "lon": "-55.1"}, {"lat": "5.8166667", "city": "Jagtlust", "lon": "-55.1"}, {"lat": "5.9", "city": "Johan en Margaretha Buitenrust", "lon": "-55.05"}, {"lat": "5.9", "city": "Johan Margaretha en Buitenrust", "lon": "-55.05"}, {"lat": "5.9", "city": "Johan Margaretta Buitenrust", "lon": "-55.05"}, {"lat": "5.9", "city": "Johan Margaretta en Buitenrust", "lon": "-55.05"}, {"lat": "5.9", "city": "Johanna-Margaretha", "lon": "-55.05"}, {"lat": "5.9", "city": "Johannesburg", "lon": "-55.05"}, {"lat": "5.9", "city": "Jonan en Margaretha", "lon": "-55.05"}, {"lat": "5.8666667", "city": "Katwijk", "lon": "-55.0"}, {"lat": "5.6666667", "city": "Klaverblad", "lon": "-55.05"}, {"lat": "5.65", "city": "Klein Chatillon", "lon": "-55.05"}, {"lat": "5.8833333", "city": "Konenburg", "lon": "-55.0"}, {"lat": "5.8833333", "city": "Kronenburg", "lon": "-55.0"}, {"lat": "5.8833333", "city": "Kroonenburg", "lon": "-55.0"}, {"lat": "5.7166667", "city": "Laarwijk", "lon": "-55.0666667"}, {"lat": "5.9166667", "city": "La Ressource", "lon": "-55.1"}, {"lat": "5.9", "city": "Leiden", "lon": "-55.1"}, {"lat": "5.9", "city": "Leijden", "lon": "-55.1"}, {"lat": "5.8666667", "city": "Leli\u00ebndaal", "lon": "-55.0333333"}, {"lat": "5.9333333", "city": "Maasstroom", "lon": "-55.0666667"}, {"lat": "5.9", "city": "Margrita", "lon": "-55.05"}, {"lat": "5.8833333", "city": "Mari\u00ebnburg", "lon": "-55.05"}, {"lat": "5.8166667", "city": "Meerzorg", "lon": "-55.15"}, {"lat": "5.8833333", "city": "Mon Souci", "lon": "-54.9833333"}, {"lat": "5.85", "city": "Mon Tr\u00e9sor", "lon": "-55.0166667"}, {"lat": "5.8833333", "city": "Nieuw Amsterdam", "lon": "-55.0833333"}, {"lat": "5.9166667", "city": "Nieuw Meerzorg", "lon": "-54.9166667"}, {"lat": "5.9", "city": "Nieuw Mocha", "lon": "-54.85"}, {"lat": "5.9166667", "city": "Pieterszorg", "lon": "-55.0833333"}, {"lat": "5.9333333", "city": "Pomona", "lon": "-55.1333333"}, {"lat": "5.6166667", "city": "Portorico", "lon": "-55.0333333"}, {"lat": "5.9", "city": "Post Leiden", "lon": "-55.1"}, {"lat": "5.9", "city": "Post Leijden", "lon": "-55.1"}, {"lat": "5.9", "city": "Post Leyden", "lon": "-55.1"}, {"lat": "5.75", "city": "Potribo Eb", "lon": "-54.75"}, {"lat": "5.75", "city": "Potribo", "lon": "-54.75"}, {"lat": "5.9333333", "city": "Reijns-dorp", "lon": "-54.9"}, {"lat": "5.9333333", "city": "Reynsdorp", "lon": "-54.9"}, {"lat": "5.65", "city": "Rorac", "lon": "-55.05"}, {"lat": "5.9166667", "city": "Rust en Werk", "lon": "-55.0833333"}, {"lat": "5.8333333", "city": "Slootwijk", "lon": "-54.8666667"}, {"lat": "5.8666667", "city": "Speeringhoek", "lon": "-54.9666667"}, {"lat": "5.8666667", "city": "Spieringshoek", "lon": "-54.9666667"}, {"lat": "5.8666667", "city": "Spierinshoek", "lon": "-54.9666667"}, {"lat": "5.8833333", "city": "Storkoe", "lon": "-54.9666667"}, {"lat": "5.8666667", "city": "Suzannasdaal", "lon": "-55.0833333"}, {"lat": "5.7666667", "city": "Tamanredjo", "lon": "-55.0"}, {"lat": "5.7666667", "city": "Tamanridjo", "lon": "-55.0"}, {"lat": "5.5666667", "city": "Tulpenburg", "lon": "-55.05"}, {"lat": "5.8666667", "city": "Visserszorg", "lon": "-55.0166667"}, {"lat": "5.85", "city": "Vliet Zorg", "lon": "-55.0333333"}, {"lat": "5.8833333", "city": "Zoelen", "lon": "-55.0666667"}, {"lat": "5.85", "city": "Zorgvliet", "lon": "-55.0333333"}], "10": [{"lat": "5.1333333", "city": "Abanna Kondre", "lon": "-54.9833333"}, {"lat": "4.5833333", "city": "Adawai", "lon": "-55.1833333"}, {"lat": "4.8166667", "city": "Adjama", "lon": "-55.0"}, {"lat": "5.0", "city": "Affobakka", "lon": "-54.9833333"}, {"lat": "5.0", "city": "Afobaka", "lon": "-54.9833333"}, {"lat": "5.35", "city": "Auca", "lon": "-55.0333333"}, {"lat": "4.5666667", "city": "Baikoetoe", "lon": "-55.3"}, {"lat": "4.5666667", "city": "Bajkoetoe", "lon": "-55.3"}, {"lat": "4.7333333", "city": "Bakra Oppestan", "lon": "-55.1"}, {"lat": "4.7333333", "city": "Bakra-oppeston", "lon": "-55.1"}, {"lat": "4.7333333", "city": "Bakra Opposton", "lon": "-55.1"}, {"lat": "4.7833333", "city": "Beerdoti", "lon": "-55.0666667"}, {"lat": "4.7833333", "city": "Beerdotti", "lon": "-55.0666667"}, {"lat": "5.15", "city": "Bergendaal", "lon": "-55.0666667"}, {"lat": "5.15", "city": "Berg en Dal", "lon": "-55.0666667"}, {"lat": "4.9", "city": "Birihoedoematoe", "lon": "-55.0833333"}, {"lat": "4.9", "city": "Birthoedoematoe", "lon": "-55.0833333"}, {"lat": "5.1", "city": "Boschland", "lon": "-54.9833333"}, {"lat": "5.1", "city": "Bosland", "lon": "-54.9833333"}, {"lat": "5.0666667", "city": "Brokopondo", "lon": "-54.9666667"}, {"lat": "5.0166667", "city": "Bronsweg", "lon": "-55.1666667"}, {"lat": "5.0166667", "city": "Brownsweg", "lon": "-55.1666667"}, {"lat": "4.6", "city": "Copaivagogo", "lon": "-55.1666667"}, {"lat": "4.6666667", "city": "Dam", "lon": "-54.95"}, {"lat": "5.1166667", "city": "De Jong Noord", "lon": "-55.25"}, {"lat": "5.0833333", "city": "De Jong Zuid", "lon": "-55.2333333"}, {"lat": "4.6666667", "city": "Dissiong", "lon": "-55.1"}, {"lat": "4.55", "city": "Doewatta", "lon": "-55.3"}, {"lat": "5.2166667", "city": "Fossi Bergi", "lon": "-55.3333333"}, {"lat": "5.2166667", "city": "Fossiebergi", "lon": "-55.3333333"}, {"lat": "4.8333333", "city": "Ganiakondre", "lon": "-55.0833333"}, {"lat": "4.8166667", "city": "Gansee", "lon": "-55.0666667"}, {"lat": "4.8166667", "city": "Gans\u00e9", "lon": "-55.0666667"}, {"lat": "4.7", "city": "Gege", "lon": "-54.9666667"}, {"lat": "5.1", "city": "Gros", "lon": "-55.25"}, {"lat": "5.1", "city": "Gros Placer", "lon": "-55.25"}, {"lat": "5.1", "city": "Gross Placer", "lon": "-55.25"}, {"lat": "5.15", "city": "Guiana Goldplacer", "lon": "-55.2666667"}, {"lat": "5.15", "city": "Guyanagoudplacer", "lon": "-55.2666667"}, {"lat": "4.9166667", "city": "Kabelstation", "lon": "-55.1333333"}, {"lat": "4.9166667", "city": "Kadjoe", "lon": "-55.0666667"}, {"lat": "4.8833333", "city": "Kapasie Kree", "lon": "-55.0833333"}, {"lat": "4.5833333", "city": "Kapoa", "lon": "-55.1833333"}, {"lat": "4.9666667", "city": "Koffiekamp", "lon": "-55.0"}, {"lat": "4.9666667", "city": "Koffikamp", "lon": "-55.0"}, {"lat": "4.95", "city": "Krikie", "lon": "-55.0"}, {"lat": "5.25", "city": "Kwakoegrob", "lon": "-55.3333333"}, {"lat": "5.25", "city": "Kwakoegron", "lon": "-55.3333333"}, {"lat": "5.2833333", "city": "La Providence", "lon": "-55.05"}, {"lat": "4.8333333", "city": "Lombee", "lon": "-55.0833333"}, {"lat": "4.8333333", "city": "Lomb\u00e9", "lon": "-55.0833333"}, {"lat": "4.9166667", "city": "Makami", "lon": "-55.0833333"}, {"lat": "5.2666667", "city": "Mar\u00e9chalskondre", "lon": "-55.0833333"}, {"lat": "4.9666667", "city": "Maripaondre", "lon": "-55.0"}, {"lat": "5.25", "city": "Moederzorg", "lon": "-55.05"}, {"lat": "5.0833333", "city": "Nieuw Lomb\u00e9", "lon": "-55.0666667"}, {"lat": "4.5666667", "city": "Pada", "lon": "-55.3"}, {"lat": "5.3333333", "city": "Phaedra", "lon": "-55.05"}, {"lat": "5.3333333", "city": "Pheadra", "lon": "-55.05"}, {"lat": "5.3333333", "city": "Phedra", "lon": "-55.05"}, {"lat": "4.95", "city": "Pisjang", "lon": "-55.0"}, {"lat": "5.1166667", "city": "Placer De Jong", "lon": "-55.25"}, {"lat": "5.3166667", "city": "Rama", "lon": "-55.0833333"}, {"lat": "5.2", "city": "Reinsdorp", "lon": "-55.0666667"}, {"lat": "5.1666667", "city": "R\u00e9montcourt", "lon": "-55.0666667"}, {"lat": "5.0833333", "city": "Rosebel", "lon": "-55.15"}, {"lat": "4.7166667", "city": "Samargini", "lon": "-54.9833333"}, {"lat": "5.3166667", "city": "Sectie Oe\u00ebst", "lon": "-55.2666667"}, {"lat": "5.3166667", "city": "Sectie Oost", "lon": "-55.2666667"}, {"lat": "5.3166667", "city": "Sectie O", "lon": "-55.2666667"}, {"lat": "5.3166667", "city": "Sectie", "lon": "-55.2666667"}, {"lat": "5.1666667", "city": "Sesebiase", "lon": "-54.9833333"}, {"lat": "4.75", "city": "Sikakamp", "lon": "-55.0"}, {"lat": "4.75", "city": "Soekroewatra", "lon": "-55.0"}, {"lat": "4.9", "city": "Wakibassoe", "lon": "-55.0833333"}, {"lat": "4.9", "city": "Waktibasoe", "lon": "-55.0833333"}, {"lat": "4.55", "city": "Zoewatta", "lon": "-55.3"}], "13": [{"lat": "5.3", "city": "Abenekokondre", "lon": "-54.2333333"}, {"lat": "5.6", "city": "Adjamoe-kondre", "lon": "-54.25"}, {"lat": "5.6", "city": "Adjoemakondre", "lon": "-54.25"}, {"lat": "5.7833333", "city": "Agitiondro", "lon": "-54.4666667"}, {"lat": "5.7833333", "city": "Agitriondre", "lon": "-54.4666667"}, {"lat": "5.6", "city": "Akalikondre", "lon": "-54.4333333"}, {"lat": "5.6", "city": "Akalli Kondre", "lon": "-54.4333333"}, {"lat": "5.4666667", "city": "Akroikondre", "lon": "-54.1"}, {"lat": "5.5", "city": "Albina", "lon": "-54.05"}, {"lat": "5.5333333", "city": "Bamboesi", "lon": "-54.0333333"}, {"lat": "5.5333333", "city": "Bamboesie", "lon": "-54.0333333"}, {"lat": "5.65", "city": "Basiakampoe", "lon": "-54.2"}, {"lat": "5.4", "city": "Bigiston", "lon": "-54.1333333"}, {"lat": "5.7666667", "city": "Bilo Langa Hoekoe", "lon": "-54.4"}, {"lat": "5.8", "city": "Calbo", "lon": "-54.45"}, {"lat": "5.4833333", "city": "Cassabaondro", "lon": "-54.4"}, {"lat": "5.4833333", "city": "Cassabeondre", "lon": "-54.4"}, {"lat": "5.7", "city": "Christiaankondre", "lon": "-54.0"}, {"lat": "5.7", "city": "Christiankondre", "lon": "-54.0"}, {"lat": "5.4666667", "city": "Eduardkondre", "lon": "-54.1"}, {"lat": "5.75", "city": "Galibi", "lon": "-54.0"}, {"lat": "5.6333333", "city": "George Kondre", "lon": "-54.1"}, {"lat": "5.3", "city": "Gwegwefoetoe", "lon": "-54.2333333"}, {"lat": "5.35", "city": "Jaimeskondre", "lon": "-54.1666667"}, {"lat": "5.35", "city": "James Kondre", "lon": "-54.1666667"}, {"lat": "5.6666667", "city": "Kapasi-kondre", "lon": "-54.0333333"}, {"lat": "5.7666667", "city": "Langa Hoekoe", "lon": "-54.4"}, {"lat": "5.7166667", "city": "Langamankondre", "lon": "-54.0166667"}, {"lat": "5.8", "city": "Lantiwei", "lon": "-54.4166667"}, {"lat": "5.4833333", "city": "Manjaboomkondre", "lon": "-54.0666667"}, {"lat": "5.3", "city": "Mariashoop", "lon": "-54.2333333"}, {"lat": "5.5666667", "city": "Mason Kondre", "lon": "-54.4166667"}, {"lat": "5.5666667", "city": "Moelakondre", "lon": "-54.4333333"}, {"lat": "5.5833333", "city": "Moengoe Tapoe", "lon": "-54.25"}, {"lat": "5.6166667", "city": "Moengo", "lon": "-54.4"}, {"lat": "5.5833333", "city": "Moengotapoe", "lon": "-54.25"}, {"lat": "5.5833333", "city": "Mongotapoe", "lon": "-54.25"}, {"lat": "5.6166667", "city": "Mungo", "lon": "-54.4"}, {"lat": "5.5666667", "city": "Njoeng Pelgrimkondre", "lon": "-54.4333333"}, {"lat": "5.45", "city": "Onikaikondre", "lon": "-54.1"}, {"lat": "5.6833333", "city": "Oplanie", "lon": "-54.3333333"}, {"lat": "5.75", "city": "Oposeilangahoekoe", "lon": "-54.4166667"}, {"lat": "5.5166667", "city": "Ovillanhollo", "lon": "-54.4166667"}, {"lat": "5.5166667", "city": "Ovilonholloi", "lon": "-54.4166667"}, {"lat": "5.5166667", "city": "Ovilon Hollo", "lon": "-54.4166667"}, {"lat": "5.4833333", "city": "Papatam Kondre", "lon": "-54.0666667"}, {"lat": "5.8", "city": "Paradijs", "lon": "-54.4333333"}, {"lat": "5.6666667", "city": "Passikondre", "lon": "-54.0333333"}, {"lat": "5.7833333", "city": "Pikien Santie", "lon": "-54.3666667"}, {"lat": "5.7833333", "city": "Pikien Santi", "lon": "-54.3666667"}, {"lat": "5.5666667", "city": "Pilgrimkondre", "lon": "-54.4333333"}, {"lat": "5.8", "city": "Pinatjarimi", "lon": "-54.4166667"}, {"lat": "5.7833333", "city": "Poelwijk", "lon": "-54.65"}, {"lat": "5.4333333", "city": "Poitehede", "lon": "-54.5833333"}, {"lat": "5.4333333", "city": "Poitehedo", "lon": "-54.5833333"}, {"lat": "5.4333333", "city": "Poiti Hede", "lon": "-54.5833333"}, {"lat": "5.6333333", "city": "Prassara Kondre", "lon": "-54.0666667"}, {"lat": "5.6833333", "city": "Ricanau Moffo", "lon": "-54.4166667"}, {"lat": "5.6166667", "city": "Ricanau", "lon": "-54.3666667"}, {"lat": "5.6833333", "city": "Rikanaumoffo", "lon": "-54.4166667"}, {"lat": "5.6166667", "city": "Rikanau", "lon": "-54.3666667"}, {"lat": "5.3333333", "city": "Swampoekondre", "lon": "-54.2"}, {"lat": "5.7833333", "city": "Tamarin", "lon": "-54.3833333"}, {"lat": "5.5333333", "city": "Tapahoekoe", "lon": "-54.0333333"}, {"lat": "5.6333333", "city": "Toekoppie", "lon": "-54.3"}, {"lat": "5.7666667", "city": "Tojakondre", "lon": "-54.4166667"}, {"lat": "5.8", "city": "Wan-ati", "lon": "-54.45"}, {"lat": "5.5833333", "city": "Wanemoffe", "lon": "-54.25"}, {"lat": "5.8", "city": "Wanhati", "lon": "-54.45"}, {"lat": "5.8", "city": "Wanhatti", "lon": "-54.45"}, {"lat": "5.45", "city": "Wijngaardekondre", "lon": "-54.1"}, {"lat": "5.6333333", "city": "Wonoredjo", "lon": "-54.4"}, {"lat": "5.3333333", "city": "Zwampoekondre", "lon": "-54.2"}], "12": [{"lat": "5.9166667", "city": "Burnside", "lon": "-56.4"}, {"lat": "5.8833333", "city": "Corome", "lon": "-56.3166667"}, {"lat": "5.8833333", "city": "Coronie", "lon": "-56.3166667"}, {"lat": "5.9", "city": "Friendship", "lon": "-56.3333333"}, {"lat": "5.8833333", "city": "Hamilton", "lon": "-56.25"}, {"lat": "5.8833333", "city": "Ingiekondre", "lon": "-56.2333333"}, {"lat": "5.8833333", "city": "Ingikondre", "lon": "-56.2333333"}, {"lat": "5.7666667", "city": "Jenny", "lon": "-55.9"}, {"lat": "5.9166667", "city": "Leasowes", "lon": "-56.3833333"}, {"lat": "5.8833333", "city": "Mary's Hope", "lon": "-56.3"}, {"lat": "5.8833333", "city": "Moy", "lon": "-56.2833333"}, {"lat": "5.9", "city": "Oxford", "lon": "-56.4166667"}, {"lat": "5.8833333", "city": "Post Coronie", "lon": "-56.3166667"}, {"lat": "5.9", "city": "Sarah", "lon": "-56.3833333"}, {"lat": "5.8833333", "city": "Todness", "lon": "-56.3166667"}, {"lat": "5.8833333", "city": "Totness", "lon": "-56.3166667"}], "15": [{"lat": "5.5", "city": "Agama Kreek", "lon": "-54.7"}, {"lat": "5.5", "city": "Agamakriki", "lon": "-54.7"}, {"lat": "5.3666667", "city": "Agila", "lon": "-55.0"}, {"lat": "5.5166667", "city": "Berceba", "lon": "-55.2166667"}, {"lat": "5.4", "city": "Berlijn", "lon": "-55.2166667"}, {"lat": "5.5166667", "city": "Bersaba", "lon": "-55.2166667"}, {"lat": "5.5166667", "city": "Bethsebs", "lon": "-55.2166667"}, {"lat": "5.4166667", "city": "Bigi Poika", "lon": "-55.5"}, {"lat": "5.3833333", "city": "Blakawabra", "lon": "-54.9166667"}, {"lat": "5.3833333", "city": "Blakawatra", "lon": "-54.9166667"}, {"lat": "5.6166667", "city": "Bloferie", "lon": "-55.3833333"}, {"lat": "5.7166667", "city": "Boston", "lon": "-55.3666667"}, {"lat": "5.4", "city": "Carolina", "lon": "-55.0666667"}, {"lat": "5.4", "city": "Casipora", "lon": "-54.9333333"}, {"lat": "5.4", "city": "Cassipora", "lon": "-54.9333333"}, {"lat": "5.25", "city": "Commissaris Kondre", "lon": "-55.35"}, {"lat": "5.5333333", "city": "Copie", "lon": "-54.8"}, {"lat": "5.6166667", "city": "De Vier Hendrikken", "lon": "-55.3833333"}, {"lat": "5.45", "city": "De Vrede", "lon": "-55.15"}, {"lat": "5.4333333", "city": "Gelderland", "lon": "-54.9833333"}, {"lat": "5.4666667", "city": "Goddodrai", "lon": "-54.6833333"}, {"lat": "5.4666667", "city": "Gododrai", "lon": "-54.6833333"}, {"lat": "5.3666667", "city": "Grankopie", "lon": "-54.65"}, {"lat": "5.3666667", "city": "Grankopi", "lon": "-54.65"}, {"lat": "5.4166667", "city": "Gran Poika", "lon": "-55.5"}, {"lat": "5.4", "city": "Groenkreek", "lon": "-54.7333333"}, {"lat": "5.4", "city": "Groenkr", "lon": "-54.7333333"}, {"lat": "5.4166667", "city": "Groot Poika", "lon": "-55.5"}, {"lat": "5.65", "city": "Haarlem", "lon": "-55.3333333"}, {"lat": "5.5", "city": "Hannover", "lon": "-55.15"}, {"lat": "5.5", "city": "Hanover", "lon": "-55.15"}, {"lat": "5.1", "city": "Ingipoe", "lon": "-55.5"}, {"lat": "5.4", "city": "Java", "lon": "-54.6666667"}, {"lat": "5.4166667", "city": "Joden Savanna", "lon": "-54.9833333"}, {"lat": "5.4166667", "city": "Jodensavanne", "lon": "-54.9833333"}, {"lat": "5.35", "city": "Kopi Ondro", "lon": "-54.6833333"}, {"lat": "5.35", "city": "Kopi Ondroo", "lon": "-54.6833333"}, {"lat": "5.3666667", "city": "Kraka", "lon": "-55.1"}, {"lat": "5.5666667", "city": "La Simplicit\u00e9", "lon": "-55.0666667"}, {"lat": "5.5666667", "city": "La Siplicite", "lon": "-55.0666667"}, {"lat": "5.15", "city": "Loksi-ati", "lon": "-55.4666667"}, {"lat": "5.15", "city": "Loksie Hatti", "lon": "-55.4666667"}, {"lat": "5.7166667", "city": "Mabo B", "lon": "-55.3666667"}, {"lat": "5.7166667", "city": "Maho B", "lon": "-55.3666667"}, {"lat": "5.2333333", "city": "Makka Krieki", "lon": "-55.3666667"}, {"lat": "5.2333333", "city": "Makkakriki", "lon": "-55.3666667"}, {"lat": "5.2333333", "city": "Ma Omba-kondre", "lon": "-55.3666667"}, {"lat": "5.4666667", "city": "Mata", "lon": "-55.35"}, {"lat": "5.5333333", "city": "Matawaribo", "lon": "-55.1666667"}, {"lat": "5.4666667", "city": "Matta", "lon": "-55.35"}, {"lat": "5.5333333", "city": "Mattawaribo", "lon": "-55.1666667"}, {"lat": "5.5333333", "city": "Mattewaribo", "lon": "-55.1666667"}, {"lat": "5.5833333", "city": "Onoribo", "lon": "-55.1666667"}, {"lat": "5.6", "city": "Onverdacht", "lon": "-55.15"}, {"lat": "5.5833333", "city": "Onverwacht", "lon": "-55.1833333"}, {"lat": "5.5833333", "city": "Overtoom", "lon": "-55.15"}, {"lat": "5.5833333", "city": "Overtoon", "lon": "-55.15"}, {"lat": "5.6166667", "city": "Pananam", "lon": "-55.1"}, {"lat": "5.6166667", "city": "Paranam", "lon": "-55.1"}, {"lat": "5.45", "city": "Pawakka", "lon": "-55.0833333"}, {"lat": "5.3333333", "city": "Pisiemoengo", "lon": "-54.8"}, {"lat": "5.25", "city": "Post Mindrineti", "lon": "-55.35"}, {"lat": "5.45", "city": "Powaka", "lon": "-55.0833333"}, {"lat": "5.45", "city": "Powakka", "lon": "-55.0833333"}, {"lat": "5.5", "city": "Replubliek", "lon": "-55.2"}, {"lat": "5.5", "city": "Republiek", "lon": "-55.2"}, {"lat": "5.4166667", "city": "Sabakoe", "lon": "-55.2"}, {"lat": "5.4", "city": "Sabana", "lon": "-55.9166667"}, {"lat": "5.2166667", "city": "Sabanpassie", "lon": "-55.3666667"}, {"lat": "5.2166667", "city": "Saban Passi", "lon": "-55.3666667"}, {"lat": "5.25", "city": "Sabaroe", "lon": "-56.0833333"}, {"lat": "5.5166667", "city": "Sapenda", "lon": "-54.6666667"}, {"lat": "5.5166667", "city": "Sapende", "lon": "-54.6666667"}, {"lat": "5.6166667", "city": "Smalkalden", "lon": "-55.1"}, {"lat": "5.3666667", "city": "Suhoza", "lon": "-55.0"}, {"lat": "5.2", "city": "Tomemoen\u00e9", "lon": "-55.9333333"}, {"lat": "5.5666667", "city": "Topibo", "lon": "-55.1333333"}, {"lat": "5.5833333", "city": "Unverwacht", "lon": "-55.1833333"}, {"lat": "5.6166667", "city": "Vier Hendrikken", "lon": "-55.3833333"}, {"lat": "5.5166667", "city": "Vier Kinderen", "lon": "-55.2333333"}, {"lat": "5.6833333", "city": "Waterland", "lon": "-55.05"}, {"lat": "5.5333333", "city": "Watervliet", "lon": "-55.05"}, {"lat": "5.45", "city": "Wiesawinie", "lon": "-55.05"}, {"lat": "5.3333333", "city": "Zanderij II", "lon": "-55.2666667"}, {"lat": "5.45", "city": "Zanderij I", "lon": "-55.2"}, {"lat": "5.3333333", "city": "Zanderij", "lon": "-55.2666667"}, {"lat": "5.45", "city": "Zandery", "lon": "-55.2"}], "14": [{"lat": "5.8333333", "city": "Bombay", "lon": "-56.8166667"}, {"lat": "5.8833333", "city": "Crappahoek", "lon": "-56.9"}, {"lat": "5.6666667", "city": "Cupido", "lon": "-56.6833333"}, {"lat": "5.9166667", "city": "Glasgow", "lon": "-56.9166667"}, {"lat": "5.8833333", "city": "Gloria", "lon": "-56.9"}, {"lat": "5.8666667", "city": "Groot Henar", "lon": "-56.8666667"}, {"lat": "5.8666667", "city": "Groot Henarpolder", "lon": "-56.8666667"}, {"lat": "5.9", "city": "Hampton Court", "lon": "-56.9166667"}, {"lat": "5.8833333", "city": "Manchester", "lon": "-56.9"}, {"lat": "5.95", "city": "New Nickerie", "lon": "-56.9833333"}, {"lat": "5.95", "city": "Nickerie", "lon": "-56.9833333"}, {"lat": "5.95", "city": "Nieuw Nickerie", "lon": "-56.9833333"}, {"lat": "5.85", "city": "Nooitgedacht", "lon": "-56.85"}, {"lat": "5.9166667", "city": "Paradijs", "lon": "-56.9333333"}, {"lat": "5.9166667", "city": "Paradise", "lon": "-56.9333333"}, {"lat": "5.3833333", "city": "Tapoeripa", "lon": "-56.5666667"}, {"lat": "5.75", "city": "Utrecht", "lon": "-56.6666667"}, {"lat": "5.8666667", "city": "Veer", "lon": "-56.85"}, {"lat": "5.8833333", "city": "Vertrouwen", "lon": "-56.8833333"}, {"lat": "5.7666667", "city": "Wageningen", "lon": "-56.6833333"}, {"lat": "5.9333333", "city": "Waterloo", "lon": "-56.9833333"}], "17": [{"lat": "5.8666667", "city": "Anna Maria", "lon": "-55.5666667"}, {"lat": "5.8833333", "city": "Antongron", "lon": "-55.65"}, {"lat": "5.8833333", "city": "Antonigron", "lon": "-55.65"}, {"lat": "5.5", "city": "Asafiri Kondre", "lon": "-55.9"}, {"lat": "5.7", "city": "Batavia", "lon": "-55.8666667"}, {"lat": "5.85", "city": "Bethania", "lon": "-55.4833333"}, {"lat": "5.7833333", "city": "Boskamp", "lon": "-55.9"}, {"lat": "5.8833333", "city": "Broederschap", "lon": "-55.55"}, {"lat": "5.85", "city": "Calcutta", "lon": "-55.6833333"}, {"lat": "5.8333333", "city": "Caledonia", "lon": "-55.8166667"}, {"lat": "5.8333333", "city": "Carel Fran\u00e7ois", "lon": "-55.7666667"}, {"lat": "5.8333333", "city": "Carl Fran\u00e7ois", "lon": "-55.7666667"}, {"lat": "5.8666667", "city": "Catharina Sofia", "lon": "-55.5666667"}, {"lat": "5.8666667", "city": "Catharina Sophia", "lon": "-55.5666667"}, {"lat": "5.7833333", "city": "Coppenamepunt", "lon": "-55.9"}, {"lat": "5.65", "city": "Dam Parra", "lon": "-55.4166667"}, {"lat": "5.8166667", "city": "Dampoentoeng", "lon": "-55.5"}, {"lat": "5.8166667", "city": "Dampoentong", "lon": "-55.5"}, {"lat": "5.8833333", "city": "Dankbaarheid", "lon": "-55.6"}, {"lat": "5.7833333", "city": "Dirkshoop", "lon": "-55.4833333"}, {"lat": "5.8", "city": "Groningen", "lon": "-55.4666667"}, {"lat": "5.7833333", "city": "Hamburg", "lon": "-55.35"}, {"lat": "5.85", "city": "Hildesheim", "lon": "-55.7666667"}, {"lat": "5.8833333", "city": "Huwalijkszorg", "lon": "-55.6833333"}, {"lat": "5.8833333", "city": "Huwelijkszorg", "lon": "-55.6833333"}, {"lat": "5.8333333", "city": "Kabelpont", "lon": "-55.45"}, {"lat": "5.6666667", "city": "Kalebas Kreek", "lon": "-55.8833333"}, {"lat": "5.75", "city": "Kampong Baroe", "lon": "-55.4"}, {"lat": "5.7833333", "city": "La Poule", "lon": "-55.4166667"}, {"lat": "5.7333333", "city": "Mabo (1)", "lon": "-55.3833333"}, {"lat": "5.7333333", "city": "Mabo Een", "lon": "-55.3833333"}, {"lat": "5.7333333", "city": "Maho (1)", "lon": "-55.3833333"}, {"lat": "5.7333333", "city": "Maho", "lon": "-55.3833333"}, {"lat": "5.6666667", "city": "Marias Lust", "lon": "-55.3833333"}, {"lat": "5.8666667", "city": "Sarah Maria", "lon": "-55.5166667"}, {"lat": "5.8666667", "city": "Sara Maria", "lon": "-55.5166667"}, {"lat": "5.85", "city": "Sidiredjo", "lon": "-55.5666667"}, {"lat": "5.8166667", "city": "Sidodadi", "lon": "-55.5"}, {"lat": "5.85", "city": "Sidoredjo", "lon": "-55.5666667"}, {"lat": "5.8666667", "city": "Smithfield", "lon": "-55.5333333"}, {"lat": "5.8333333", "city": "Stoepenveer", "lon": "-55.4666667"}, {"lat": "5.8333333", "city": "Tambaredjo", "lon": "-55.55"}, {"lat": "5.8333333", "city": "Tamparedjo", "lon": "-55.55"}, {"lat": "5.5666667", "city": "Totikamp", "lon": "-55.4166667"}, {"lat": "5.5666667", "city": "Tottiekamp", "lon": "-55.4166667"}, {"lat": "5.5666667", "city": "Tottikamp", "lon": "-55.4166667"}], "16": [{"lat": "5.8", "city": "Flora", "lon": "-55.2"}, {"lat": "5.8166667", "city": "Landsboerderij", "lon": "-55.2166667"}, {"lat": "5.8833333", "city": "Leonsberg", "lon": "-55.1166667"}, {"lat": "5.85", "city": "Mon Plaisir", "lon": "-55.1333333"}, {"lat": "5.8333333", "city": "Paramaribo", "lon": "-55.1666667"}, {"lat": "5.8333333", "city": "Rainville", "lon": "-55.1"}, {"lat": "5.8166667", "city": "Zorg en Hoop", "lon": "-55.2"}], "19": [{"lat": "5.7", "city": "Domburg", "lon": "-55.0833333"}, {"lat": "5.7", "city": "Klein Poika (1)", "lon": "-55.35"}, {"lat": "5.7", "city": "Klein Poika", "lon": "-55.35"}, {"lat": "5.7", "city": "Lelydorp", "lon": "-55.2333333"}, {"lat": "5.7666667", "city": "Post Lookout", "lon": "-55.3333333"}, {"lat": "5.7666667", "city": "Post Uitkijk", "lon": "-55.3333333"}, {"lat": "5.6833333", "city": "Santigron", "lon": "-55.35"}, {"lat": "5.7666667", "city": "Uitkijk", "lon": "-55.3333333"}, {"lat": "5.7666667", "city": "Witkijk", "lon": "-55.3333333"}], "18": [{"lat": "4.45", "city": "Abenaston", "lon": "-55.3666667"}, {"lat": "4.2833333", "city": "Abendanon", "lon": "-54.5"}, {"lat": "4.45", "city": "Abene-oton", "lon": "-55.3666667"}, {"lat": "3.9166667", "city": "Abetwakondre", "lon": "-54.8"}, {"lat": "4.8666667", "city": "Abontjeman", "lon": "-55.0"}, {"lat": "4.3333333", "city": "Acote", "lon": "-54.45"}, {"lat": "4.05", "city": "Affifisitie", "lon": "-54.8"}, {"lat": "4.05", "city": "Affivisiti", "lon": "-54.8"}, {"lat": "4.05", "city": "Affivisitie", "lon": "-54.8"}, {"lat": "3.5", "city": "Agossa", "lon": "-55.1"}, {"lat": "3.9166667", "city": "Ajokojokondre", "lon": "-54.8"}, {"lat": "4.15", "city": "Akoelitatajeprati", "lon": "-55.9"}, {"lat": "4.15", "city": "Akoelitatojeprati", "lon": "-55.9"}, {"lat": "4.3333333", "city": "Akote", "lon": "-54.45"}, {"lat": "2.5333333", "city": "Alalapadu", "lon": "-56.3333333"}, {"lat": "2.8166667", "city": "Aloepi 1", "lon": "-55.8833333"}, {"lat": "2.8", "city": "Aloepi 2", "lon": "-55.9"}, {"lat": "2.8166667", "city": "Aloepi", "lon": "-55.8833333"}, {"lat": "2.8166667", "city": "Aloepi Een", "lon": "-55.8833333"}, {"lat": "2.8", "city": "Aloepi Twee", "lon": "-55.9"}, {"lat": "3.25", "city": "Alopi", "lon": "-55.5333333"}, {"lat": "3.25", "city": "Alopidorp", "lon": "-55.5333333"}, {"lat": "4.8333333", "city": "Americankondre", "lon": "-54.4666667"}, {"lat": "3.4166667", "city": "Anapaike", "lon": "-54.0333333"}, {"lat": "2.35", "city": "Anapi", "lon": "-56.2833333"}, {"lat": "3.9666667", "city": "Aneewakampoe", "lon": "-54.8"}, {"lat": "3.9666667", "city": "Aneewakondre", "lon": "-54.8"}, {"lat": "3.5", "city": "Apetina", "lon": "-55.0666667"}, {"lat": "2.1166667", "city": "Apikalo", "lon": "-56.25"}, {"lat": "2.1166667", "city": "Apikollo", "lon": "-56.25"}, {"lat": "2.1166667", "city": "Apikolo", "lon": "-56.25"}, {"lat": "2.1166667", "city": "Apikotto", "lon": "-56.25"}, {"lat": "3.9", "city": "Apoekakondre", "lon": "-54.8"}, {"lat": "5.2", "city": "Apoera", "lon": "-57.1666667"}, {"lat": "2.8833333", "city": "Apoteki", "lon": "-55.3833333"}, {"lat": "2.8833333", "city": "Apotheki", "lon": "-55.3833333"}, {"lat": "2.8833333", "city": "Apothekidorp", "lon": "-55.3833333"}, {"lat": "5.2", "city": "Appera", "lon": "-57.1666667"}, {"lat": "2.1166667", "city": "Appikalo", "lon": "-56.25"}, {"lat": "5.2", "city": "Apura", "lon": "-57.1666667"}, {"lat": "5.3333333", "city": "Arakoniekondre", "lon": "-56.4833333"}, {"lat": "5.3333333", "city": "Arokonie Kondre", "lon": "-56.4833333"}, {"lat": "4.0", "city": "Asidonhopo", "lon": "-55.4833333"}, {"lat": "4.0", "city": "Asidonhoppo", "lon": "-55.4833333"}, {"lat": "3.8333333", "city": "Asidonkondre", "lon": "-54.85"}, {"lat": "4.0", "city": "Asindonhopo", "lon": "-55.4833333"}, {"lat": "4.6166667", "city": "Asoenoebo", "lon": "-55.6833333"}, {"lat": "4.2166667", "city": "Asognekondre", "lon": "-54.55"}, {"lat": "4.0", "city": "Assidonhoppo", "lon": "-55.4833333"}, {"lat": "4.45", "city": "Atereboto", "lon": "-55.7666667"}, {"lat": "3.95", "city": "Atipakondre", "lon": "-54.8"}, {"lat": "3.8", "city": "Aucaners", "lon": "-54.85"}, {"lat": "4.3833333", "city": "Aurora", "lon": "-55.4"}, {"lat": "3.8333333", "city": "Awadam", "lon": "-55.65"}, {"lat": "3.8333333", "city": "Awa-damkondre", "lon": "-55.65"}, {"lat": "3.8", "city": "Bakrakondre", "lon": "-55.7"}, {"lat": "3.8", "city": "Bakrapranas", "lon": "-55.7"}, {"lat": "4.9333333", "city": "Balin", "lon": "-55.55"}, {"lat": "3.9833333", "city": "Baloemadam", "lon": "-55.5"}, {"lat": "4.3166667", "city": "Begoeba", "lon": "-55.4166667"}, {"lat": "3.6833333", "city": "Bendorp", "lon": "-54.0833333"}, {"lat": "3.6833333", "city": "Bensdorp", "lon": "-54.0833333"}, {"lat": "3.6833333", "city": "Benzdorf", "lon": "-54.0833333"}, {"lat": "3.6833333", "city": "Benzdorp", "lon": "-54.0833333"}, {"lat": "3.8333333", "city": "Biakronie", "lon": "-54.85"}, {"lat": "4.9333333", "city": "Bilawatra", "lon": "-55.55"}, {"lat": "5.1666667", "city": "Bitagron", "lon": "-56.1"}, {"lat": "5.0", "city": "Bofe", "lon": "-55.55"}, {"lat": "4.3333333", "city": "Boschland", "lon": "-55.7833333"}, {"lat": "4.3333333", "city": "Bosland", "lon": "-55.7833333"}, {"lat": "4.3333333", "city": "Boslanti", "lon": "-55.7833333"}, {"lat": "4.2333333", "city": "Botopasi", "lon": "-55.45"}, {"lat": "4.2333333", "city": "Botopasie", "lon": "-55.45"}, {"lat": "4.2333333", "city": "Botopassi", "lon": "-55.45"}, {"lat": "4.2333333", "city": "Bottopass", "lon": "-55.45"}, {"lat": "4.2333333", "city": "Bottopassi", "lon": "-55.45"}, {"lat": "5.0666667", "city": "Bottriekoe Santi", "lon": "-55.55"}, {"lat": "5.0333333", "city": "Brokolonko", "lon": "-55.5333333"}, {"lat": "5.0333333", "city": "Brokolonko Placer", "lon": "-55.5333333"}, {"lat": "3.9", "city": "Cajana", "lon": "-55.5666667"}, {"lat": "4.1833333", "city": "Clementi", "lon": "-54.5833333"}, {"lat": "4.1833333", "city": "Clementie", "lon": "-54.5833333"}, {"lat": "3.6833333", "city": "Compagnie des Mines d'Or", "lon": "-54.0833333"}, {"lat": "4.1833333", "city": "Compagnieloo", "lon": "-54.6"}, {"lat": "5.35", "city": "Corneles Kondre", "lon": "-56.1333333"}, {"lat": "5.35", "city": "Cornelis-kondre", "lon": "-56.1333333"}, {"lat": "5.35", "city": "Corneliskondre", "lon": "-56.1333333"}, {"lat": "5.35", "city": "Cornelius Kondre", "lon": "-56.1333333"}, {"lat": "3.85", "city": "Cottica", "lon": "-54.2333333"}, {"lat": "3.85", "city": "Cotticadorp", "lon": "-54.2333333"}, {"lat": "3.9", "city": "Dablasiekondre", "lon": "-54.8"}, {"lat": "4.0333333", "city": "Dahome", "lon": "-55.4666667"}, {"lat": "4.0333333", "city": "Dahomey", "lon": "-55.4666667"}, {"lat": "4.2", "city": "Dang", "lon": "-55.4333333"}, {"lat": "3.9", "city": "Deboe", "lon": "-55.5666667"}, {"lat": "3.9", "city": "Deboekondre", "lon": "-55.5666667"}, {"lat": "5.5333333", "city": "De Goede Hoop", "lon": "-55.95"}, {"lat": "3.9", "city": "Dehan", "lon": "-55.5833333"}, {"lat": "3.9", "city": "Dehankondre", "lon": "-55.5833333"}, {"lat": "3.9", "city": "Dehau", "lon": "-55.5833333"}, {"lat": "3.9333333", "city": "Dekweh", "lon": "-55.45"}, {"lat": "3.9333333", "city": "Dekwekondre", "lon": "-55.45"}, {"lat": "4.0166667", "city": "Djoemoe", "lon": "-55.4833333"}, {"lat": "3.9166667", "city": "Dombaai", "lon": "-55.55"}, {"lat": "3.9166667", "city": "Dombaaikondre", "lon": "-55.55"}, {"lat": "5.35", "city": "Donderkamp", "lon": "-56.3666667"}, {"lat": "3.85", "city": "Dorp Cottica", "lon": "-54.2333333"}, {"lat": "5.05", "city": "Dotti Bergi", "lon": "-55.55"}, {"lat": "4.1833333", "city": "Draai", "lon": "-54.5666667"}, {"lat": "4.1833333", "city": "Draij", "lon": "-54.5666667"}, {"lat": "4.1166667", "city": "Drietabbetje", "lon": "-54.6666667"}, {"lat": "4.3833333", "city": "Fijetti", "lon": "-55.8"}, {"lat": "5.2833333", "city": "Fossi Bergi", "lon": "-56.3833333"}, {"lat": "5.2", "city": "Fransman Landing", "lon": "-57.0666667"}, {"lat": "4.4666667", "city": "Gakaba", "lon": "-54.4333333"}, {"lat": "3.8833333", "city": "Godawatra", "lon": "-55.5833333"}, {"lat": "4.0166667", "city": "Goddo", "lon": "-55.4666667"}, {"lat": "3.8833333", "city": "Goddo Watra", "lon": "-55.5833333"}, {"lat": "4.0166667", "city": "Godo", "lon": "-55.4666667"}, {"lat": "3.8833333", "city": "Godo-watradorp", "lon": "-55.5833333"}, {"lat": "3.8833333", "city": "Godowatra", "lon": "-55.5833333"}, {"lat": "4.3166667", "city": "Goejaba", "lon": "-55.4166667"}, {"lat": "5.1", "city": "Gonoe", "lon": "-54.4166667"}, {"lat": "3.8", "city": "Granboridorp", "lon": "-54.85"}, {"lat": "3.8", "city": "Granbori", "lon": "-54.85"}, {"lat": "4.0333333", "city": "Gran Dahomeij", "lon": "-55.4666667"}, {"lat": "3.9666667", "city": "Grandam", "lon": "-55.5333333"}, {"lat": "4.0", "city": "Granmankondre", "lon": "-55.4833333"}, {"lat": "4.6333333", "city": "Granpakkapakka", "lon": "-55.6833333"}, {"lat": "4.0333333", "city": "Gran Slee", "lon": "-55.4833333"}, {"lat": "5.2333333", "city": "H\u00e9doti", "lon": "-56.0666667"}, {"lat": "4.8666667", "city": "Heidoti", "lon": "-55.5666667"}, {"lat": "4.1333333", "city": "Hekoenoe", "lon": "-55.45"}, {"lat": "5.1666667", "city": "Herminadorp", "lon": "-54.35"}, {"lat": "2.9666667", "city": "Hoofdkamp", "lon": "-55.3666667"}, {"lat": "3.3666667", "city": "Intelewa", "lon": "-55.4166667"}, {"lat": "3.3666667", "city": "Intelwakondre", "lon": "-55.4166667"}, {"lat": "4.95", "city": "Jacobkondre", "lon": "-55.5333333"}, {"lat": "4.95", "city": "Jacob Kondre", "lon": "-55.55"}, {"lat": "3.2166667", "city": "Janemale", "lon": "-54.1666667"}, {"lat": "5.1", "city": "Kaaimanstone", "lon": "-56.0833333"}, {"lat": "5.1", "city": "Kaaimanston", "lon": "-56.0833333"}, {"lat": "5.1166667", "city": "Kalfoekondre", "lon": "-54.3833333"}, {"lat": "4.2166667", "city": "Kamaloea", "lon": "-55.45"}, {"lat": "4.2166667", "city": "Kamaroa", "lon": "-55.45"}, {"lat": "4.4666667", "city": "Kapoesanti", "lon": "-56.0666667"}, {"lat": "4.2333333", "city": "Kiokondre", "lon": "-54.55"}, {"lat": "4.2333333", "city": "Klokondre", "lon": "-54.55"}, {"lat": "4.1333333", "city": "Koemboe", "lon": "-55.45"}, {"lat": "4.1333333", "city": "Koembre", "lon": "-55.45"}, {"lat": "3.3833333", "city": "Kontina", "lon": "-55.4166667"}, {"lat": "3.3833333", "city": "Kontina Trio", "lon": "-55.4166667"}, {"lat": "4.2333333", "city": "Krijorokampoe", "lon": "-54.55"}, {"lat": "4.2333333", "city": "Kryoro Kampoe", "lon": "-54.55"}, {"lat": "2.3333333", "city": "Kwamalasamutu", "lon": "-56.7833333"}, {"lat": "4.8166667", "city": "Kwatahede", "lon": "-55.55"}, {"lat": "4.8166667", "city": "Kwattahede", "lon": "-55.55"}, {"lat": "4.3833333", "city": "Ladoewanie", "lon": "-55.4"}, {"lat": "4.3833333", "city": "Laduani", "lon": "-55.4"}, {"lat": "5.0", "city": "Langatabbetje", "lon": "-54.5166667"}, {"lat": "4.3666667", "city": "Lembe", "lon": "-55.7833333"}, {"lat": "4.9166667", "city": "Lemmiki", "lon": "-55.5666667"}, {"lat": "4.1833333", "city": "Levant", "lon": "-55.4333333"}, {"lat": "4.3666667", "city": "Lomb\u00e9", "lon": "-55.7833333"}, {"lat": "3.4833333", "city": "Maboga Kondre", "lon": "-55.3333333"}, {"lat": "3.4833333", "city": "Maboga", "lon": "-55.3333333"}, {"lat": "2.65", "city": "Magali", "lon": "-55.4666667"}, {"lat": "3.7666667", "city": "Magdafien", "lon": "-54.1166667"}, {"lat": "3.7666667", "city": "Magdatien", "lon": "-54.1166667"}, {"lat": "4.1333333", "city": "Mainsi", "lon": "-54.6666667"}, {"lat": "2.65", "city": "Majoli 2", "lon": "-55.4666667"}, {"lat": "2.65", "city": "Majoli", "lon": "-55.4666667"}, {"lat": "2.65", "city": "Majoli Twee", "lon": "-55.4666667"}, {"lat": "4.7166667", "city": "Makajapiengo", "lon": "-55.5666667"}, {"lat": "4.7166667", "city": "Makajapinggo", "lon": "-55.5666667"}, {"lat": "4.7166667", "city": "Makajapingo", "lon": "-55.5666667"}, {"lat": "2.8333333", "city": "Makampedorp", "lon": "-55.3833333"}, {"lat": "2.8333333", "city": "Makampee", "lon": "-55.3833333"}, {"lat": "2.8333333", "city": "Makampe", "lon": "-55.3833333"}, {"lat": "3.1333333", "city": "Malaitawa", "lon": "-54.2166667"}, {"lat": "4.1666667", "city": "Malobbi", "lon": "-55.4333333"}, {"lat": "4.2666667", "city": "Malobi", "lon": "-54.5333333"}, {"lat": "4.4166667", "city": "Malrosee-Kondre", "lon": "-55.3833333"}, {"lat": "4.3333333", "city": "Mambabasoe", "lon": "-55.7833333"}, {"lat": "5.15", "city": "Manillakondre", "lon": "-54.3666667"}, {"lat": "4.2666667", "city": "Manlobbi", "lon": "-54.5333333"}, {"lat": "4.1666667", "city": "Manlobi", "lon": "-55.4333333"}, {"lat": "4.1333333", "city": "Mansi", "lon": "-54.6666667"}, {"lat": "4.1333333", "city": "Mantsjillo", "lon": "-54.6666667"}, {"lat": "4.15", "city": "Mar\u00e9chalkriki", "lon": "-55.4333333"}, {"lat": "4.15", "city": "Mar\u00e9chalskriki", "lon": "-55.4333333"}, {"lat": "5.0", "city": "Matapi", "lon": "-57.2833333"}, {"lat": "5.0", "city": "Matappi", "lon": "-57.2833333"}, {"lat": "4.4166667", "city": "Matrosee-kondree", "lon": "-55.3833333"}, {"lat": "4.0833333", "city": "Miranda", "lon": "-54.7833333"}, {"lat": "4.95", "city": "Misalibiekondre", "lon": "-55.55"}, {"lat": "4.95", "city": "Misalibi", "lon": "-55.55"}, {"lat": "4.8333333", "city": "Moetoetoetabriki", "lon": "-55.5666667"}, {"lat": "4.6666667", "city": "Mofina", "lon": "-55.5666667"}, {"lat": "5.3666667", "city": "Moisimoisikondre", "lon": "-54.6666667"}, {"lat": "5.3666667", "city": "Moismois Kondre", "lon": "-54.6666667"}, {"lat": "4.3333333", "city": "Mombabasoe", "lon": "-55.7833333"}, {"lat": "4.3333333", "city": "Monbabasoe", "lon": "-55.7833333"}, {"lat": "4.3333333", "city": "Monbobasoe", "lon": "-55.7833333"}, {"lat": "4.1333333", "city": "Mooitakie", "lon": "-54.65"}, {"lat": "4.1333333", "city": "Mooitaki", "lon": "-54.65"}, {"lat": "4.8333333", "city": "Nason", "lon": "-54.4666667"}, {"lat": "4.3166667", "city": "Nieuw Bambeij", "lon": "-55.4166667"}, {"lat": "4.95", "city": "Nioe-konare", "lon": "-55.55"}, {"lat": "4.95", "city": "Nioe Kondre", "lon": "-55.55"}, {"lat": "4.95", "city": "Njoeng Jacobkondre", "lon": "-55.55"}, {"lat": "4.95", "city": "Njoen Jacob Kondre", "lon": "-55.55"}, {"lat": "4.9333333", "city": "Oemakondre", "lon": "-55.55"}, {"lat": "4.1666667", "city": "Oeman Santie", "lon": "-55.4333333"}, {"lat": "4.1666667", "city": "Oemansanti", "lon": "-55.4333333"}, {"lat": "4.1833333", "city": "Pada", "lon": "-55.4333333"}, {"lat": "4.6333333", "city": "Paka-Paka", "lon": "-55.6833333"}, {"lat": "5.2333333", "city": "Pakira Kondre", "lon": "-54.3166667"}, {"lat": "4.6333333", "city": "Pakka-Pakka", "lon": "-55.6833333"}, {"lat": "2.9666667", "city": "Panapi", "lon": "-54.1833333"}, {"lat": "4.2166667", "city": "Passaloango", "lon": "-55.45"}, {"lat": "4.2166667", "city": "Passaloa", "lon": "-55.45"}, {"lat": "4.95", "city": "Paubasoe", "lon": "-55.55"}, {"lat": "4.1833333", "city": "Pauwie", "lon": "-54.6"}, {"lat": "4.0333333", "city": "Pempe", "lon": "-55.45"}, {"lat": "3.35", "city": "Pepejoe Dorp", "lon": "-55.45"}, {"lat": "3.35", "city": "Pepejoe", "lon": "-55.45"}, {"lat": "4.1333333", "city": "Piketie", "lon": "-54.6166667"}, {"lat": "4.1333333", "city": "Piketi", "lon": "-54.6166667"}, {"lat": "4.0833333", "city": "Pikienkondre", "lon": "-54.7833333"}, {"lat": "4.1833333", "city": "Pikien Pada", "lon": "-55.4333333"}, {"lat": "4.25", "city": "Pikien Slee", "lon": "-55.45"}, {"lat": "4.0833333", "city": "Pikinkondre", "lon": "-54.7833333"}, {"lat": "3.3833333", "city": "Pikumi", "lon": "-55.4166667"}, {"lat": "3.3833333", "city": "Pikuni", "lon": "-55.4166667"}, {"lat": "3.3166667", "city": "Pisari", "lon": "-55.45"}, {"lat": "3.3166667", "city": "Pisoridorp", "lon": "-55.45"}, {"lat": "3.3166667", "city": "Pisori", "lon": "-55.45"}, {"lat": "3.1", "city": "Pleik\u00e9", "lon": "-54.1833333"}, {"lat": "4.1333333", "city": "Poeketi", "lon": "-54.6166667"}, {"lat": "4.35", "city": "Poeloegoedoe", "lon": "-54.4333333"}, {"lat": "4.3666667", "city": "Poesoegroenoe", "lon": "-55.7833333"}, {"lat": "3.9", "city": "Poigrondorp", "lon": "-55.5666667"}, {"lat": "3.9", "city": "Poigron", "lon": "-55.5666667"}, {"lat": "5.3166667", "city": "Poitehede", "lon": "-54.6166667"}, {"lat": "4.5", "city": "Pokigron", "lon": "-55.3666667"}, {"lat": "4.35", "city": "Poligoudou", "lon": "-54.4333333"}, {"lat": "3.2666667", "city": "Pontoetoedorp", "lon": "-55.4"}, {"lat": "3.2666667", "city": "Pontoetoe", "lon": "-55.4"}, {"lat": "3.3666667", "city": "Popakai", "lon": "-55.4166667"}, {"lat": "3.3666667", "city": "Popokai", "lon": "-55.4166667"}, {"lat": "4.3666667", "city": "Posoegroenoe", "lon": "-55.7833333"}, {"lat": "4.1166667", "city": "Prodobaka", "lon": "-54.6666667"}, {"lat": "4.1166667", "city": "Prodokaba", "lon": "-54.6666667"}, {"lat": "4.1833333", "city": "Saje", "lon": "-54.5666667"}, {"lat": "3.8333333", "city": "Salinkondre", "lon": "-54.8333333"}, {"lat": "4.1", "city": "Sanbendoemie", "lon": "-54.6833333"}, {"lat": "4.1", "city": "Sanbindoni", "lon": "-54.6833333"}, {"lat": "4.1333333", "city": "Sangamansoesa", "lon": "-54.6166667"}, {"lat": "4.1333333", "city": "Sangsimasoesa", "lon": "-54.6166667"}, {"lat": "4.0666667", "city": "Saniki", "lon": "-54.7833333"}, {"lat": "4.1666667", "city": "Saye", "lon": "-54.55"}, {"lat": "4.1166667", "city": "Seboewatra", "lon": "-54.6333333"}, {"lat": "4.05", "city": "Semoisi", "lon": "-55.45"}, {"lat": "4.25", "city": "Slee", "lon": "-55.45"}, {"lat": "4.3833333", "city": "Soekibaka", "lon": "-55.7833333"}, {"lat": "4.0166667", "city": "Solan", "lon": "-55.4833333"}, {"lat": "4.0166667", "city": "Sola", "lon": "-55.4833333"}, {"lat": "3.9333333", "city": "Sonnakampoe", "lon": "-54.8"}, {"lat": "4.35", "city": "Stoelmanseiland", "lon": "-54.4166667"}, {"lat": "3.8833333", "city": "Stonehoekoedorp", "lon": "-55.5833333"}, {"lat": "3.8833333", "city": "Stonehoekoe", "lon": "-55.5833333"}, {"lat": "3.8833333", "city": "Stonhoekoe", "lon": "-55.5833333"}, {"lat": "5.35", "city": "Stonkampoe", "lon": "-54.6333333"}, {"lat": "4.6666667", "city": "Stonkoe", "lon": "-55.5833333"}, {"lat": "4.2833333", "city": "Tabbetje", "lon": "-54.5"}, {"lat": "4.7666667", "city": "Tabrikiekondre", "lon": "-55.55"}, {"lat": "3.9333333", "city": "Tapontekampoe", "lon": "-54.8"}, {"lat": "4.1166667", "city": "Teomaripa", "lon": "-55.45"}, {"lat": "4.0833333", "city": "Tiobato", "lon": "-55.45"}, {"lat": "4.0833333", "city": "Tioboto", "lon": "-55.45"}, {"lat": "2.8", "city": "Tipo", "lon": "-55.9"}, {"lat": "5.2", "city": "Tjakkatjakka Ston", "lon": "-56.1"}, {"lat": "3.3833333", "city": "Toanke", "lon": "-54.05"}, {"lat": "5.0", "city": "Toeboeka", "lon": "-55.5666667"}, {"lat": "4.1166667", "city": "Toemaripa", "lon": "-55.45"}, {"lat": "3.9333333", "city": "Tonpaikampoe", "lon": "-54.8"}, {"lat": "3.3833333", "city": "Touanke", "lon": "-54.05"}, {"lat": "3.25", "city": "Trio", "lon": "-55.5333333"}, {"lat": "4.05", "city": "Vanderhaak", "lon": "-55.45"}, {"lat": "4.3333333", "city": "Vertrouwen", "lon": "-55.7833333"}, {"lat": "4.3333333", "city": "Vertrouw", "lon": "-55.7833333"}, {"lat": "4.05", "city": "Visiti", "lon": "-54.8"}, {"lat": "4.2333333", "city": "Voetoekaba", "lon": "-55.45"}, {"lat": "3.5", "city": "Wajana's", "lon": "-55.1"}, {"lat": "4.3333333", "city": "Wan-ati", "lon": "-55.7833333"}, {"lat": "4.3333333", "city": "Wanhatti", "lon": "-55.7833333"}, {"lat": "4.6833333", "city": "Warnakomoponafaja", "lon": "-55.5666667"}, {"lat": "4.6833333", "city": "Warnakomopponafaja", "lon": "-55.5666667"}, {"lat": "5.2166667", "city": "Washabo", "lon": "-57.1833333"}, {"lat": "5.2166667", "city": "Wasjabo", "lon": "-57.1833333"}, {"lat": "5.1666667", "city": "Witagron", "lon": "-56.1"}, {"lat": "4.5833333", "city": "Wittiehede Ston", "lon": "-55.6833333"}, {"lat": "4.5166667", "city": "Wittikamba", "lon": "-55.35"}]}}