{"ST": {"02": [{"lat": "0.2333333", "city": "A. Andrade", "lon": "6.7"}, {"lat": "0.05", "city": "\u00c1gua-C\u00f4co", "lon": "6.5333333"}, {"lat": "0.2166667", "city": "\u00c1gua Iz\u00e9", "lon": "6.7333333"}, {"lat": "0.05", "city": "Alto Douro", "lon": "6.5333333"}, {"lat": "0.1833333", "city": "Amparo", "lon": "6.6666667"}, {"lat": "0.3166667", "city": "Amparo II", "lon": "6.7166667"}, {"lat": "0.2", "city": "Ant\u00f3nio Dias", "lon": "6.6666667"}, {"lat": "0.3666667", "city": "Bela Vista", "lon": "6.7"}, {"lat": "0.3333333", "city": "Belmonte", "lon": "6.65"}, {"lat": "0.3166667", "city": "Bemfica", "lon": "6.65"}, {"lat": "0.3166667", "city": "Bemposta", "lon": "6.6333333"}, {"lat": "0.2333333", "city": "B. Faro", "lon": "6.6666667"}, {"lat": "0.2166667", "city": "Bind\u00e1", "lon": "6.4666667"}, {"lat": "0.3166667", "city": "Blublu", "lon": "6.7166667"}, {"lat": "0.35", "city": "Boa Entrada", "lon": "6.6666667"}, {"lat": "0.3333333", "city": "Boa Esperan\u00e7a", "lon": "6.6333333"}, {"lat": "0.25", "city": "Bombaim", "lon": "6.6333333"}, {"lat": "0.3166667", "city": "Bombon", "lon": "6.7333333"}, {"lat": "0.2666667", "city": "Buenos Aires", "lon": "6.7166667"}, {"lat": "0.2666667", "city": "Buenos Ayres", "lon": "6.7166667"}, {"lat": "0.3333333", "city": "Cad\u00e3o", "lon": "6.5333333"}, {"lat": "0.3", "city": "Caix\u00e3o Grande", "lon": "6.7166667"}, {"lat": "0.35", "city": "Caldeiras", "lon": "6.6333333"}, {"lat": "0.3833333", "city": "Canavial", "lon": "6.6666667"}, {"lat": "0.2166667", "city": "Cantagalo", "lon": "6.6833333"}, {"lat": "0.2", "city": "Caridade", "lon": "6.7"}, {"lat": "0.25", "city": "Catumbela", "lon": "6.6666667"}, {"lat": "0.3166667", "city": "Chami\u00e7o", "lon": "6.6"}, {"lat": "0.1833333", "city": "Col\u00f3nia A\u00e7oreana", "lon": "6.6833333"}, {"lat": "0.3333333", "city": "Diana", "lon": "6.6833333"}, {"lat": "0.3166667", "city": "Diogo Vaz", "lon": "6.5"}, {"lat": "0.1166667", "city": "Dona Augusta", "lon": "6.6333333"}, {"lat": "0.1333333", "city": "Dona Eug\u00e9nia", "lon": "6.6166667"}, {"lat": "0.0333333", "city": "Enjale", "lon": "6.5166667"}, {"lat": "0.1333333", "city": "Ermelinda", "lon": "6.5833333"}, {"lat": "0.3333333", "city": "Esprainha", "lon": "6.5166667"}, {"lat": "0.4166667", "city": "Fern\u00e3o Dias", "lon": "6.6833333"}, {"lat": "0.25", "city": "F. Mantero", "lon": "6.7166667"}, {"lat": "0.25", "city": "Formiga", "lon": "6.4833333"}, {"lat": "0.2666667", "city": "Ghegue Novo", "lon": "6.7166667"}, {"lat": "0.25", "city": "Gra\u00e7a", "lon": "6.4833333"}, {"lat": "0.15", "city": "Granja", "lon": "6.6333333"}, {"lat": "0.3333333", "city": "Gratid\u00e3o", "lon": "6.6833333"}, {"lat": "0.3833333", "city": "Guadalupe", "lon": "6.65"}, {"lat": "0.35", "city": "Guarda", "lon": "6.6"}, {"lat": "0.2", "city": "Guayaquil", "lon": "6.6166667"}, {"lat": "0.2666667", "city": "Guegue Novo", "lon": "6.7166667"}, {"lat": "0.0833333", "city": "Gumbela", "lon": "6.55"}, {"lat": "0.05", "city": "Henrique", "lon": "6.55"}, {"lat": "0.2166667", "city": "I\u00f3 Grande", "lon": "6.6166667"}, {"lat": "0.2666667", "city": "Java", "lon": "6.65"}, {"lat": "0.25", "city": "Kimpo", "lon": "6.7166667"}, {"lat": "0.2833333", "city": "Laura", "lon": "6.7"}, {"lat": "0.25", "city": "Lemb\u00e1", "lon": "6.4666667"}, {"lat": "0.3", "city": "Lemos", "lon": "6.7"}, {"lat": "0.2666667", "city": "Macambrar\u00e1", "lon": "6.6333333"}, {"lat": "0.3333333", "city": "Madalena", "lon": "6.6666667"}, {"lat": "0.3333333", "city": "Magdalena", "lon": "6.6666667"}, {"lat": "0.2666667", "city": "Makambrar\u00e1", "lon": "6.6333333"}, {"lat": "0.0666667", "city": "M. Alice", "lon": "6.5333333"}, {"lat": "0.2333333", "city": "Matocana", "lon": "6.7"}, {"lat": "0.2833333", "city": "Milagrosa", "lon": "6.6666667"}, {"lat": "0.25", "city": "Mirante", "lon": "6.5166667"}, {"lat": "0.2166667", "city": "Montebelo", "lon": "6.7166667"}, {"lat": "0.3", "city": "Monte Caf\u00e9", "lon": "6.65"}, {"lat": "0.15", "city": "Monte Carmo", "lon": "6.5833333"}, {"lat": "0.3333333", "city": "Monteforte", "lon": "6.5333333"}, {"lat": "0.2166667", "city": "Monte Raul", "lon": "6.6833333"}, {"lat": "0.1333333", "city": "Monte Rosa", "lon": "6.5166667"}, {"lat": "0.1333333", "city": "Monte Roza", "lon": "6.5166667"}, {"lat": "0.25", "city": "Montes Herm\u00ednios", "lon": "6.7"}, {"lat": "0.3333333", "city": "Morro Vigia", "lon": "6.6"}, {"lat": "0.4", "city": "M. Peixe", "lon": "6.65"}, {"lat": "0.3", "city": "Mulondo", "lon": "6.5166667"}, {"lat": "0.2833333", "city": "M. Vilela", "lon": "6.5666667"}, {"lat": "0.3666667", "city": "Nazar\u00e9", "lon": "6.7166667"}, {"lat": "0.2833333", "city": "N. Ceil\u00e3o", "lon": "6.6"}, {"lat": "0.2833333", "city": "N. Ceyl\u00e3o", "lon": "6.6"}, {"lat": "0.3666667", "city": "Neves", "lon": "6.55"}, {"lat": "0.2833333", "city": "Nova Moca", "lon": "6.6333333"}, {"lat": "0.2833333", "city": "Nova Moka", "lon": "6.6333333"}, {"lat": "0.25", "city": "Nova Olinda", "lon": "6.7333333"}, {"lat": "0.0833333", "city": "Novo Brasil", "lon": "6.5666667"}, {"lat": "0.0833333", "city": "Novo Brazil", "lon": "6.5666667"}, {"lat": "0.3166667", "city": "Novo Destino", "lon": "6.6333333"}, {"lat": "0.0666667", "city": "N'zumbi", "lon": "6.55"}, {"lat": "0.3333333", "city": "Paris", "lon": "6.6833333"}, {"lat": "0.0833333", "city": "Perseveran\u00e7a", "lon": "6.6166667"}, {"lat": "0.2833333", "city": "Pinheira", "lon": "6.7166667"}, {"lat": "0.4", "city": "Planca Primeira", "lon": "6.6"}, {"lat": "0.4", "city": "Planca Segunda", "lon": "6.6166667"}, {"lat": "0.3666667", "city": "Plancas", "lon": "6.6"}, {"lat": "0.2666667", "city": "Plat\u00f4 Caf\u00e9", "lon": "6.6666667"}, {"lat": "0.3333333", "city": "Poiso Alto", "lon": "6.6166667"}, {"lat": "0.35", "city": "Ponta Figo", "lon": "6.55"}, {"lat": "0.2333333", "city": "Ponta Furada", "lon": "6.4833333"}, {"lat": "0.0833333", "city": "Portinho", "lon": "6.5333333"}, {"lat": "0.0333333", "city": "Porto Alegre", "lon": "6.5333333"}, {"lat": "0.3666667", "city": "Praia da Rosema", "lon": "6.5666667"}, {"lat": "0.3833333", "city": "Praia das Conchas", "lon": "6.6166667"}, {"lat": "0.0833333", "city": "Praia Grande", "lon": "6.5833333"}, {"lat": "0.3333333", "city": "Queluz", "lon": "6.65"}, {"lat": "0.25", "city": "Quimpo", "lon": "6.7166667"}, {"lat": "0.2666667", "city": "Quinas", "lon": "6.6"}, {"lat": "0.2833333", "city": "Quingu\u00e9", "lon": "6.6666667"}, {"lat": "0.2", "city": "Ribeira Afonso", "lon": "6.7166667"}, {"lat": "0.3666667", "city": "Ribeira Funda", "lon": "6.5833333"}, {"lat": "0.35", "city": "Ribeira Palma", "lon": "6.5833333"}, {"lat": "0.2666667", "city": "Rio Ave", "lon": "6.5"}, {"lat": "0.3666667", "city": "Rio do Ouro", "lon": "6.65"}, {"lat": "0.35", "city": "Rio Le\u00e7a", "lon": "6.55"}, {"lat": "0.3333333", "city": "Rio Vouga", "lon": "6.7"}, {"lat": "0.2333333", "city": "Ro\u00e7a Furada", "lon": "6.4833333"}, {"lat": "0.35", "city": "Rosema", "lon": "6.5666667"}, {"lat": "0.35", "city": "Rozema", "lon": "6.5666667"}, {"lat": "0.3333333", "city": "Salazar", "lon": "6.7333333"}, {"lat": "0.2666667", "city": "Santa Adelaide", "lon": "6.65"}, {"lat": "0.2666667", "city": "Santa Catanna", "lon": "6.4833333"}, {"lat": "0.2666667", "city": "Santa Catarina", "lon": "6.4833333"}, {"lat": "0.1833333", "city": "Santa Cec\u00edlia", "lon": "6.7"}, {"lat": "0.35", "city": "Santa Clara", "lon": "6.6166667"}, {"lat": "0.1166667", "city": "Santa Clotilde", "lon": "6.6"}, {"lat": "0.1333333", "city": "Santa Cruz", "lon": "6.65"}, {"lat": "0.2666667", "city": "Santa Elvira", "lon": "6.65"}, {"lat": "0.1", "city": "Santa Irene", "lon": "6.6"}, {"lat": "0.0666667", "city": "Santa Josefina", "lon": "6.5333333"}, {"lat": "0.3666667", "city": "Santa Luzia", "lon": "6.6333333"}, {"lat": "0.3333333", "city": "Santa Margarida", "lon": "6.6666667"}, {"lat": "0.35", "city": "Santa Maria", "lon": "6.6"}, {"lat": "0.2666667", "city": "Sant'Ana", "lon": "6.75"}, {"lat": "0.35", "city": "Santar\u00e9m", "lon": "6.6833333"}, {"lat": "0.2166667", "city": "Sant'Elmo", "lon": "6.6166667"}, {"lat": "0.2666667", "city": "Sant'Elvira", "lon": "6.65"}, {"lat": "0.3666667", "city": "Santo Amaro", "lon": "6.7"}, {"lat": "0.3333333", "city": "Santo Andr\u00e9", "lon": "6.7"}, {"lat": "0.2333333", "city": "Santo Ant\u00f3nio", "lon": "6.7333333"}, {"lat": "0.2", "city": "S\u00e3o Francisco", "lon": "6.65"}, {"lat": "0.25", "city": "S\u00e3o Janu\u00e1rio", "lon": "6.6666667"}, {"lat": "0.1333333", "city": "S\u00e3o J\u00e3o", "lon": "6.65"}, {"lat": "0.2", "city": "S\u00e3o Jer\u00f3nimo", "lon": "6.6833333"}, {"lat": "0.2", "city": "S\u00e3o Jer\u00f3nymo", "lon": "6.6833333"}, {"lat": "0.0833333", "city": "S\u00e3o Jo\u00e3o", "lon": "6.55"}, {"lat": "0.1166667", "city": "S\u00e3o Jos\u00e9", "lon": "6.6"}, {"lat": "0.3", "city": "S\u00e3o Lu\u00eds", "lon": "6.6166667"}, {"lat": "0.3", "city": "S\u00e3o Luiz", "lon": "6.6166667"}, {"lat": "0.2666667", "city": "S\u00e3o Manoel", "lon": "6.4833333"}, {"lat": "0.2666667", "city": "S\u00e3o Manuel", "lon": "6.4833333"}, {"lat": "0.1333333", "city": "S\u00e3o Miguel", "lon": "6.5"}, {"lat": "0.2833333", "city": "S\u00e3o Nicolau", "lon": "6.6333333"}, {"lat": "0.2", "city": "S\u00e3o Paulo", "lon": "6.65"}, {"lat": "0.2833333", "city": "S\u00e3o Pedro", "lon": "6.7"}, {"lat": "0.3333333", "city": "S\u00e0o Thom\u00e9", "lon": "6.7333333"}, {"lat": "0.3333333", "city": "S\u00e3o Tom\u00e9", "lon": "6.7333333"}, {"lat": "0.2833333", "city": "Saudade", "lon": "6.6333333"}, {"lat": "0.1333333", "city": "Soledade", "lon": "6.65"}, {"lat": "0.2666667", "city": "Tr\u00e1s os Montes", "lon": "6.6166667"}, {"lat": "0.2666667", "city": "Traz os Montes", "lon": "6.6166667"}, {"lat": "0.3", "city": "Trindade", "lon": "6.6833333"}, {"lat": "0.4", "city": "Triunfo", "lon": "6.6833333"}, {"lat": "0.2666667", "city": "Ubabudo", "lon": "6.75"}, {"lat": "0.1833333", "city": "Urzelina", "lon": "6.6833333"}, {"lat": "0.1666667", "city": "Val Carmo", "lon": "6.6333333"}, {"lat": "0.05", "city": "Vila Concei\u00e7\u00e3o", "lon": "6.5666667"}, {"lat": "0.3", "city": "Vila Moura", "lon": "6.6833333"}, {"lat": "0.3333333", "city": "Vila Sara", "lon": "6.5833333"}, {"lat": "0.1333333", "city": "Vila Verde", "lon": "6.55"}, {"lat": "0.3166667", "city": "Vista Alegre", "lon": "6.6833333"}], "01": [{"lat": "1.6333333", "city": "Abade", "lon": "7.45"}, {"lat": "1.6", "city": "Anselmo de Andrade", "lon": "7.3666667"}, {"lat": "1.6166667", "city": "Atalaia", "lon": "7.45"}, {"lat": "1.6666667", "city": "Azeitona", "lon": "7.4"}, {"lat": "1.65", "city": "Babudo", "lon": "7.4"}, {"lat": "1.6166667", "city": "Bela Vista", "lon": "7.4166667"}, {"lat": "1.6833333", "city": "Belo Monte", "lon": "7.45"}, {"lat": "1.6833333", "city": "Bombom", "lon": "7.4"}, {"lat": "1.6833333", "city": "Campainha", "lon": "7.4333333"}, {"lat": "1.6833333", "city": "Cascalheira", "lon": "7.4166667"}, {"lat": "1.65", "city": "Cidade de Santo Ant\u00f3nio", "lon": "7.4333333"}, {"lat": "1.6833333", "city": "Cincoenta", "lon": "7.3666667"}, {"lat": "1.6", "city": "Correio", "lon": "7.35"}, {"lat": "1.5666667", "city": "Costa e Silva", "lon": "7.35"}, {"lat": "1.6333333", "city": "Esperan\u00e7a", "lon": "7.4"}, {"lat": "1.6666667", "city": "Futuro", "lon": "7.4333333"}, {"lat": "1.5666667", "city": "General Fonseca", "lon": "7.4333333"}, {"lat": "1.6333333", "city": "Germinia Ant\u00f3nia", "lon": "7.3833333"}, {"lat": "1.5666667", "city": "Infante Dom Henrique", "lon": "7.4166667"}, {"lat": "1.65", "city": "Iola", "lon": "7.3666667"}, {"lat": "1.6", "city": "Lapa", "lon": "7.3666667"}, {"lat": "1.6", "city": "Mantero", "lon": "7.35"}, {"lat": "1.6333333", "city": "Manuel Gomes", "lon": "7.3833333"}, {"lat": "1.6333333", "city": "M\u00e1quina", "lon": "7.3833333"}, {"lat": "1.6333333", "city": "Montalegre", "lon": "7.3833333"}, {"lat": "1.6666667", "city": "Montalv\u00e3o", "lon": "7.4166667"}, {"lat": "1.6166667", "city": "Monte Pedra", "lon": "7.4333333"}, {"lat": "1.55", "city": "Neves Ferreira", "lon": "7.4"}, {"lat": "1.6166667", "city": "Nitreira", "lon": "7.4166667"}, {"lat": "1.6333333", "city": "Nova Cuba", "lon": "7.4166667"}, {"lat": "1.6166667", "city": "Nova Estrela", "lon": "7.4333333"}, {"lat": "1.65", "city": "Oqu\u00ea Gaspar", "lon": "7.4166667"}, {"lat": "1.65", "city": "Oqu\u00ea Ros\u00e1rio", "lon": "7.4166667"}, {"lat": "1.65", "city": "Oqu\u00ea Tr\u00eas", "lon": "7.4"}, {"lat": "1.6666667", "city": "Paciencia", "lon": "7.4333333"}, {"lat": "1.65", "city": "Pau Cavalo", "lon": "7.3833333"}, {"lat": "1.6833333", "city": "Paufita", "lon": "7.4166667"}, {"lat": "1.6", "city": "Periquito", "lon": "7.4333333"}, {"lat": "1.6166667", "city": "Pico", "lon": "7.4"}, {"lat": "1.6333333", "city": "Piedade", "lon": "7.4333333"}, {"lat": "1.6333333", "city": "Pincat\u00e9", "lon": "7.4"}, {"lat": "1.65", "city": "Ponta do Sol", "lon": "7.3833333"}, {"lat": "1.6666667", "city": "Ponta Forte", "lon": "7.4333333"}, {"lat": "1.6666667", "city": "Praia Inhame", "lon": "7.4333333"}, {"lat": "1.5833333", "city": "Ribeira Fria", "lon": "7.4333333"}, {"lat": "1.6833333", "city": "Ribeira Iz\u00e9", "lon": "7.4"}, {"lat": "1.6333333", "city": "Salom\u00e3o", "lon": "7.3833333"}, {"lat": "1.65", "city": "San Antonio", "lon": "7.4333333"}, {"lat": "1.65", "city": "Santa Isabel", "lon": "7.4166667"}, {"lat": "1.6166667", "city": "Santa Joaquina", "lon": "7.4"}, {"lat": "1.6666667", "city": "Santana", "lon": "7.4333333"}, {"lat": "1.6833333", "city": "Santa Rita", "lon": "7.4166667"}, {"lat": "1.6166667", "city": "Santa Trindade", "lon": "7.4"}, {"lat": "1.65", "city": "Santo Ant\u00f3nio", "lon": "7.4166667"}, {"lat": "1.6333333", "city": "Santo Cristo", "lon": "7.4333333"}, {"lat": "1.65", "city": "S\u00e3o Ant\u00f5nio", "lon": "7.4333333"}, {"lat": "1.6166667", "city": "S\u00e3o Carlos do Fund\u00e3o", "lon": "7.3833333"}, {"lat": "1.6833333", "city": "S\u00e3o Jer\u00f3nimo", "lon": "7.3666667"}, {"lat": "1.65", "city": "S\u00e3o Jo\u00e3o", "lon": "7.4333333"}, {"lat": "1.6166667", "city": "S\u00e3o Joaquim", "lon": "7.3833333"}, {"lat": "1.6666667", "city": "S\u00e3o Jorge", "lon": "7.4"}, {"lat": "1.6333333", "city": "S\u00e3o Jos\u00e9 Picat\u00e9", "lon": "7.4"}, {"lat": "1.6333333", "city": "S\u00e3o Jos\u00e9", "lon": "7.4"}, {"lat": "1.6333333", "city": "S\u00e3o Mateus", "lon": "7.4"}, {"lat": "1.6333333", "city": "Sequeira", "lon": "7.3833333"}, {"lat": "1.6666667", "city": "Sundi", "lon": "7.3833333"}, {"lat": "1.6833333", "city": "Terra Firme", "lon": "7.4666667"}, {"lat": "1.6333333", "city": "Uba", "lon": "7.3833333"}, {"lat": "1.6833333", "city": "Vila Rosa", "lon": "7.4166667"}]}}