{"SZ": {"02": [{"lat": "-26.8333333", "city": "Abercorn", "lon": "32.1333333"}, {"lat": "-26.8333333", "city": "Abercorn Point", "lon": "32.1333333"}, {"lat": "-26.8333333", "city": "Abercorn Pont", "lon": "32.1333333"}, {"lat": "-26.8166667", "city": "Big Bend", "lon": "31.9333333"}, {"lat": "-26.7", "city": "Holobela", "lon": "31.8333333"}, {"lat": "-26.5333333", "city": "Inyetane", "lon": "32.0166667"}, {"lat": "-27.0166667", "city": "Lubuli", "lon": "31.9"}, {"lat": "-26.5666667", "city": "Magomba", "lon": "31.8333333"}, {"lat": "-26.25", "city": "Mhlumeni", "lon": "32.1"}, {"lat": "-26.1833333", "city": "Mlawula", "lon": "31.9833333"}, {"lat": "-26.7666667", "city": "Nkonjane", "lon": "32.0833333"}, {"lat": "-26.1333333", "city": "Nokwane", "lon": "31.9166667"}, {"lat": "-27.0333333", "city": "Nsoka", "lon": "31.95"}, {"lat": "-27.0333333", "city": "Nsoko", "lon": "31.95"}, {"lat": "-26.5333333", "city": "Palata", "lon": "32.0166667"}, {"lat": "-26.45", "city": "Siteki", "lon": "31.95"}, {"lat": "-26.45", "city": "Stegi", "lon": "31.95"}, {"lat": "-26.8666667", "city": "Von Wissel", "lon": "31.9333333"}], "03": [{"lat": "-26.55", "city": "Bhunya", "lon": "31.0166667"}, {"lat": "-26.4833333", "city": "Bremersdorp", "lon": "31.3666667"}, {"lat": "-26.55", "city": "Bunya", "lon": "31.0166667"}, {"lat": "-26.3833333", "city": "Etjanine", "lon": "30.9"}, {"lat": "-26.4833333", "city": "Kwaluseni", "lon": "31.3333333"}, {"lat": "-26.4166667", "city": "Macnab", "lon": "31.5833333"}, {"lat": "-26.4166667", "city": "Mac Nabs", "lon": "31.5833333"}, {"lat": "-26.4166667", "city": "Macnab Store", "lon": "31.5833333"}, {"lat": "-26.5", "city": "Mahlanya", "lon": "31.2833333"}, {"lat": "-26.4833333", "city": "Man\u00eaini", "lon": "31.3666667"}, {"lat": "-26.6833333", "city": "Mankaiana", "lon": "31.0833333"}, {"lat": "-26.6833333", "city": "Mankayane", "lon": "31.0833333"}, {"lat": "-26.4833333", "city": "Manzini", "lon": "31.3666667"}, {"lat": "-26.5166667", "city": "Matapa", "lon": "31.3166667"}, {"lat": "-26.5166667", "city": "Matsapa", "lon": "31.3166667"}, {"lat": "-26.5166667", "city": "Matsapha", "lon": "31.3166667"}, {"lat": "-26.35", "city": "Mbuluzana", "lon": "31.5166667"}, {"lat": "-26.45", "city": "Mhlambanyati", "lon": "31.0166667"}, {"lat": "-26.45", "city": "Mhlambanyatsi", "lon": "31.0166667"}, {"lat": "-26.75", "city": "Mvangalini", "lon": "31.6"}, {"lat": "-26.75", "city": "Mvangatini", "lon": "31.6"}, {"lat": "-26.5666667", "city": "Sandlane", "lon": "30.7833333"}, {"lat": "-26.6166667", "city": "Sidvokodvo", "lon": "31.45"}, {"lat": "-26.7666667", "city": "Sinceni", "lon": "31.5833333"}, {"lat": "-26.7666667", "city": "Singceni", "lon": "31.5833333"}, {"lat": "-26.6833333", "city": "Siphofaneni", "lon": "31.6833333"}, {"lat": "-26.6833333", "city": "Sipofaneni Bridge", "lon": "31.6833333"}, {"lat": "-26.6833333", "city": "Sipofanenibrug", "lon": "31.6833333"}, {"lat": "-26.6833333", "city": "Sipofaneni", "lon": "31.6833333"}, {"lat": "-26.4", "city": "Skombeni", "lon": "31.35"}, {"lat": "-26.6833333", "city": "Spofanene", "lon": "31.6833333"}, {"lat": "-26.5833333", "city": "Usutu Mission", "lon": "31.1833333"}, {"lat": "-26.5833333", "city": "Usutu", "lon": "31.1833333"}], "01": [{"lat": "-26.1", "city": "Balegana", "lon": "31.5666667"}, {"lat": "-26.1", "city": "Balegane", "lon": "31.5666667"}, {"lat": "-26.1", "city": "Balegane Store", "lon": "31.5666667"}, {"lat": "-25.95", "city": "Bennets", "lon": "31.5166667"}, {"lat": "-25.9666667", "city": "Bulembu", "lon": "31.1333333"}, {"lat": "-26.3333333", "city": "Commissie Nek", "lon": "31.2333333"}, {"lat": "-25.9666667", "city": "Compound", "lon": "31.1333333"}, {"lat": "-26.2", "city": "Croydon", "lon": "31.5666667"}, {"lat": "-26.2333333", "city": "Darkton", "lon": "31.0333333"}, {"lat": "-26.2333333", "city": "Darktown", "lon": "31.0333333"}, {"lat": "-25.9666667", "city": "Emhlembi", "lon": "31.1333333"}, {"lat": "-25.9666667", "city": "Emlembe", "lon": "31.1333333"}, {"lat": "-26.4", "city": "Esulweni", "lon": "31.1666667"}, {"lat": "-26.4", "city": "Ezulweni", "lon": "31.1666667"}, {"lat": "-26.4", "city": "Ezulwini", "lon": "31.1666667"}, {"lat": "-26.1666667", "city": "Forbes Reef", "lon": "31.1"}, {"lat": "-25.95", "city": "Havelock", "lon": "31.1333333"}, {"lat": "-25.95", "city": "Havelock Mine", "lon": "31.1333333"}, {"lat": "-25.8333333", "city": "Herefords", "lon": "31.5"}, {"lat": "-25.75", "city": "Horo", "lon": "31.4166667"}, {"lat": "-25.9", "city": "Kobolondo Heights", "lon": "31.2166667"}, {"lat": "-26.4666667", "city": "Lobamba", "lon": "31.2"}, {"lat": "-26.4666667", "city": "Lobomba", "lon": "31.2"}, {"lat": "-25.9833333", "city": "Lomahasha", "lon": "32.0"}, {"lat": "-25.8166667", "city": "Lomati", "lon": "31.35"}, {"lat": "-25.8166667", "city": "Lomati Store", "lon": "31.35"}, {"lat": "-26.5333333", "city": "Luyengo", "lon": "31.2333333"}, {"lat": "-26.0833333", "city": "Madlangampisi", "lon": "31.55"}, {"lat": "-26.5666667", "city": "Malkerns", "lon": "31.1833333"}, {"lat": "-26.3166667", "city": "Mbabane", "lon": "31.1333333"}, {"lat": "-26.0333333", "city": "Mhlume", "lon": "31.85"}, {"lat": "-26.25", "city": "Mliba", "lon": "31.5833333"}, {"lat": "-25.7666667", "city": "Ngonini", "lon": "31.3833333"}, {"lat": "-26.45", "city": "Nkanni", "lon": "31.2166667"}, {"lat": "-25.9833333", "city": "Nomahasha", "lon": "32.0"}, {"lat": "-25.9666667", "city": "Piggs Peak", "lon": "31.25"}, {"lat": "-25.95", "city": "Rocklands", "lon": "31.2833333"}, {"lat": "-25.9833333", "city": "Tahaneni", "lon": "31.7166667"}, {"lat": "-25.9833333", "city": "Tshaneni", "lon": "31.7166667"}], "04": [{"lat": "-27.1666667", "city": "Dwaleni", "lon": "31.2666667"}, {"lat": "-26.95", "city": "Gege", "lon": "31.0166667"}, {"lat": "-27.1166667", "city": "Goedgegun", "lon": "31.2"}, {"lat": "-27.3166667", "city": "Gollel", "lon": "31.9"}, {"lat": "-26.9166667", "city": "Grand Valley Estate", "lon": "31.2833333"}, {"lat": "-26.9166667", "city": "Granvalley", "lon": "31.2833333"}, {"lat": "-26.9666667", "city": "Hlatikulu", "lon": "31.3166667"}, {"lat": "-27.2166667", "city": "Hluti", "lon": "31.6166667"}, {"lat": "-26.8833333", "city": "Kubuta", "lon": "31.4833333"}, {"lat": "-27.3166667", "city": "Lavumisa", "lon": "31.9"}, {"lat": "-27.1166667", "city": "Lismore", "lon": "31.9333333"}, {"lat": "-27.1", "city": "Mahamba", "lon": "31.0833333"}, {"lat": "-27.0166667", "city": "Maloma", "lon": "31.65"}, {"lat": "-26.8166667", "city": "Mgamane", "lon": "31.1"}, {"lat": "-27.1833333", "city": "Mhlosheni", "lon": "31.3833333"}, {"lat": "-27.1833333", "city": "Mhlotsheni", "lon": "31.3833333"}, {"lat": "-26.9666667", "city": "Mooihoek", "lon": "31.4666667"}, {"lat": "-27.1166667", "city": "Nhlangano", "lon": "31.2"}, {"lat": "-26.75", "city": "Nyabe", "lon": "31.0833333"}, {"lat": "-26.8833333", "city": "Rondspring", "lon": "31.7"}, {"lat": "-26.8833333", "city": "Sibobela", "lon": "31.6"}, {"lat": "-26.8666667", "city": "Sicunusa", "lon": "30.95"}, {"lat": "-26.8666667", "city": "Sigunusa", "lon": "30.95"}, {"lat": "-26.8833333", "city": "Sitobela", "lon": "31.6"}, {"lat": "-26.7833333", "city": "Stylkloof", "lon": "31.1333333"}, {"lat": "-26.85", "city": "Verdun", "lon": "31.4"}]}}