{"TJ": {"02": [{"lat": "38.5286111", "city": "22 (Dvadtsat' Vtorogo) Parts''yezd", "lon": "68.7797222"}, {"lat": "38.4666667", "city": "Abdan", "lon": "68.9333333"}, {"lat": "38.3166667", "city": "Abdulay", "lon": "68.5666667"}, {"lat": "37.725", "city": "Adinobay", "lon": "69.8491667"}, {"lat": "38.5366667", "city": "Afandi", "lon": "69.8447222"}, {"lat": "37.4666667", "city": "(( Afgan-Kishlak ))", "lon": "69.3666667"}, {"lat": "37.9786111", "city": "Aflotuk", "lon": "69.8277778"}, {"lat": "37.9786111", "city": "Aftoluk", "lon": "69.8277778"}, {"lat": "37.9833333", "city": "Agaravak", "lon": "68.5666667"}, {"lat": "38.6602778", "city": "Agurty", "lon": "68.8711111"}, {"lat": "36.9788889", "city": "Aiwanj", "lon": "68.0325"}, {"lat": "38.5166667", "city": "Akalchin", "lon": "68.4833333"}, {"lat": "37.8619444", "city": "Akarbulok", "lon": "69.3766667"}, {"lat": "37.9666667", "city": "Ak-Bulak", "lon": "68.4"}, {"lat": "38.3483333", "city": "Akbulok", "lon": "68.6586111"}, {"lat": "38.4", "city": "Ak-Buryu", "lon": "68.6333333"}, {"lat": "37.4005556", "city": "Akcha", "lon": "68.1672222"}, {"lat": "38.3833333", "city": "Akhteraki Bolo", "lon": "70.0166667"}, {"lat": "38.0722222", "city": "Akkamar", "lon": "68.6788889"}, {"lat": "38.4666667", "city": "Ak-Kurgan", "lon": "68.75"}, {"lat": "37.6691667", "city": "Ak-Mazar", "lon": "69.6525"}, {"lat": "37.9833333", "city": "Akmazar", "lon": "68.8666667"}, {"lat": "37.6691667", "city": "Akmazor", "lon": "69.6525"}, {"lat": "38.0561111", "city": "Ak-Mechet'", "lon": "68.3541667"}, {"lat": "38.2666667", "city": "Aksa-Rovat", "lon": "68.8"}, {"lat": "37.85", "city": "(( Akshivan ))", "lon": "69.55"}, {"lat": "38.1166667", "city": "Ak-Su", "lon": "68.5666667"}, {"lat": "38.15", "city": "Aksu", "lon": "69.3"}, {"lat": "38.6166667", "city": "Ak-Tak", "lon": "68.8666667"}, {"lat": "37.4666667", "city": "(( Akteri ))", "lon": "68.55"}, {"lat": "37.4666667", "city": "Aktero", "lon": "68.55"}, {"lat": "38.4666667", "city": "Akuyli", "lon": "68.6"}, {"lat": "38.675", "city": "Alakchin", "lon": "68.7694444"}, {"lat": "38.2", "city": "Al'cha-bulak", "lon": "69.5166667"}, {"lat": "38.4186111", "city": "Al'chagi", "lon": "69.0833333"}, {"lat": "38.4186111", "city": "Alchagy", "lon": "69.0833333"}, {"lat": "37.7666667", "city": "Alchin", "lon": "68.8"}, {"lat": "38.6347222", "city": "Alibeg\u00ed", "lon": "68.5713889"}, {"lat": "37.26", "city": "Aliberdy", "lon": "69.1475"}, {"lat": "38.1686111", "city": "Alidzhan", "lon": "69.4"}, {"lat": "38.7627778", "city": "Al\u00edgalabon", "lon": "69.8344444"}, {"lat": "38.1686111", "city": "Alijon", "lon": "69.4"}, {"lat": "37.26", "city": "Alipberdy", "lon": "69.1475"}, {"lat": "38.5380556", "city": "Al'kadzhar", "lon": "68.8366667"}, {"lat": "37.4036111", "city": "Alkamazhar", "lon": "69.1461111"}, {"lat": "38.6719444", "city": "Alkhitay", "lon": "68.8030556"}, {"lat": "38.6719444", "city": "Alkhitoy", "lon": "68.8030556"}, {"lat": "38.3794444", "city": "Alla-Baytal", "lon": "68.7311111"}, {"lat": "38.0666667", "city": "Al'ma-Bulak", "lon": "69.4833333"}, {"lat": "38.2", "city": "Al'mabulak", "lon": "69.5166667"}, {"lat": "38.2", "city": "Al'mabulok", "lon": "69.5166667"}, {"lat": "38.6833333", "city": "Almasi", "lon": "68.6166667"}, {"lat": "38.6833333", "city": "Al'masy", "lon": "68.6166667"}, {"lat": "38.3308333", "city": "Almyshabad", "lon": "68.8719444"}, {"lat": "38.3308333", "city": "Almysh", "lon": "68.8719444"}, {"lat": "38.3794444", "city": "Alobaytal", "lon": "68.7311111"}, {"lat": "37.4644444", "city": "Aloudin", "lon": "69.3677778"}, {"lat": "37.4644444", "city": "Alovuddin", "lon": "69.3677778"}, {"lat": "38.6086111", "city": "Amonshaykhi", "lon": "69.1102778"}, {"lat": "38.6086111", "city": "Amonsheykhi", "lon": "69.1102778"}, {"lat": "37.7333333", "city": "Amring", "lon": "70.25"}, {"lat": "38.05", "city": "Anatrosh", "lon": "70.0166667"}, {"lat": "38.5708333", "city": "Andigon", "lon": "69.0575"}, {"lat": "37.2897222", "city": "Andizhan", "lon": "69.0613889"}, {"lat": "38.5163889", "city": "Andreyev", "lon": "68.6425"}, {"lat": "38.5708333", "city": "Andygon", "lon": "69.0575"}, {"lat": "38.4461111", "city": "Andzhir", "lon": "69.0041667"}, {"lat": "37.6619444", "city": "Andzhirkon", "lon": "69.5225"}, {"lat": "37.8102778", "city": "Andzhirobi-Bolo", "lon": "70.1822222"}, {"lat": "38.2", "city": "Angurli", "lon": "68.45"}, {"lat": "38.4461111", "city": "Anj\u00edr", "lon": "69.0041667"}, {"lat": "37.6619444", "city": "Anjirkhon", "lon": "69.5225"}, {"lat": "37.8102778", "city": "Anjirobi Bolo", "lon": "70.1822222"}, {"lat": "38.4", "city": "Annakul-Ravat", "lon": "68.75"}, {"lat": "38.4", "city": "Annakul-Rovat", "lon": "68.75"}, {"lat": "37.9666667", "city": "Ansh-Abad", "lon": "68.6666667"}, {"lat": "37.8102778", "city": "Anzhirou-Bolo", "lon": "70.1822222"}, {"lat": "37.8333333", "city": "(( Anzhirou-Poy\u00ebn ))", "lon": "70.1833333"}, {"lat": "37.2088889", "city": "Arab", "lon": "68.0313889"}, {"lat": "37.2088889", "city": "Arabkhana", "lon": "68.0313889"}, {"lat": "37.3891667", "city": "Arab-Khana", "lon": "68.1866667"}, {"lat": "37.3891667", "city": "Arabkhonai Kalon", "lon": "68.1866667"}, {"lat": "37.4969444", "city": "Arabo", "lon": "69.3491667"}, {"lat": "37.8025", "city": "Aral", "lon": "69.6441667"}, {"lat": "38.5544444", "city": "Arbob", "lon": "68.7216667"}, {"lat": "38.6166667", "city": "Arbobi", "lon": "68.5666667"}, {"lat": "38.5544444", "city": "Arbobkhotun", "lon": "68.7216667"}, {"lat": "37.6308333", "city": "Archa", "lon": "69.4522222"}, {"lat": "37.7736111", "city": "Arla-Tugul'dy", "lon": "69.5877778"}, {"lat": "38.4666667", "city": "Arpa-Bulak", "lon": "68.8833333"}, {"lat": "37.7736111", "city": "Arpatuguldi", "lon": "69.5877778"}, {"lat": "37.7377778", "city": "Arpatuguldy", "lon": "69.5569444"}, {"lat": "37.7736111", "city": "Arpatugul'dy", "lon": "69.5877778"}, {"lat": "38.3666667", "city": "Arzanion", "lon": "69.8666667"}, {"lat": "38.5408333", "city": "Askari", "lon": "68.5119444"}, {"lat": "37.4194444", "city": "Askari Surkh", "lon": "68.6405556"}, {"lat": "38.5666667", "city": "Askerabad", "lon": "68.9833333"}, {"lat": "37.7666667", "city": "(( Atchanar ))", "lon": "69.5"}, {"lat": "37.7938889", "city": "Atchapar", "lon": "69.5802778"}, {"lat": "37.8872222", "city": "Atochibulok", "lon": "69.3511111"}, {"lat": "37.9786111", "city": "Avtoulyuk", "lon": "69.8277778"}, {"lat": "38.0430556", "city": "Avzali", "lon": "68.5716667"}, {"lat": "37.8033333", "city": "Avzikent", "lon": "69.2772222"}, {"lat": "38.0833333", "city": "Ay-Botkan", "lon": "68.55"}, {"lat": "38.0722222", "city": "Aykamar", "lon": "68.6788889"}, {"lat": "38.5080556", "city": "Ayni", "lon": "68.6844444"}, {"lat": "38.8183333", "city": "Ayni-Khodzhaayni", "lon": "69.9441667"}, {"lat": "38.8183333", "city": "Ayn\u00ed-Khojayn\u00ed", "lon": "69.9441667"}, {"lat": "36.9788889", "city": "Ayvach", "lon": "68.0325"}, {"lat": "36.9788889", "city": "Ayvadzh", "lon": "68.0325"}, {"lat": "36.9788889", "city": "Ayvaj", "lon": "68.0325"}, {"lat": "38.4333333", "city": "Azikeng", "lon": "68.4833333"}, {"lat": "38.9166667", "city": "Babagabib", "lon": "69.8166667"}, {"lat": "37.6152778", "city": "Babosafol-Poy\u00ebn", "lon": "69.4038889"}, {"lat": "37.9808333", "city": "Bacha-Mazar", "lon": "69.6333333"}, {"lat": "37.9808333", "city": "Bachamazor", "lon": "69.6333333"}, {"lat": "37.8261111", "city": "Badamtu", "lon": "69.9436111"}, {"lat": "38.5066667", "city": "Bagalak", "lon": "68.5552778"}, {"lat": "38.5066667", "city": "Bagalok", "lon": "68.5552778"}, {"lat": "37.6205556", "city": "Bagarak", "lon": "69.8705556"}, {"lat": "38.4952778", "city": "Bagizagon", "lon": "69.8086111"}, {"lat": "37.6205556", "city": "Bahorak", "lon": "69.8705556"}, {"lat": "38.6666667", "city": "Bakaul", "lon": "68.8"}, {"lat": "37.5833333", "city": "Bakh", "lon": "69.95"}, {"lat": "37.6205556", "city": "Bakhorak", "lon": "69.8705556"}, {"lat": "38.5488889", "city": "Bakhor", "lon": "68.9861111"}, {"lat": "38.4952778", "city": "Bakizagon", "lon": "69.8086111"}, {"lat": "38.6144444", "city": "Bakoron", "lon": "69.0269444"}, {"lat": "37.9680556", "city": "Balagdash", "lon": "69.0369444"}, {"lat": "38.5102778", "city": "Baldirgon", "lon": "68.9011111"}, {"lat": "38.3108333", "city": "Baldshuan", "lon": "69.6669444"}, {"lat": "38.3108333", "city": "Bal'dzhuan", "lon": "69.6669444"}, {"lat": "38.3108333", "city": "Bal'dzhuvon", "lon": "69.6669444"}, {"lat": "37.7666667", "city": "Balga-Boskan Vtoroy", "lon": "68.75"}, {"lat": "38.3108333", "city": "Bal'juan", "lon": "69.6669444"}, {"lat": "38.3108333", "city": "Baljuvon", "lon": "69.6669444"}, {"lat": "37.8636111", "city": "Balkhobi", "lon": "69.9066667"}, {"lat": "37.8636111", "city": "Balkhoby", "lon": "69.9066667"}, {"lat": "37.5666667", "city": "Bash-Charbak", "lon": "68.1333333"}, {"lat": "37.5666667", "city": "Bash-Cherbak", "lon": "68.1333333"}, {"lat": "37.5666667", "city": "Bash-Gunash", "lon": "68.55"}, {"lat": "37.4636111", "city": "Bashkala", "lon": "68.1630556"}, {"lat": "38.2077778", "city": "Bashkaynar", "lon": "68.8488889"}, {"lat": "38.4647222", "city": "Bashkyngash", "lon": "68.8036111"}, {"lat": "37.5666667", "city": "Bash-Rukash", "lon": "68.55"}, {"lat": "37.8475", "city": "Bash Tegerman", "lon": "69.7380556"}, {"lat": "37.9616667", "city": "Batan", "lon": "69.4825"}, {"lat": "37.9666667", "city": "Batrak", "lon": "68.5333333"}, {"lat": "37.9213889", "city": "Batyrkhan", "lon": "69.7697222"}, {"lat": "37.2383333", "city": "Baumanabad", "lon": "69.0969444"}, {"lat": "38.3666667", "city": "Bay-Kuchkar", "lon": "68.9"}, {"lat": "37.2808333", "city": "Bedanibedak", "lon": "69.0463889"}, {"lat": "38.3833333", "city": "Berencha", "lon": "68.9666667"}, {"lat": "37.8286111", "city": "Besharik", "lon": "69.6338889"}, {"lat": "37.4566667", "city": "Besharyk", "lon": "68.5769444"}, {"lat": "37.6905556", "city": "Beshbulok", "lon": "69.0705556"}, {"lat": "38.5936111", "city": "Beshbulok-Bolo", "lon": "68.5897222"}, {"lat": "37.9902778", "city": "Beshcheulok", "lon": "69.2191667"}, {"lat": "37.9902778", "city": "Beshcheulyak", "lon": "69.2191667"}, {"lat": "37.2302778", "city": "Beshkapa", "lon": "68.0205556"}, {"lat": "37.8166667", "city": "Besh-Kapa", "lon": "68.6833333"}, {"lat": "38.2391667", "city": "Beshkapa", "lon": "68.9366667"}, {"lat": "38.1169444", "city": "Beshkapai Poyon", "lon": "68.3813889"}, {"lat": "38.2391667", "city": "Besh-Kape", "lon": "68.9366667"}, {"lat": "37.2302778", "city": "Beshkappa", "lon": "68.0205556"}, {"lat": "38.1169444", "city": "Beshkappoi-Poyen", "lon": "68.3813889"}, {"lat": "37.2302778", "city": "Beshkent", "lon": "68.0205556"}, {"lat": "37.8833333", "city": "(( Besh-Khabib ))", "lon": "69.8333333"}, {"lat": "37.4291667", "city": "Besh-Kuduk", "lon": "69.2005556"}, {"lat": "37.4291667", "city": "Beshquduq", "lon": "69.2005556"}, {"lat": "37.8475", "city": "Besh-Tegerman", "lon": "69.7380556"}, {"lat": "37.8475", "city": "Beshtegirmon", "lon": "69.7380556"}, {"lat": "37.3413889", "city": "Beshtemir", "lon": "68.1541667"}, {"lat": "38.3011111", "city": "Beshtentak", "lon": "69.7130556"}, {"lat": "38.5333333", "city": "Besh-Tepa", "lon": "68.7833333"}, {"lat": "37.3413889", "city": "Besh-Timuch", "lon": "68.1541667"}, {"lat": "37.3413889", "city": "Besh-Timur", "lon": "68.1541667"}, {"lat": "38.7494444", "city": "Beydakho", "lon": "69.845"}, {"lat": "38.7494444", "city": "Beydikh", "lon": "69.845"}, {"lat": "38.7494444", "city": "Beydikho", "lon": "69.845"}, {"lat": "38.7494444", "city": "Beydy-Kyo", "lon": "69.845"}, {"lat": "38.2166667", "city": "Bibi-Khurum", "lon": "68.5666667"}, {"lat": "37.4233333", "city": "Birbuloq", "lon": "69.045"}, {"lat": "38.3166667", "city": "Bish-Bulak", "lon": "68.3666667"}, {"lat": "37.4636111", "city": "Bishkala", "lon": "68.1630556"}, {"lat": "37.2302778", "city": "Bishkent", "lon": "68.0205556"}, {"lat": "38.5166667", "city": "Blagodarnyy", "lon": "68.55"}, {"lat": "38.2216667", "city": "Bobokhonshaid", "lon": "69.6586111"}, {"lat": "37.6119444", "city": "Bobosafol", "lon": "69.4219444"}, {"lat": "37.6152778", "city": "Bobosafoli Poyon", "lon": "69.4038889"}, {"lat": "38.6613889", "city": "Bobo-Surkhan", "lon": "68.6297222"}, {"lat": "38.6613889", "city": "Bobosurkhon", "lon": "68.6297222"}, {"lat": "38.2608333", "city": "Bobotunkhona", "lon": "69.3555556"}, {"lat": "38.2608333", "city": "Bobotupkhona", "lon": "69.3555556"}, {"lat": "37.8261111", "city": "Bodomtu", "lon": "69.9436111"}, {"lat": "37.8261111", "city": "Bodomtut", "lon": "69.9436111"}, {"lat": "38.1872222", "city": "Bogak", "lon": "68.5388889"}, {"lat": "38.5066667", "city": "Bogalyak", "lon": "68.5552778"}, {"lat": "37.5833333", "city": "(( Bog ))", "lon": "69.95"}, {"lat": "38.2", "city": "Bogday\u00ebn", "lon": "69.85"}, {"lat": "38.0644444", "city": "Boggai", "lon": "69.9605556"}, {"lat": "38.0644444", "city": "Boggay", "lon": "69.9605556"}, {"lat": "37.9163889", "city": "Bogi Habib", "lon": "69.8402778"}, {"lat": "37.9163889", "city": "Bogikhabib", "lon": "69.8402778"}, {"lat": "38.4952778", "city": "Bogizogon", "lon": "69.8086111"}, {"lat": "38.5102778", "city": "Boldargin", "lon": "68.9011111"}, {"lat": "38.5102778", "city": "Boldirgon", "lon": "68.9011111"}, {"lat": "38.3547222", "city": "Boldoy", "lon": "69.7580556"}, {"lat": "38.3108333", "city": "Bol'dzhuan", "lon": "69.6669444"}, {"lat": "38.5136111", "city": "Bolo-Nazar", "lon": "68.8577778"}, {"lat": "37.1630556", "city": "Bolshevik", "lon": "68.2263889"}, {"lat": "37.3969444", "city": "Bol'shevik", "lon": "68.6455556"}, {"lat": "38.6133333", "city": "Bongura", "lon": "69.095"}, {"lat": "38.1172222", "city": "Boshbulok", "lon": "69.3772222"}, {"lat": "38.1172222", "city": "Boshbuloq", "lon": "69.3772222"}, {"lat": "37.4636111", "city": "Boshkala", "lon": "68.1630556"}, {"lat": "38.2077778", "city": "Boshkaynar", "lon": "68.8488889"}, {"lat": "38.4647222", "city": "Boshkengash", "lon": "68.8036111"}, {"lat": "38.4647222", "city": "Boshkengosh", "lon": "68.8036111"}, {"lat": "37.9977778", "city": "Boshkushkiya", "lon": "69.6591667"}, {"lat": "37.4636111", "city": "Boshqal'a", "lon": "68.1630556"}, {"lat": "38.58", "city": "Botanicheskiy", "lon": "68.6933333"}, {"lat": "37.4411111", "city": "Brigada Vtoraya Uchastka Karla Marksa", "lon": "68.4877778"}, {"lat": "38.1833333", "city": "Bubanan-Dasht", "lon": "69.9666667"}, {"lat": "38.45", "city": "Bugolyak", "lon": "68.15"}, {"lat": "38.3266667", "city": "Buitakabad", "lon": "70.0708333"}, {"lat": "38.6488889", "city": "Bulak-Saydon", "lon": "68.6111111"}, {"lat": "38.4355556", "city": "Bulbulchashma", "lon": "68.5536111"}, {"lat": "37.9102778", "city": "Bulen", "lon": "69.3536111"}, {"lat": "38.5205556", "city": "Bulokchinor", "lon": "68.5952778"}, {"lat": "37.9919444", "city": "Bulokdasht", "lon": "69.5336111"}, {"lat": "38.6488889", "city": "Bulokisaidon", "lon": "68.6111111"}, {"lat": "37.9672222", "city": "Bul'on", "lon": "69.3936111"}, {"lat": "37.9102778", "city": "Bul'yen", "lon": "69.3536111"}, {"lat": "38.0575", "city": "Bul'y\u00ebni-Bolo", "lon": "69.4333333"}, {"lat": "37.9672222", "city": "Bulyon", "lon": "69.3936111"}, {"lat": "38.0575", "city": "Bulyoni-Bolo", "lon": "69.4333333"}, {"lat": "38.6208333", "city": "Bungakiy\u00ebn", "lon": "69.4719444"}, {"lat": "38.6208333", "city": "Bungakiyon", "lon": "69.4719444"}, {"lat": "38.3266667", "city": "Buntakobod", "lon": "70.0708333"}, {"lat": "37.9772222", "city": "Burdongal", "lon": "69.4936111"}, {"lat": "38.3666667", "city": "Bure-Tishik", "lon": "68.3833333"}, {"lat": "37.2252778", "city": "Burka", "lon": "69.1466667"}, {"lat": "38.46", "city": "Burma", "lon": "68.9216667"}, {"lat": "38.0461111", "city": "Buston", "lon": "68.7886111"}, {"lat": "37.8666667", "city": "Bustonkala", "lon": "68.8333333"}, {"lat": "37.8666667", "city": "Bustonqal'a", "lon": "68.8333333"}, {"lat": "37.5516667", "city": "Butson", "lon": "69.4713889"}, {"lat": "38.5166667", "city": "Buynak-Manir", "lon": "68.35"}, {"lat": "38.4833333", "city": "Buyrabov", "lon": "68.6833333"}, {"lat": "37.7138889", "city": "Buzakhana", "lon": "69.7225"}, {"lat": "37.7138889", "city": "Buzakhona", "lon": "69.7225"}, {"lat": "38.1166667", "city": "Buzbeli", "lon": "69.5833333"}, {"lat": "38.5", "city": "Buzbit", "lon": "68.9905556"}, {"lat": "37.4233333", "city": "Byrbulok", "lon": "69.045"}, {"lat": "37.9255556", "city": "Chad", "lon": "69.1566667"}, {"lat": "37.8272222", "city": "Chagam-Bolo", "lon": "69.8811111"}, {"lat": "37.8272222", "city": "Chagam", "lon": "69.8811111"}, {"lat": "37.8272222", "city": "Chagami Bolo", "lon": "69.8811111"}, {"lat": "38.2833333", "city": "Chagam-Kukabulok", "lon": "68.5833333"}, {"lat": "37.8272222", "city": "Chagammiy\u00ebna", "lon": "69.8811111"}, {"lat": "38.6222222", "city": "Chagatoy", "lon": "68.6122222"}, {"lat": "38.4", "city": "Chagen", "lon": "68.8333333"}, {"lat": "38.4941667", "city": "Chakali", "lon": "69.3336111"}, {"lat": "38.5319444", "city": "Chalayev", "lon": "68.8238889"}, {"lat": "37.9255556", "city": "Chal", "lon": "69.1566667"}, {"lat": "38.3761111", "city": "Chalchal", "lon": "69.2027778"}, {"lat": "38.56", "city": "Chalchit", "lon": "69.1488889"}, {"lat": "37.3", "city": "Chali-Char-Chashma", "lon": "68.0333333"}, {"lat": "37.9255556", "city": "Chaltau", "lon": "69.1566667"}, {"lat": "38.5433333", "city": "Chamanistan", "lon": "68.5933333"}, {"lat": "38.6444444", "city": "Changob", "lon": "68.5758333"}, {"lat": "38.6333333", "city": "Changon", "lon": "70.1666667"}, {"lat": "38.6444444", "city": "Changou", "lon": "68.5758333"}, {"lat": "38.4083333", "city": "Chapaevskiy", "lon": "68.1333333"}, {"lat": "38.4941667", "city": "Chapali", "lon": "69.3336111"}, {"lat": "37.4666667", "city": "Chapary", "lon": "68.1666667"}, {"lat": "38.4083333", "city": "Chapayevskiy", "lon": "68.1333333"}, {"lat": "37.9255556", "city": "Chap", "lon": "69.1566667"}, {"lat": "38.1283333", "city": "Chargi-Po\u00ebn", "lon": "70.0741667"}, {"lat": "38.2475", "city": "Char-Gul'", "lon": "68.9705556"}, {"lat": "38.6983333", "city": "Charmogz", "lon": "69.6761111"}, {"lat": "37.3105556", "city": "Charshambe", "lon": "68.1302778"}, {"lat": "37.3333333", "city": "Charshma", "lon": "68.1833333"}, {"lat": "38.5275", "city": "Chartog", "lon": "68.7233333"}, {"lat": "38.6441667", "city": "Chashmaiborozi", "lon": "68.5408333"}, {"lat": "37.6833333", "city": "(( Chashma-i-Dara ))", "lon": "70.0"}, {"lat": "38.7119444", "city": "Chashmaikulo", "lon": "69.6286111"}, {"lat": "38.6283333", "city": "Chavalay", "lon": "68.8077778"}, {"lat": "38.5669444", "city": "Chavlibay", "lon": "68.7086111"}, {"lat": "38.6283333", "city": "Chavlyay", "lon": "68.8077778"}, {"lat": "38.3066667", "city": "Chavrok", "lon": "69.5419444"}, {"lat": "38.5311111", "city": "Chaynak", "lon": "68.6927778"}, {"lat": "38.5311111", "city": "Chaynakichinor", "lon": "68.6927778"}, {"lat": "38.5747222", "city": "Chayra-Koran", "lon": "68.6925"}, {"lat": "37.15", "city": "Chechka", "lon": "69.2"}, {"lat": "37.9958333", "city": "Chegam", "lon": "69.4341667"}, {"lat": "38.5119444", "city": "Chek-Mazar", "lon": "68.9563889"}, {"lat": "38.3894444", "city": "Chekurak", "lon": "69.9991667"}, {"lat": "38.4502778", "city": "Chepsoli", "lon": "69.1263889"}, {"lat": "38.6033333", "city": "Chepturai-Bolo", "lon": "68.5608333"}, {"lat": "37.7519444", "city": "Cherdara", "lon": "69.7716667"}, {"lat": "38.4869444", "city": "Cheresh-Tepa", "lon": "68.2333333"}, {"lat": "38.6913889", "city": "Chermokhzakon", "lon": "68.7436111"}, {"lat": "38.5166667", "city": "Chertepa", "lon": "68.75"}, {"lat": "37.765", "city": "Chichka", "lon": "68.8027778"}, {"lat": "37.765", "city": "Chichkhar", "lon": "68.8027778"}, {"lat": "37.9958333", "city": "Chigim", "lon": "69.4341667"}, {"lat": "38.4941667", "city": "Chikali", "lon": "69.3336111"}, {"lat": "38.1794444", "city": "Chilcha", "lon": "69.5491667"}, {"lat": "38.7847222", "city": "Childara", "lon": "70.3047222"}, {"lat": "38.7847222", "city": "Chil'dora", "lon": "70.3047222"}, {"lat": "38.2916667", "city": "Childukhtaron", "lon": "70.1336111"}, {"lat": "37.8166667", "city": "(( Chilishtak ))", "lon": "70.1166667"}, {"lat": "38.5602778", "city": "Chillamazor", "lon": "69.0769444"}, {"lat": "38.2333333", "city": "Chimbulak", "lon": "68.6833333"}, {"lat": "38.2333333", "city": "Chimbulok", "lon": "68.6833333"}, {"lat": "38.4675", "city": "Chim-Tepe", "lon": "68.725"}, {"lat": "38.4675", "city": "Chimteppa", "lon": "68.725"}, {"lat": "38.2", "city": "Chimul'dy", "lon": "69.6666667"}, {"lat": "38.2", "city": "Chimul'dyk", "lon": "69.6666667"}, {"lat": "38.3666667", "city": "Chinara-Sukhta", "lon": "68.4833333"}, {"lat": "37.2894444", "city": "Chinar", "lon": "68.1344444"}, {"lat": "38.2333333", "city": "Chinartu", "lon": "68.6"}, {"lat": "38.6380556", "city": "Chindara", "lon": "68.5722222"}, {"lat": "38.36", "city": "Chingirov", "lon": "68.34"}, {"lat": "37.9683333", "city": "Chinor", "lon": "69.7541667"}, {"lat": "38.3666667", "city": "Chirakon", "lon": "69.0833333"}, {"lat": "37.2183333", "city": "Chirik", "lon": "68.1941667"}, {"lat": "38.4869444", "city": "Chirish-Tepe", "lon": "68.2333333"}, {"lat": "38.4869444", "city": "Chirishteppa", "lon": "68.2333333"}, {"lat": "37.9641667", "city": "Chokhtemir", "lon": "69.7913889"}, {"lat": "37.9538889", "city": "Chol", "lon": "69.6666667"}, {"lat": "38.2366667", "city": "Cholon", "lon": "69.7775"}, {"lat": "37.9538889", "city": "Cholsartez", "lon": "69.6666667"}, {"lat": "37.9255556", "city": "Choltau", "lon": "69.1566667"}, {"lat": "38.1638889", "city": "Choltosh", "lon": "69.7866667"}, {"lat": "37.2894444", "city": "Chonar", "lon": "68.1344444"}, {"lat": "38.66", "city": "Chorbag", "lon": "68.7555556"}, {"lat": "37.4166667", "city": "Chorbog", "lon": "68.2"}, {"lat": "37.6386111", "city": "Chorgul'", "lon": "69.4052778"}, {"lat": "38.2475", "city": "Chorgul", "lon": "68.9705556"}, {"lat": "38.4213889", "city": "Chormagzak", "lon": "69.1805556"}, {"lat": "38.6983333", "city": "Chormagz", "lon": "69.6761111"}, {"lat": "38.6913889", "city": "Chor-Makh-Zakon", "lon": "68.7436111"}, {"lat": "38.4213889", "city": "Chormakhziaka", "lon": "69.1805556"}, {"lat": "38.6913889", "city": "Chormargzakon", "lon": "68.7436111"}, {"lat": "37.9666667", "city": "(( Chorsay ))", "lon": "69.85"}, {"lat": "37.3105556", "city": "Chorshanbe", "lon": "68.1302778"}, {"lat": "38.4675", "city": "Chorteppa", "lon": "68.725"}, {"lat": "38.5275", "city": "Chortut", "lon": "68.7233333"}, {"lat": "38.5255556", "city": "Chortut-Poyen", "lon": "68.7088889"}, {"lat": "38.5", "city": "Chortut-Surkh", "lon": "68.7333333"}, {"lat": "37.7497222", "city": "Chorvodoron", "lon": "69.4844444"}, {"lat": "38.5747222", "city": "Chor'yakkordara", "lon": "68.6925"}, {"lat": "38.5747222", "city": "Choryakkoron", "lon": "68.6925"}, {"lat": "37.8333333", "city": "Chosk", "lon": "70.2333333"}, {"lat": "37.6127778", "city": "Chubek", "lon": "69.7061111"}, {"lat": "38.3636111", "city": "Chuchu", "lon": "68.9305556"}, {"lat": "38.5119444", "city": "Chukmazor", "lon": "68.9563889"}, {"lat": "37.8680556", "city": "Chukurak", "lon": "69.5691667"}, {"lat": "38.5391667", "city": "Chukuraki-Bolo", "lon": "68.5"}, {"lat": "38.45", "city": "Chukur", "lon": "68.1333333"}, {"lat": "38.4388889", "city": "Chukurdolon", "lon": "68.3338889"}, {"lat": "38.8975", "city": "Chumdon", "lon": "70.1361111"}, {"lat": "38.0777778", "city": "Chuponabad", "lon": "68.9288889"}, {"lat": "38.5347222", "city": "Chuqurak", "lon": "69.3777778"}, {"lat": "38.4", "city": "Chur-Kishlak", "lon": "68.4166667"}, {"lat": "38.4", "city": "Churk-Kishlak", "lon": "68.4166667"}, {"lat": "37.1730556", "city": "Chuyanchi", "lon": "68.1377778"}, {"lat": "37.1730556", "city": "Chuyanchy", "lon": "68.1377778"}, {"lat": "38.5663889", "city": "Chuzii-Bolo", "lon": "68.4161111"}, {"lat": "38.5663889", "city": "Chuzy", "lon": "68.4161111"}, {"lat": "38.6283333", "city": "Dadoz\u00ed", "lon": "68.6161111"}, {"lat": "38.0586111", "city": "Dagana-Chinar", "lon": "69.8638889"}, {"lat": "37.5969444", "city": "Dagana", "lon": "69.7875"}, {"lat": "38.1911111", "city": "Dagana-Kiik", "lon": "68.6477778"}, {"lat": "37.9202778", "city": "Dagiston", "lon": "70.0225"}, {"lat": "38.0586111", "city": "Dahana", "lon": "69.8638889"}, {"lat": "38.1911111", "city": "Dahanakiik", "lon": "68.6477778"}, {"lat": "37.5969444", "city": "Dakhana", "lon": "69.7875"}, {"lat": "38.1911111", "city": "Dakhanakiik", "lon": "68.6477778"}, {"lat": "37.3252778", "city": "Dakki", "lon": "68.1888889"}, {"lat": "37.3252778", "city": "Dakky", "lon": "68.1888889"}, {"lat": "38.4388889", "city": "Dalan", "lon": "68.3338889"}, {"lat": "38.3508333", "city": "Daldakhuron", "lon": "69.1991667"}, {"lat": "38.9833333", "city": "Dambu", "lon": "70.35"}, {"lat": "38.0963889", "city": "Dangara", "lon": "69.3355556"}, {"lat": "37.8166667", "city": "(( Dangara ))", "lon": "69.3666667"}, {"lat": "38.0963889", "city": "Dangar", "lon": "69.3355556"}, {"lat": "38.0963889", "city": "Danghara", "lon": "69.3355556"}, {"lat": "37.3252778", "city": "Danky", "lon": "68.1888889"}, {"lat": "38.6886111", "city": "Dara", "lon": "69.0141667"}, {"lat": "38.5447222", "city": "Daragion", "lon": "69.3172222"}, {"lat": "38.5447222", "city": "Daragizy", "lon": "69.3172222"}, {"lat": "38.6483333", "city": "Daraigusfandak", "lon": "69.5022222"}, {"lat": "38.6483333", "city": "Darai Gusfondok", "lon": "69.5022222"}, {"lat": "38.6483333", "city": "Darai-Guspandak", "lon": "69.5022222"}, {"lat": "37.9883333", "city": "Daraikhavash", "lon": "69.9744444"}, {"lat": "37.6838889", "city": "Daraikolot", "lon": "69.59"}, {"lat": "37.8613889", "city": "Daraiob", "lon": "70.0183333"}, {"lat": "38.3380556", "city": "Daraishoy\u00ebni", "lon": "69.5866667"}, {"lat": "38.3380556", "city": "Daraishoyoni", "lon": "69.5866667"}, {"lat": "38.4333333", "city": "Dara-Khurdak", "lon": "70.0166667"}, {"lat": "37.6838889", "city": "Daran-Kolot", "lon": "69.59"}, {"lat": "38.4166667", "city": "Daray-Chokor", "lon": "69.8666667"}, {"lat": "37.9202778", "city": "Darayimom", "lon": "70.0225"}, {"lat": "37.4997222", "city": "Darkad", "lon": "69.42"}, {"lat": "37.4986111", "city": "Darkat", "lon": "69.425"}, {"lat": "37.9613889", "city": "Darnaychi", "lon": "69.7319444"}, {"lat": "38.6283333", "city": "Darozi", "lon": "68.6161111"}, {"lat": "38.5105556", "city": "Dar'yeabad", "lon": "68.8291667"}, {"lat": "38.2213889", "city": "Dashgabad", "lon": "69.0197222"}, {"lat": "38.4480556", "city": "Dashmandy", "lon": "69.7375"}, {"lat": "37.5247222", "city": "Dashtag", "lon": "69.335"}, {"lat": "38.6833333", "city": "Dashti-Angara", "lon": "70.0666667"}, {"lat": "38.6041667", "city": "Dashtibedi Kalon", "lon": "69.1472222"}, {"lat": "37.9380556", "city": "Dashti-Dzhum", "lon": "70.1413889"}, {"lat": "38.0194444", "city": "Dashtidzhum", "lon": "70.2122222"}, {"lat": "38.4833333", "city": "Dashtigul'kho", "lon": "69.7666667"}, {"lat": "37.7016667", "city": "Dashtigulo", "lon": "69.4963889"}, {"lat": "38.8033333", "city": "Dashtigurk", "lon": "70.2211111"}, {"lat": "37.9380556", "city": "Dashti-Jum", "lon": "70.1413889"}, {"lat": "38.0194444", "city": "Dashtijum", "lon": "70.2122222"}, {"lat": "38.0194444", "city": "Dashti-Jum", "lon": "70.2122222"}, {"lat": "39.2", "city": "Dashti-Khirsan", "lon": "70.4666667"}, {"lat": "38.6458333", "city": "Dashtimarzo", "lon": "69.5527778"}, {"lat": "38.6619444", "city": "Dashtimiron", "lon": "68.8283333"}, {"lat": "38.6458333", "city": "Dashti-Mirzo", "lon": "69.5527778"}, {"lat": "38.3333333", "city": "Dashti-Raz", "lon": "69.4"}, {"lat": "38.5091667", "city": "Dashtishur", "lon": "68.9813889"}, {"lat": "38.55", "city": "Dashtiyeri", "lon": "69.9833333"}, {"lat": "38.2213889", "city": "Dashtobod", "lon": "69.0197222"}, {"lat": "38.3647222", "city": "Dastgirak", "lon": "69.0480556"}, {"lat": "37.9461111", "city": "Davat", "lon": "69.4791667"}, {"lat": "38.1752778", "city": "Davatkhalkayer", "lon": "69.5738889"}, {"lat": "38.1752778", "city": "Davatkhalqaer", "lon": "69.5738889"}, {"lat": "37.6402778", "city": "Davlatabad", "lon": "69.5936111"}, {"lat": "38.5602778", "city": "Davlatmanka", "lon": "68.5375"}, {"lat": "37.6113889", "city": "Davlatobod", "lon": "69.4913889"}, {"lat": "38.2813889", "city": "Davlatshoy\u00ebn", "lon": "69.5175"}, {"lat": "38.2813889", "city": "Davlatshoyon", "lon": "69.5175"}, {"lat": "37.6113889", "city": "Davlyatabad", "lon": "69.4913889"}, {"lat": "38.5369444", "city": "Dayrabot", "lon": "68.9044444"}, {"lat": "38.65", "city": "De-Balyand", "lon": "68.9666667"}, {"lat": "37.8183333", "city": "Dedorazak", "lon": "69.9019444"}, {"lat": "38.8947222", "city": "Degai", "lon": "69.9233333"}, {"lat": "38.9333333", "city": "Deg-Danak", "lon": "69.8333333"}, {"lat": "38.2355556", "city": "Degez", "lon": "69.9852778"}, {"lat": "38.3833333", "city": "Degi-Kham", "lon": "69.65"}, {"lat": "38.8833333", "city": "Degi-Mulla", "lon": "70.45"}, {"lat": "38.2208333", "city": "Degmyur", "lon": "69.7905556"}, {"lat": "38.2355556", "city": "Degrez", "lon": "69.9852778"}, {"lat": "38.2208333", "city": "Degtyur", "lon": "69.7905556"}, {"lat": "38.8847222", "city": "Dehai Baland", "lon": "69.8511111"}, {"lat": "38.3719444", "city": "Dehishur", "lon": "69.9688889"}, {"lat": "37.5922222", "city": "Dehqonobod", "lon": "69.3686111"}, {"lat": "38.3719444", "city": "Deishur", "lon": "69.9688889"}, {"lat": "38.9333333", "city": "Dek-Donak", "lon": "69.8333333"}, {"lat": "38.8847222", "city": "Dekhaibaland", "lon": "69.8511111"}, {"lat": "37.5922222", "city": "Dekhkanabad", "lon": "69.3686111"}, {"lat": "37.5922222", "city": "Dekhkonabad", "lon": "69.3686111"}, {"lat": "38.2208333", "city": "Dektur", "lon": "69.7905556"}, {"lat": "38.1213889", "city": "Delolo", "lon": "70.0297222"}, {"lat": "38.4880556", "city": "Demiya", "lon": "69.4977778"}, {"lat": "38.7847222", "city": "Depir", "lon": "69.4327778"}, {"lat": "37.8041667", "city": "Devdor", "lon": "69.9794444"}, {"lat": "38.2", "city": "Devona", "lon": "69.5666667"}, {"lat": "38.1077778", "city": "Devona-Khoja", "lon": "69.8452778"}, {"lat": "37.9", "city": "(( Deyli ))", "lon": "69.6666667"}, {"lat": "37.8183333", "city": "Dibarazak", "lon": "69.9019444"}, {"lat": "38.3666667", "city": "Difat", "lon": "69.7333333"}, {"lat": "37.9", "city": "Dilya", "lon": "69.6666667"}, {"lat": "38.1077778", "city": "Divana-Khodzha", "lon": "69.8452778"}, {"lat": "37.8041667", "city": "Divdar-Bole", "lon": "69.9794444"}, {"lat": "37.8041667", "city": "Divdor-Bolo", "lon": "69.9794444"}, {"lat": "38.56", "city": "Djuschambe", "lon": "68.7738889"}, {"lat": "37.2969444", "city": "Dobrovolcheskiy", "lon": "68.6552778"}, {"lat": "37.8183333", "city": "Dodrazak", "lon": "69.9019444"}, {"lat": "38.1911111", "city": "Dogana", "lon": "68.6477778"}, {"lat": "38.9333333", "city": "Dokdonak", "lon": "69.8333333"}, {"lat": "37.3252778", "city": "Dokki", "lon": "68.1888889"}, {"lat": "38.4672222", "city": "Dolonsoy", "lon": "68.2683333"}, {"lat": "37.5563889", "city": "Dong", "lon": "69.3508333"}, {"lat": "38.4333333", "city": "Donguz-Ul'dy", "lon": "68.8166667"}, {"lat": "38.6186111", "city": "Doobva", "lon": "68.9255556"}, {"lat": "38.3280556", "city": "Dorobi", "lon": "69.9308333"}, {"lat": "38.3280556", "city": "Doroby", "lon": "69.9308333"}, {"lat": "37.9116667", "city": "Dosheton", "lon": "70.0186111"}, {"lat": "38.4480556", "city": "Doshmandv", "lon": "69.7375"}, {"lat": "38.4480556", "city": "Doshmandy", "lon": "69.7375"}, {"lat": "37.8041667", "city": "Dovdorbolo", "lon": "69.9794444"}, {"lat": "37.74", "city": "Druzhba", "lon": "69.5827778"}, {"lat": "38.57", "city": "Dubeda", "lon": "69.3786111"}, {"lat": "38.6186111", "city": "Dubova", "lon": "68.9255556"}, {"lat": "38.5761111", "city": "Duchinora", "lon": "68.5622222"}, {"lat": "38.5761111", "city": "Duchinor", "lon": "68.5622222"}, {"lat": "39.1833333", "city": "Du-Oba", "lon": "70.6333333"}, {"lat": "38.5286111", "city": "Durbat", "lon": "68.6361111"}, {"lat": "38.4305556", "city": "Durmanbulok", "lon": "68.3911111"}, {"lat": "38.45", "city": "Durman", "lon": "68.2166667"}, {"lat": "38.4305556", "city": "Durmonbuloq", "lon": "68.3911111"}, {"lat": "38.8833333", "city": "Dushakhokogak", "lon": "70.4333333"}, {"lat": "38.56", "city": "Dushambe", "lon": "68.7738889"}, {"lat": "38.56", "city": "Dushanbe", "lon": "68.7738889"}, {"lat": "37.3486111", "city": "Dusti", "lon": "68.6733333"}, {"lat": "37.3486111", "city": "Dusty", "lon": "68.6733333"}, {"lat": "38.5286111", "city": "Dvadtsat' Vtorogo Parts''yezd", "lon": "68.7797222"}, {"lat": "38.0833333", "city": "Dyurak", "lon": "68.5"}, {"lat": "38.5286111", "city": "Dyurbat", "lon": "68.6361111"}, {"lat": "38.56", "city": "Dyushambe", "lon": "68.7738889"}, {"lat": "37.5686111", "city": "Dzhairaly", "lon": "69.4827778"}, {"lat": "38.645", "city": "Dzhalandar", "lon": "68.8277778"}, {"lat": "37.7", "city": "(( Dzhalavli ))", "lon": "69.85"}, {"lat": "37.7297222", "city": "Dzhalbuzy", "lon": "69.3847222"}, {"lat": "38.56", "city": "Dzhaldzhit", "lon": "69.1488889"}, {"lat": "38.3666667", "city": "Dzhaltr-Tepe", "lon": "68.6333333"}, {"lat": "38.3666667", "city": "Dzhaltyrtepa", "lon": "68.6333333"}, {"lat": "38.3666667", "city": "Dzhaltyrtepe", "lon": "68.6333333"}, {"lat": "38.4166667", "city": "Dzhalyak-Bulak", "lon": "68.9333333"}, {"lat": "38.2833333", "city": "Dzhamanguli", "lon": "69.5"}, {"lat": "37.1158333", "city": "Dzhamiyat-Dekhan", "lon": "68.1063889"}, {"lat": "38.2833333", "city": "Dzhamogulion", "lon": "69.5"}, {"lat": "38.5", "city": "Dzhana-Kishlak", "lon": "68.4833333"}, {"lat": "38.5291667", "city": "Dzhangalabad", "lon": "68.9197222"}, {"lat": "38.6833333", "city": "Dzhangalda", "lon": "68.7833333"}, {"lat": "38.1569444", "city": "Dzhantokli", "lon": "69.5802778"}, {"lat": "37.9616667", "city": "Dzharapkul'", "lon": "69.4825"}, {"lat": "38.5388889", "city": "Dzharboshi", "lon": "68.985"}, {"lat": "38.4813889", "city": "Dzhar-Bulak", "lon": "68.3936111"}, {"lat": "37.8736111", "city": "Dzharbulok", "lon": "69.3638889"}, {"lat": "37.9836111", "city": "Dzharch\u00ebb", "lon": "69.9075"}, {"lat": "37.9616667", "city": "Dzharipkul'", "lon": "69.4825"}, {"lat": "37.2022222", "city": "Dzharkurgan", "lon": "68.2144444"}, {"lat": "38.4", "city": "Dzhar-Mechet'", "lon": "68.4166667"}, {"lat": "38.0158333", "city": "Dzhartepai Bolo", "lon": "69.3591667"}, {"lat": "38.0158333", "city": "Dzhar-Tepe", "lon": "69.3591667"}, {"lat": "38.0158333", "city": "Dzharteppa", "lon": "69.3591667"}, {"lat": "38.5644444", "city": "Dzhavliboi", "lon": "68.6958333"}, {"lat": "38.7441667", "city": "Dzhavoni", "lon": "69.6447222"}, {"lat": "38.4333333", "city": "Dzhavrat", "lon": "68.15"}, {"lat": "38.2533333", "city": "Dzhavzodara", "lon": "70.1266667"}, {"lat": "38.4166667", "city": "Dzhayrabulok", "lon": "68.9333333"}, {"lat": "37.9638889", "city": "Dzhayrali", "lon": "69.5869444"}, {"lat": "37.5686111", "city": "Dzhayraly", "lon": "69.4827778"}, {"lat": "37.9638889", "city": "Dzheraylik", "lon": "69.5869444"}, {"lat": "37.8161111", "city": "Dzherkala", "lon": "69.3502778"}, {"lat": "38.3163889", "city": "Dzhetikir", "lon": "68.4383333"}, {"lat": "38.3163889", "city": "Dzhetykyr", "lon": "68.4383333"}, {"lat": "37.8263889", "city": "Dzhida-Bulak", "lon": "69.8380556"}, {"lat": "37.57", "city": "Dzhida", "lon": "69.3538889"}, {"lat": "37.57", "city": "Dzhida-Kishlak", "lon": "69.3538889"}, {"lat": "37.8263889", "city": "Dzhidobulok", "lon": "69.8380556"}, {"lat": "37.6619444", "city": "Dzhilga", "lon": "69.8591667"}, {"lat": "37.4936111", "city": "Dzhilikol", "lon": "68.5311111"}, {"lat": "37.4936111", "city": "Dzhilikul'", "lon": "68.5311111"}, {"lat": "37.4936111", "city": "Dzhil'kul'", "lon": "68.5311111"}, {"lat": "39.0833333", "city": "Dzhingun", "lon": "70.2"}, {"lat": "38.6477778", "city": "Dzhirginak", "lon": "68.6272222"}, {"lat": "38.5433333", "city": "Dzhomri", "lon": "68.9977778"}, {"lat": "38.4", "city": "Dzhonbakhti Poy\u00ebn", "lon": "69.9833333"}, {"lat": "38.5288889", "city": "Dzhonvarsuz", "lon": "69.3094444"}, {"lat": "38.4666667", "city": "Dzhorusay", "lon": "68.55"}, {"lat": "38.6102778", "city": "Dzhoy-Bulak", "lon": "68.7180556"}, {"lat": "38.5469444", "city": "Dzhugiabad", "lon": "68.5502778"}, {"lat": "38.675", "city": "Dzhuginak", "lon": "68.7694444"}, {"lat": "37.9833333", "city": "(( Dzhul'mabad ))", "lon": "69.5166667"}, {"lat": "38.5516667", "city": "Dzhuybodom", "lon": "68.6972222"}, {"lat": "37.7322222", "city": "Dzhyuzak", "lon": "69.1594444"}, {"lat": "37.2683333", "city": "Echki", "lon": "69.0563889"}, {"lat": "38.4658333", "city": "Efironos", "lon": "68.1602778"}, {"lat": "38.2272222", "city": "Egron", "lon": "69.3127778"}, {"lat": "38.6008333", "city": "Elovar", "lon": "69.1755556"}, {"lat": "37.8588889", "city": "Emomaly", "lon": "69.6188889"}, {"lat": "37.4166667", "city": "(( Engel's ))", "lon": "68.6166667"}, {"lat": "38.0777778", "city": "Esanboy", "lon": "68.3766667"}, {"lat": "38.1661111", "city": "Eshma", "lon": "68.8541667"}, {"lat": "38.1638889", "city": "Eshma Pervaya", "lon": "68.8236111"}, {"lat": "38.7258333", "city": "Ezgand", "lon": "70.4188889"}, {"lat": "37.3333333", "city": "Faisabad", "lon": "68.9666667"}, {"lat": "38.5447222", "city": "Faizabad", "lon": "69.3172222"}, {"lat": "37.3333333", "city": "Faizabad Kala", "lon": "68.9666667"}, {"lat": "37.3333333", "city": "Faizabad Qala", "lon": "68.9666667"}, {"lat": "38.3011111", "city": "Fakhrabad", "lon": "68.7063889"}, {"lat": "38.3011111", "city": "Fakhrobod", "lon": "68.7063889"}, {"lat": "38.5075", "city": "Falakon", "lon": "68.7872222"}, {"lat": "38.21", "city": "Falkhabad", "lon": "69.5069444"}, {"lat": "38.7202778", "city": "Fanfarok", "lon": "68.8116667"}, {"lat": "38.5961111", "city": "Farishti", "lon": "69.0019444"}, {"lat": "37.4922222", "city": "Farkhor", "lon": "69.4016667"}, {"lat": "38.6722222", "city": "Farrukh", "lon": "69.6547222"}, {"lat": "37.6666667", "city": "Fayzabad", "lon": "69.4936111"}, {"lat": "38.5188889", "city": "Fayzabadi-Bolo", "lon": "69.3241667"}, {"lat": "37.3333333", "city": "(( Fayzabadkala ))", "lon": "68.9666667"}, {"lat": "37.6666667", "city": "Fayzobod", "lon": "69.4936111"}, {"lat": "38.5188889", "city": "Fayzobodi Bolo", "lon": "69.3241667"}, {"lat": "37.4730556", "city": "Finskiy", "lon": "69.3705556"}, {"lat": "38.1080556", "city": "Firdavsy", "lon": "68.9372222"}, {"lat": "38.1080556", "city": "Firdousi", "lon": "68.9372222"}, {"lat": "38.5961111", "city": "Firishti", "lon": "69.0019444"}, {"lat": "38.7066667", "city": "Firuzaabad", "lon": "68.8058333"}, {"lat": "38.0522222", "city": "Firuzoba", "lon": "69.9694444"}, {"lat": "38.7066667", "city": "Firuzoobod", "lon": "68.8058333"}, {"lat": "38.6836111", "city": "Foru", "lon": "69.6605556"}, {"lat": "37.3775", "city": "Frunze", "lon": "68.5669444"}, {"lat": "38.1002778", "city": "Furkat", "lon": "68.9325"}, {"lat": "38.1002778", "city": "Furqat", "lon": "68.9325"}, {"lat": "38.5047222", "city": "Gachak", "lon": "68.5336111"}, {"lat": "38.1777778", "city": "Galaabad", "lon": "68.6705556"}, {"lat": "37.3177778", "city": "Galaba", "lon": "69.03"}, {"lat": "38.4363889", "city": "Galabulok", "lon": "68.9613889"}, {"lat": "38.4363889", "city": "Galabuloq", "lon": "68.9613889"}, {"lat": "37.75", "city": "(( Gala-Gutan ))", "lon": "69.7666667"}, {"lat": "38.5405556", "city": "Galamysh", "lon": "68.5277778"}, {"lat": "38.1777778", "city": "Galaobod", "lon": "68.6705556"}, {"lat": "38.4869444", "city": "Gal'butta", "lon": "68.7577778"}, {"lat": "37.3383333", "city": "Gallabor", "lon": "68.99"}, {"lat": "38.4363889", "city": "Galya-Bulak", "lon": "68.9613889"}, {"lat": "38.3166667", "city": "Galya-Kuduk", "lon": "68.6666667"}, {"lat": "37.9", "city": "Gamchi", "lon": "69.4833333"}, {"lat": "37.6333333", "city": "(( Gami-Dara ))", "lon": "70.2"}, {"lat": "37.9333333", "city": "Gandzhina", "lon": "68.5666667"}, {"lat": "37.6136111", "city": "Garab", "lon": "69.7863889"}, {"lat": "38.3130556", "city": "Garau", "lon": "68.9838889"}, {"lat": "37.8227778", "city": "(( Garavchak ))", "lon": "69.6325"}, {"lat": "38.3130556", "city": "Garav", "lon": "68.9838889"}, {"lat": "38.3886111", "city": "Gar-Bulak", "lon": "68.9458333"}, {"lat": "38.3886111", "city": "Garbulok", "lon": "68.9458333"}, {"lat": "38.3886111", "city": "Garbuloq", "lon": "68.9458333"}, {"lat": "38.1666667", "city": "Gardana", "lon": "69.1666667"}, {"lat": "38.1405556", "city": "Gargara", "lon": "69.4294444"}, {"lat": "39.0241667", "city": "Garm", "lon": "70.3794444"}, {"lat": "37.3166667", "city": "(( Garm ))", "lon": "69.0166667"}, {"lat": "37.6136111", "city": "Garm-Ob", "lon": "69.7863889"}, {"lat": "38.6", "city": "Gashion", "lon": "69.65"}, {"lat": "38.6166667", "city": "Gech-Lara", "lon": "69.9166667"}, {"lat": "37.9455556", "city": "Gelot", "lon": "69.72"}, {"lat": "38.1877778", "city": "Gesh", "lon": "70.0711111"}, {"lat": "38.4438889", "city": "Geshi", "lon": "69.1775"}, {"lat": "38.0658333", "city": "Ghalaba", "lon": "68.8094444"}, {"lat": "38.1405556", "city": "Ghargara", "lon": "69.4294444"}, {"lat": "39.0241667", "city": "Gharm", "lon": "70.3794444"}, {"lat": "37.9455556", "city": "Ghelot", "lon": "69.72"}, {"lat": "38.1419444", "city": "Ghofilobod", "lon": "70.0097222"}, {"lat": "38.0044444", "city": "Ghulomobod", "lon": "70.0286111"}, {"lat": "38.1702778", "city": "Gidzhovak", "lon": "69.3747222"}, {"lat": "38.1702778", "city": "Gijovak", "lon": "69.3747222"}, {"lat": "37.9455556", "city": "Gilot", "lon": "69.72"}, {"lat": "38.3025", "city": "Girdob", "lon": "69.1469444"}, {"lat": "38.0777778", "city": "Gissar", "lon": "68.9288889"}, {"lat": "38.5644444", "city": "Gizhdalabad", "lon": "68.6897222"}, {"lat": "37.9833333", "city": "(( Glomovod ))", "lon": "69.9666667"}, {"lat": "38.1419444", "city": "Gofilabad", "lon": "70.0097222"}, {"lat": "37.7166667", "city": "Golchak", "lon": "70.2833333"}, {"lat": "38.1405556", "city": "Gor-gora", "lon": "69.4294444"}, {"lat": "39.0833333", "city": "Gozri", "lon": "70.6"}, {"lat": "37.4022222", "city": "Granitsa", "lon": "69.3583333"}, {"lat": "38.2", "city": "Gring", "lon": "70.2666667"}, {"lat": "37.7225", "city": "Gul'abad", "lon": "69.515"}, {"lat": "38.6261111", "city": "Gulbog", "lon": "68.9575"}, {"lat": "38.4869444", "city": "Gulbutta", "lon": "68.7577778"}, {"lat": "38.1186111", "city": "Gulisoy 2", "lon": "69.7541667"}, {"lat": "38.1186111", "city": "Gulisoy 2 (Vtoroy)", "lon": "69.7541667"}, {"lat": "38.1186111", "city": "Gulisoy Vtoroy", "lon": "69.7541667"}, {"lat": "37.1913889", "city": "Gulistan", "lon": "69.1594444"}, {"lat": "38.0219444", "city": "Guliston", "lon": "69.0755556"}, {"lat": "38.4436111", "city": "Gulisurkh", "lon": "69.2272222"}, {"lat": "38.2369444", "city": "Gulizindon", "lon": "69.4166667"}, {"lat": "38.3811111", "city": "Gulizoar", "lon": "68.8627778"}, {"lat": "38.3811111", "city": "Gulizor", "lon": "68.8627778"}, {"lat": "38.6630556", "city": "Gul'khari", "lon": "69.5191667"}, {"lat": "38.6630556", "city": "Gulkhori", "lon": "69.5191667"}, {"lat": "38.5219444", "city": "Gul'mazor", "lon": "68.9163889"}, {"lat": "37.7225", "city": "Gulobod", "lon": "69.515"}, {"lat": "38.6508333", "city": "Gulpista", "lon": "68.8052778"}, {"lat": "37.5736111", "city": "Gulshan", "lon": "69.4313889"}, {"lat": "38.0044444", "city": "Gulyamabad", "lon": "70.0286111"}, {"lat": "38.3666667", "city": "Gulyuk", "lon": "69.6833333"}, {"lat": "38.5247222", "city": "Gumbulok", "lon": "69.2052778"}, {"lat": "38.5247222", "city": "Gumbuloq", "lon": "69.2052778"}, {"lat": "38.1491667", "city": "Gumsu", "lon": "69.2352778"}, {"lat": "37.6333333", "city": "(( Gun-Dara ))", "lon": "70.1833333"}, {"lat": "38.6505556", "city": "Gurakha", "lon": "68.7619444"}, {"lat": "37.9541667", "city": "Gurdara", "lon": "69.5713889"}, {"lat": "38.2833333", "city": "Gurdora", "lon": "69.6666667"}, {"lat": "38.6791667", "city": "Guriy\u00ebn", "lon": "68.5991667"}, {"lat": "38.5808333", "city": "Guriy\u00ebt", "lon": "68.5302778"}, {"lat": "38.5808333", "city": "Guriyot", "lon": "68.5302778"}, {"lat": "38.3166667", "city": "Gurlyuk-Say", "lon": "68.9666667"}, {"lat": "38.6791667", "city": "Guruen", "lon": "68.5991667"}, {"lat": "37.9422222", "city": "Guruldy", "lon": "69.6075"}, {"lat": "38.6791667", "city": "Guruyon", "lon": "68.5991667"}, {"lat": "38.5808333", "city": "Gur'yat", "lon": "68.5302778"}, {"lat": "38.7430556", "city": "Guskharf", "lon": "68.7925"}, {"lat": "38.0383333", "city": "Guyunch\u00ed", "lon": "69.2216667"}, {"lat": "37.9422222", "city": "Guzari-Poy\u00ebn", "lon": "70.0155556"}, {"lat": "38.1877778", "city": "Gysh", "lon": "70.0711111"}, {"lat": "37.9833333", "city": "Gyul'kha-Bulak", "lon": "68.4166667"}, {"lat": "37.95", "city": "(( Gyzaryta ))", "lon": "70.0166667"}, {"lat": "38.1338889", "city": "Hayoti Nav", "lon": "68.8936111"}, {"lat": "37.9294444", "city": "Hiloli Ahmar", "lon": "69.8025"}, {"lat": "38.4819444", "city": "Hisor", "lon": "68.5969444"}, {"lat": "37.2683333", "city": "Ichka", "lon": "69.0563889"}, {"lat": "38.2272222", "city": "Igron", "lon": "69.3127778"}, {"lat": "38.4722222", "city": "I'ich", "lon": "68.8208333"}, {"lat": "38.3", "city": "Il'govar", "lon": "70.3166667"}, {"lat": "37.8", "city": "Il'ty", "lon": "68.8"}, {"lat": "37.8588889", "city": "Imam-Ali", "lon": "69.6188889"}, {"lat": "37.9302778", "city": "Imamtarifi", "lon": "69.7163889"}, {"lat": "37.9166667", "city": "Imeni Chapayeva", "lon": "68.8666667"}, {"lat": "37.4625", "city": "Imeni Engel'sa", "lon": "68.6141667"}, {"lat": "37.5333333", "city": "Imeni Frunze", "lon": "68.65"}, {"lat": "37.7736111", "city": "Imeni Karla Marksa", "lon": "69.5877778"}, {"lat": "37.5", "city": "(( Imeni Kirova ))", "lon": "69.35"}, {"lat": "37.8166667", "city": "Imeni Kirova", "lon": "68.85"}, {"lat": "37.3419444", "city": "Imeni Molotova", "lon": "69.0080556"}, {"lat": "37.4666667", "city": "Imeni Nasira Khisrav", "lon": "68.2333333"}, {"lat": "37.4666667", "city": "Imeni Nasir Khisrav", "lon": "68.2333333"}, {"lat": "38.4422222", "city": "Imeni Sardarova Karakhana", "lon": "68.7769444"}, {"lat": "37.7166667", "city": "Imeni Stalina", "lon": "68.7833333"}, {"lat": "37.3766667", "city": "Imeni Tel'mana", "lon": "68.6708333"}, {"lat": "37.1166667", "city": "Imeni Voroshilova", "lon": "68.2333333"}, {"lat": "37.8025", "city": "Imeni Vose", "lon": "69.6441667"}, {"lat": "37.4813889", "city": "Imeni Vos'mogo Marta", "lon": "68.5283333"}, {"lat": "37.8588889", "city": "Imomali", "lon": "69.6188889"}, {"lat": "37.8833333", "city": "(( Indukul' ))", "lon": "69.8666667"}, {"lat": "38.3494444", "city": "Ingichka", "lon": "68.7138889"}, {"lat": "37.7636111", "city": "Iol", "lon": "70.1902778"}, {"lat": "38.6", "city": "Ionakhsh", "lon": "69.6666667"}, {"lat": "38.0777778", "city": "Isambay", "lon": "68.3766667"}, {"lat": "38.0777778", "city": "Isan-Bai", "lon": "68.3766667"}, {"lat": "38.0777778", "city": "Isan-Bay", "lon": "68.3766667"}, {"lat": "37.6", "city": "(( Ishan ))", "lon": "69.3666667"}, {"lat": "37.95", "city": "Ishkabad", "lon": "68.2833333"}, {"lat": "37.9727778", "city": "Ishma", "lon": "69.0947222"}, {"lat": "38.1638889", "city": "Ishma Pervaya", "lon": "68.8236111"}, {"lat": "38.2", "city": "Ishma Tret'ya", "lon": "68.7333333"}, {"lat": "37.65", "city": "(( Ishtel' ))", "lon": "70.1333333"}, {"lat": "38.5291667", "city": "Ishtimoyut", "lon": "68.9119444"}, {"lat": "38.5252778", "city": "Iski-Baldirgon", "lon": "68.8977778"}, {"lat": "38.5", "city": "Iski-Guzar", "lon": "69.05"}, {"lat": "37.6786111", "city": "Islomobod", "lon": "69.5755556"}, {"lat": "38.5794444", "city": "Ispechak", "lon": "68.7216667"}, {"lat": "38.4836111", "city": "Israilabad", "lon": "69.0475"}, {"lat": "38.4836111", "city": "Isroilobod", "lon": "69.0475"}, {"lat": "38.5372222", "city": "Itak", "lon": "68.9594444"}, {"lat": "38.5372222", "city": "Itok", "lon": "68.9594444"}, {"lat": "38.4872222", "city": "Ittifok", "lon": "68.5677778"}, {"lat": "38.4872222", "city": "Ittifoq", "lon": "68.5677778"}, {"lat": "37.7297222", "city": "Jalbuzi", "lon": "69.3847222"}, {"lat": "37.1158333", "city": "Jam'iyatdehqon", "lon": "68.1063889"}, {"lat": "38.6833333", "city": "Jangalda", "lon": "68.7833333"}, {"lat": "38.1569444", "city": "Jantokli", "lon": "69.5802778"}, {"lat": "38.2533333", "city": "Janzodara", "lon": "70.1266667"}, {"lat": "38.4813889", "city": "Jarbuloq", "lon": "68.3936111"}, {"lat": "37.9836111", "city": "Jarchob", "lon": "69.9075"}, {"lat": "37.2022222", "city": "Jarqurghon", "lon": "68.2144444"}, {"lat": "38.0158333", "city": "Jarteppa", "lon": "69.3591667"}, {"lat": "38.7441667", "city": "Javon\u00ed", "lon": "69.6447222"}, {"lat": "38.6102778", "city": "Jayrabuloq", "lon": "68.7180556"}, {"lat": "37.5686111", "city": "Jayraly", "lon": "69.4827778"}, {"lat": "38.3163889", "city": "Jetikir", "lon": "68.4383333"}, {"lat": "37.57", "city": "Jida", "lon": "69.3538889"}, {"lat": "37.6619444", "city": "Jilga", "lon": "69.8591667"}, {"lat": "37.4936111", "city": "Jilikul", "lon": "68.5311111"}, {"lat": "37.8161111", "city": "Jirqal'a", "lon": "69.3502778"}, {"lat": "38.5288889", "city": "Jonvarsuz", "lon": "69.3094444"}, {"lat": "38.0225", "city": "Jorbog", "lon": "69.8419444"}, {"lat": "38.5516667", "city": "Juibodom", "lon": "68.6972222"}, {"lat": "38.4388889", "city": "Juqurdolon", "lon": "68.3338889"}, {"lat": "38.56", "city": "Jushambe", "lon": "68.7738889"}, {"lat": "37.7322222", "city": "Juzak", "lon": "69.1594444"}, {"lat": "37.4166667", "city": "Kabadian", "lon": "68.2"}, {"lat": "38.5172222", "city": "Kabkrez", "lon": "69.2713889"}, {"lat": "37.5", "city": "Kabla", "lon": "68.15"}, {"lat": "37.4122222", "city": "Kabodiy\u00ebn", "lon": "68.1880556"}, {"lat": "38.9111111", "city": "Kabutchiyon", "lon": "70.0358333"}, {"lat": "38.9111111", "city": "Kabutiy\u00ebn", "lon": "70.0358333"}, {"lat": "38.9833333", "city": "Kadara", "lon": "70.2666667"}, {"lat": "38.6833333", "city": "Kadi-Ob", "lon": "69.35"}, {"lat": "37.8919444", "city": "Kaduchi", "lon": "69.6283333"}, {"lat": "37.8919444", "city": "Kaduchi-Miona", "lon": "69.6283333"}, {"lat": "37.8919444", "city": "Kaduchy", "lon": "69.6283333"}, {"lat": "38.3", "city": "Kadyr-Berdy", "lon": "68.8833333"}, {"lat": "38.5983333", "city": "Kafiringan", "lon": "69.1111111"}, {"lat": "38.5983333", "city": "Kafirnigan", "lon": "69.1111111"}, {"lat": "38.5983333", "city": "Kafirnihan", "lon": "69.1111111"}, {"lat": "38.8397222", "city": "Kaftarguzar", "lon": "70.1563889"}, {"lat": "37.9052778", "city": "Kaftar", "lon": "70.0033333"}, {"lat": "37.9130556", "city": "Kaftar-Khana", "lon": "69.7225"}, {"lat": "37.9130556", "city": "Kaftarkhona", "lon": "69.7225"}, {"lat": "37.9166667", "city": "(( Kaftor ))", "lon": "69.9833333"}, {"lat": "37.5894444", "city": "Kaganovichabad", "lon": "68.6608333"}, {"lat": "37.5894444", "city": "Kaganowtschab", "lon": "68.6608333"}, {"lat": "37.4666667", "city": "Kakhrama", "lon": "68.55"}, {"lat": "37.2761111", "city": "Kakhramon", "lon": "68.1333333"}, {"lat": "38.6", "city": "Kalacha", "lon": "68.9869444"}, {"lat": "38.6258333", "city": "Kalaidasht", "lon": "69.5"}, {"lat": "38.7019444", "city": "Kalainav", "lon": "69.6427778"}, {"lat": "37.5327778", "city": "Kalai-Puchkak", "lon": "69.4672222"}, {"lat": "37.5327778", "city": "Kalaipuchkan", "lon": "69.4672222"}, {"lat": "38.5627778", "city": "Kalaishodi", "lon": "69.2122222"}, {"lat": "39.0833333", "city": "Kalanak", "lon": "70.5"}, {"lat": "37.7", "city": "Kalaryk", "lon": "70.25"}, {"lat": "38.5666667", "city": "Kalay-Khodzha", "lon": "70.2666667"}, {"lat": "38.7019444", "city": "Kalaynav", "lon": "69.6427778"}, {"lat": "38.1572222", "city": "Kal'fisabad", "lon": "69.0055556"}, {"lat": "37.8666667", "city": "Kalininabad", "lon": "68.9166667"}, {"lat": "37.4258333", "city": "Kalinin", "lon": "68.6011111"}, {"lat": "38.5947222", "city": "Kalinino", "lon": "68.75"}, {"lat": "37.4852778", "city": "Kalininskiy", "lon": "68.6383333"}, {"lat": "37.8025", "city": "Kal Khaz", "lon": "69.6441667"}, {"lat": "38.2575", "city": "Kalkot", "lon": "69.2552778"}, {"lat": "38.35", "city": "Kallyapar", "lon": "68.4333333"}, {"lat": "37.8897222", "city": "Kaltashur", "lon": "69.0613889"}, {"lat": "38.7072222", "city": "Kaltuch", "lon": "69.2605556"}, {"lat": "38.7072222", "city": "Kal'tuk", "lon": "69.2605556"}, {"lat": "39.1666667", "city": "Kamarou", "lon": "70.3166667"}, {"lat": "38.6263889", "city": "Kamchin", "lon": "68.8530556"}, {"lat": "38.5491667", "city": "Kamongaroni-Bolo", "lon": "68.9702778"}, {"lat": "38.5283333", "city": "Kampirkala", "lon": "68.6627778"}, {"lat": "38.5283333", "city": "Kampirqal\"a", "lon": "68.6627778"}, {"lat": "37.4069444", "city": "Kamyshogly", "lon": "69.1041667"}, {"lat": "38.6544444", "city": "Kandi", "lon": "68.9452778"}, {"lat": "37.9833333", "city": "(( Kandou ))", "lon": "70.15"}, {"lat": "38.2166667", "city": "Kangur-Dzhar", "lon": "68.9833333"}, {"lat": "38.2461111", "city": "Kangurt", "lon": "69.52"}, {"lat": "38.2333333", "city": "Kangurtut", "lon": "69.4333333"}, {"lat": "37.9833333", "city": "Kaporel'", "lon": "70.2166667"}, {"lat": "37.7283333", "city": "Kara-Agach", "lon": "69.6747222"}, {"lat": "38.4705556", "city": "Karaagach", "lon": "68.4236111"}, {"lat": "38.55", "city": "Kara-Avgan", "lon": "68.6166667"}, {"lat": "37.8530556", "city": "Karabadam", "lon": "69.1211111"}, {"lat": "38.0988889", "city": "Kara-Bal'chik", "lon": "68.3872222"}, {"lat": "38.0988889", "city": "Kara-Bal'yank", "lon": "68.3872222"}, {"lat": "38.0988889", "city": "Karabolchik", "lon": "68.3872222"}, {"lat": "38.2333333", "city": "Kara-Bulak", "lon": "68.5666667"}, {"lat": "38.5375", "city": "Karabulok", "lon": "69.1627778"}, {"lat": "38.3", "city": "Karagach", "lon": "68.8"}, {"lat": "37.7505556", "city": "Karagoch", "lon": "69.9558333"}, {"lat": "38.2325", "city": "Karakamish", "lon": "69.5191667"}, {"lat": "38.2325", "city": "Karakamysh", "lon": "69.5191667"}, {"lat": "37.6544444", "city": "Karakchi", "lon": "69.3933333"}, {"lat": "38.7166667", "city": "Karakutan", "lon": "70.1666667"}, {"lat": "38.2747222", "city": "Karakuz", "lon": "68.3775"}, {"lat": "38.2747222", "city": "Kara-Kuz", "lon": "68.3775"}, {"lat": "38.2944444", "city": "Karamandi", "lon": "68.6972222"}, {"lat": "38.2944444", "city": "Karamandy", "lon": "68.6972222"}, {"lat": "38.5155556", "city": "Karamkul", "lon": "68.5127778"}, {"lat": "38.5097222", "city": "Karasu", "lon": "68.9363889"}, {"lat": "38.0833333", "city": "Kara-Syut", "lon": "68.5"}, {"lat": "38.5741667", "city": "Karategin", "lon": "68.8305556"}, {"lat": "38.3869444", "city": "Karatosh", "lon": "69.2430556"}, {"lat": "38.4705556", "city": "Kara-Yagach", "lon": "68.4236111"}, {"lat": "37.8", "city": "Karcha", "lon": "68.7833333"}, {"lat": "37.7", "city": "(( Kargandzha ))", "lon": "69.8833333"}, {"lat": "37.7686111", "city": "Kargaron", "lon": "69.9525"}, {"lat": "37.8333333", "city": "(( Kariz-Poy\u00ebn ))", "lon": "69.7833333"}, {"lat": "37.3463889", "city": "Karl Marks", "lon": "68.1244444"}, {"lat": "38.5819444", "city": "Karsang", "lon": "69.3755556"}, {"lat": "38.0591667", "city": "Kartaypak", "lon": "69.6969444"}, {"lat": "38.1552778", "city": "Kasa-Bulak", "lon": "68.525"}, {"lat": "38.1552778", "city": "Kasa-Bulan", "lon": "68.525"}, {"lat": "38.6805556", "city": "Kasatarosh", "lon": "68.6666667"}, {"lat": "38.1727778", "city": "Kashkarokha", "lon": "69.0141667"}, {"lat": "38.3622222", "city": "Kasimabad", "lon": "68.6402778"}, {"lat": "38.8569444", "city": "Kaskon", "lon": "69.7730556"}, {"lat": "38.1552778", "city": "Kassa-Bulak", "lon": "68.525"}, {"lat": "37.95", "city": "Kataganshakh", "lon": "68.8333333"}, {"lat": "38.6302778", "city": "Katanbulok", "lon": "68.9519444"}, {"lat": "38.4833333", "city": "Katta-Buyni", "lon": "68.3"}, {"lat": "37.95", "city": "Kattaganshakh", "lon": "68.8333333"}, {"lat": "37.8666667", "city": "Kaun-Tyube", "lon": "68.7333333"}, {"lat": "37.85", "city": "Kaun-Tyube Pervoye", "lon": "68.6666667"}, {"lat": "37.9902778", "city": "Kavrakli", "lon": "69.3227778"}, {"lat": "37.9902778", "city": "Kavrakly", "lon": "69.3227778"}, {"lat": "38.6533333", "city": "Kavshduzon", "lon": "68.5366667"}, {"lat": "37.8191667", "city": "Kaykidasht", "lon": "69.5275"}, {"lat": "37.8733333", "city": "Kaynar", "lon": "69.6747222"}, {"lat": "37.8833333", "city": "(( Kaynar ))", "lon": "69.8"}, {"lat": "38.2077778", "city": "Kaynar", "lon": "68.8488889"}, {"lat": "37.7283333", "city": "Kayragach", "lon": "69.6747222"}, {"lat": "38.4705556", "city": "Kayragoch", "lon": "68.4236111"}, {"lat": "38.5455556", "city": "Kayrogochi-Bolo", "lon": "68.8963889"}, {"lat": "38.5569444", "city": "Kayrogoch", "lon": "68.8730556"}, {"lat": "38.4127778", "city": "Kayrubak", "lon": "69.78"}, {"lat": "37.4930556", "city": "Kaytmas", "lon": "68.57"}, {"lat": "37.2444444", "city": "Kazakh", "lon": "69.1622222"}, {"lat": "37.8077778", "city": "Kazakmazor", "lon": "69.1144444"}, {"lat": "38.5855556", "city": "Kazakon", "lon": "68.7313889"}, {"lat": "37.9819444", "city": "Kazanguzar", "lon": "69.0491667"}, {"lat": "39.0166667", "city": "Kaznan", "lon": "70.2666667"}, {"lat": "39.0166667", "city": "Kaznok", "lon": "70.2666667"}, {"lat": "38.5855556", "city": "Kazokon", "lon": "68.7313889"}, {"lat": "38.595", "city": "Kelitosh", "lon": "68.6772222"}, {"lat": "38.2925", "city": "Keriok", "lon": "69.2822222"}, {"lat": "38.2419444", "city": "Khadzhi-Bay", "lon": "68.5416667"}, {"lat": "38.815", "city": "Khakim\u00ed", "lon": "69.8002778"}, {"lat": "37.7666667", "city": "Khal'fa-Aryk", "lon": "68.6333333"}, {"lat": "37.7666667", "city": "Khalfa", "lon": "68.6333333"}, {"lat": "38.1333333", "city": "Khalila-Bulak", "lon": "68.6333333"}, {"lat": "38.5380556", "city": "Khalkadzhar", "lon": "68.8366667"}, {"lat": "38.1847222", "city": "Khalka\u00ebr", "lon": "69.8944444"}, {"lat": "37.1", "city": "Khalkayar", "lon": "69.2333333"}, {"lat": "38.7333333", "city": "Khamdora", "lon": "70.3333333"}, {"lat": "38.1172222", "city": "Khanabad", "lon": "69.8766667"}, {"lat": "38.5", "city": "(( Khanaka ))", "lon": "68.5333333"}, {"lat": "38.5333333", "city": "Khanka", "lon": "68.5666667"}, {"lat": "38.55", "city": "Kharakoni", "lon": "69.9666667"}, {"lat": "38.6755556", "city": "Kharangoni-Bola", "lon": "68.8641667"}, {"lat": "38.6755556", "city": "Kharangony", "lon": "68.8641667"}, {"lat": "38.55", "city": "Kharanoni", "lon": "69.9666667"}, {"lat": "37.8591667", "city": "Kharkaron", "lon": "70.0597222"}, {"lat": "38.2638889", "city": "Kharkharak", "lon": "68.6333333"}, {"lat": "38.6755556", "city": "Kharongon", "lon": "68.8641667"}, {"lat": "38.6755556", "city": "Kharrangoni Bolo", "lon": "68.8641667"}, {"lat": "38.8288889", "city": "Khasandara", "lon": "69.8372222"}, {"lat": "38.3813889", "city": "Khasani", "lon": "69.0966667"}, {"lat": "38.4816667", "city": "Khashdara", "lon": "69.4525"}, {"lat": "38.3813889", "city": "Khasony", "lon": "69.0966667"}, {"lat": "37.6333333", "city": "Khatcha", "lon": "69.45"}, {"lat": "37.6333333", "city": "(( Khatchi ))", "lon": "69.45"}, {"lat": "37.2733333", "city": "Khavaskor", "lon": "68.1655556"}, {"lat": "37.5419444", "city": "Khavzako", "lon": "69.3588889"}, {"lat": "37.4730556", "city": "Khayatinau", "lon": "69.3705556"}, {"lat": "38.1338889", "city": "Khay\u00ebtinav", "lon": "68.8936111"}, {"lat": "38.5175", "city": "Khaymakhmady", "lon": "69.1730556"}, {"lat": "38.5175", "city": "Khaymokhmady", "lon": "69.1730556"}, {"lat": "38.4986111", "city": "Khayoti Nav", "lon": "68.5869444"}, {"lat": "38.4422222", "city": "Khayrabad", "lon": "69.3205556"}, {"lat": "37.8591667", "city": "Khayrkoron", "lon": "70.0597222"}, {"lat": "38.4422222", "city": "Khayrobod", "lon": "69.3205556"}, {"lat": "38.6441667", "city": "Khayronak", "lon": "68.8505556"}, {"lat": "38.6136111", "city": "Khaytali", "lon": "68.9963889"}, {"lat": "37.9833333", "city": "Khazara", "lon": "68.5333333"}, {"lat": "38.2833333", "city": "Khazrati-Imom", "lon": "70.2833333"}, {"lat": "37.8913889", "city": "Khermonzhou", "lon": "70.1677778"}, {"lat": "38.6955556", "city": "Khilmagz", "lon": "69.3697222"}, {"lat": "37.9294444", "city": "Khiloli-Akhmar", "lon": "69.8025"}, {"lat": "38.5052778", "city": "Khirgatarash", "lon": "68.8547222"}, {"lat": "38.5052778", "city": "Khirgatarosh", "lon": "68.8547222"}, {"lat": "38.5902778", "city": "Khirmanak", "lon": "68.5586111"}, {"lat": "37.8913889", "city": "Khirmandzho", "lon": "70.1677778"}, {"lat": "37.8913889", "city": "Khirmanjoy", "lon": "70.1677778"}, {"lat": "37.7925", "city": "Khishka-Sangou", "lon": "69.9769444"}, {"lat": "38.4819444", "city": "Khisor", "lon": "68.5969444"}, {"lat": "37.3188889", "city": "Khlopkovyy", "lon": "68.7186111"}, {"lat": "37.7833333", "city": "Khnuk", "lon": "70.2166667"}, {"lat": "38.2419444", "city": "Khochabo\u00ed", "lon": "68.5416667"}, {"lat": "38.1461111", "city": "Khocharki", "lon": "69.8311111"}, {"lat": "38.5661111", "city": "Khochildiy\u00ebr", "lon": "68.4855556"}, {"lat": "37.9833333", "city": "(( Khodzha-Ali-Sha ))", "lon": "69.9666667"}, {"lat": "38.5294444", "city": "Khodzhabaykul-Bolo", "lon": "68.9894444"}, {"lat": "38.5241667", "city": "Khodzhabaykul", "lon": "68.9855556"}, {"lat": "37.7652778", "city": "Khodzhabog", "lon": "69.9391667"}, {"lat": "38.0116667", "city": "Khodzha-Bulak", "lon": "68.3119444"}, {"lat": "38.0116667", "city": "Khodzha-Bul'-Bulak", "lon": "68.3119444"}, {"lat": "38.0116667", "city": "Khodzhabul'bulon", "lon": "68.3119444"}, {"lat": "37.8355556", "city": "Khodzhagalton", "lon": "70.0680556"}, {"lat": "37.8483333", "city": "Khodzhaguzar", "lon": "69.2738889"}, {"lat": "37.6666667", "city": "(( Khodzha-Isan ))", "lon": "69.8166667"}, {"lat": "38.0111111", "city": "Khodzhakala", "lon": "68.8297222"}, {"lat": "38.5888889", "city": "Khodzha-Katagan", "lon": "68.9733333"}, {"lat": "38.2480556", "city": "Khodzhakhalil'", "lon": "69.8944444"}, {"lat": "37.2605556", "city": "Khodzha-Kochkari", "lon": "69.0775"}, {"lat": "38.6358333", "city": "Khodzhambio-Bolo", "lon": "68.7688889"}, {"lat": "38.5", "city": "Khodzha-Musa", "lon": "68.5833333"}, {"lat": "38.5", "city": "Khodzhamuso", "lon": "68.5833333"}, {"lat": "38.25", "city": "Khodzharki", "lon": "69.2833333"}, {"lat": "37.9705556", "city": "Khodzhasartez", "lon": "69.6736111"}, {"lat": "38.5072222", "city": "Khodzhasiddik", "lon": "68.6322222"}, {"lat": "38.5241667", "city": "Khodzhi-Baykul", "lon": "68.9855556"}, {"lat": "38.2419444", "city": "Khodzhiboi", "lon": "68.5416667"}, {"lat": "37.8355556", "city": "Khodzhigalton", "lon": "70.0680556"}, {"lat": "38.2955556", "city": "Khodzhigirdob", "lon": "68.4261111"}, {"lat": "38.5888889", "city": "Khodzhikatagan", "lon": "68.9733333"}, {"lat": "38.5666667", "city": "Khodzhimard", "lon": "69.3166667"}, {"lat": "37.7652778", "city": "Khojabog", "lon": "69.9391667"}, {"lat": "38.0116667", "city": "Khojabulbulon", "lon": "68.3119444"}, {"lat": "37.8355556", "city": "Khojagalton", "lon": "70.0680556"}, {"lat": "37.8483333", "city": "Khojaguzar", "lon": "69.2738889"}, {"lat": "38.2480556", "city": "Khojakhalil", "lon": "69.8944444"}, {"lat": "37.2605556", "city": "Khojaquchqor", "lon": "69.0775"}, {"lat": "37.9705556", "city": "Khojasartez", "lon": "69.6736111"}, {"lat": "38.2955556", "city": "Khojigirdob", "lon": "68.4261111"}, {"lat": "38.5661111", "city": "Khojildiyor", "lon": "68.4855556"}, {"lat": "37.4166667", "city": "Khokak", "lon": "68.1666667"}, {"lat": "38.6255556", "city": "Khokali", "lon": "68.9166667"}, {"lat": "38.1172222", "city": "Khonabad", "lon": "69.8766667"}, {"lat": "38.2886111", "city": "Khonakokh", "lon": "69.8661111"}, {"lat": "38.2886111", "city": "Khonako", "lon": "69.8661111"}, {"lat": "38.0738889", "city": "Khonatarosh", "lon": "70.0180556"}, {"lat": "38.1172222", "city": "Khonobad", "lon": "69.8766667"}, {"lat": "38.6288889", "city": "Khordarai", "lon": "69.1241667"}, {"lat": "37.1047222", "city": "Khoshadi", "lon": "68.0947222"}, {"lat": "37.1047222", "city": "Khoshady", "lon": "68.0947222"}, {"lat": "38.4816667", "city": "Khoshdara", "lon": "69.4525"}, {"lat": "38.6666667", "city": "Khosh-Ob", "lon": "69.9166667"}, {"lat": "38.3411111", "city": "Khovaling", "lon": "69.9794444"}, {"lat": "38.2388889", "city": "Khrazmoni", "lon": "70.0841667"}, {"lat": "38.2388889", "city": "Khrazmony", "lon": "70.0841667"}, {"lat": "37.9647222", "city": "Khudayshan", "lon": "69.7688889"}, {"lat": "38.45", "city": "Khudzhay-Nakhsheron", "lon": "68.2"}, {"lat": "38.45", "city": "Khudzhay-Narsheron", "lon": "68.2"}, {"lat": "38.9038889", "city": "Khulozi", "lon": "69.8675"}, {"lat": "38.9038889", "city": "Khulozy", "lon": "69.8675"}, {"lat": "38.8975", "city": "Khumdon", "lon": "70.1361111"}, {"lat": "37.8772222", "city": "Khundukul'", "lon": "69.8861111"}, {"lat": "38.2666667", "city": "Khuraz", "lon": "68.7166667"}, {"lat": "38.1302778", "city": "Khusenshug", "lon": "69.4575"}, {"lat": "38.1302778", "city": "Khuseynshug", "lon": "69.4575"}, {"lat": "38.7713889", "city": "Khushon", "lon": "69.2719444"}, {"lat": "38.4666667", "city": "Khuvan", "lon": "69.3502778"}, {"lat": "38.9833333", "city": "Khuyum", "lon": "70.3166667"}, {"lat": "37.9961111", "city": "Khuzhalksho", "lon": "69.9863889"}, {"lat": "38.5902778", "city": "Khyrmonak", "lon": "68.5586111"}, {"lat": "37.6997222", "city": "Kian-Chashma", "lon": "69.7169444"}, {"lat": "37.6997222", "city": "Kianchashma-Poy\u00ebn", "lon": "69.7169444"}, {"lat": "38.3738889", "city": "Kibil", "lon": "69.2847222"}, {"lat": "38.6208333", "city": "Kiblai", "lon": "68.8333333"}, {"lat": "38.6208333", "city": "Kiblay", "lon": "68.8333333"}, {"lat": "38.0269444", "city": "Kibloy", "lon": "69.5980556"}, {"lat": "38.6208333", "city": "Kiblyay", "lon": "68.8333333"}, {"lat": "38.125", "city": "Kiik-Mazar", "lon": "68.6897222"}, {"lat": "38.125", "city": "Kiikmazor", "lon": "68.6897222"}, {"lat": "38.5866667", "city": "Kipchok", "lon": "69.0308333"}, {"lat": "38.0302778", "city": "Kipkak", "lon": "69.9316667"}, {"lat": "37.215", "city": "Kirgiz", "lon": "69.1530556"}, {"lat": "38.1883333", "city": "Kirgochak", "lon": "69.0277778"}, {"lat": "38.1166667", "city": "Kirma Bolo", "lon": "69.6833333"}, {"lat": "38.4027778", "city": "Kirma", "lon": "68.825"}, {"lat": "37.2383333", "city": "Kirovabad", "lon": "69.0969444"}, {"lat": "37.4288889", "city": "Kirov", "lon": "68.5666667"}, {"lat": "37.8166667", "city": "Kirovskiy", "lon": "68.85"}, {"lat": "37.2383333", "city": "Kirowabad", "lon": "69.0969444"}, {"lat": "38.4213889", "city": "Kirpichnyy", "lon": "68.7547222"}, {"lat": "38.6833333", "city": "Kisatorosh", "lon": "68.6833333"}, {"lat": "38.4188889", "city": "Kishlak-Kzyl", "lon": "68.5747222"}, {"lat": "37.9333333", "city": "(( Kishtibolo ))", "lon": "70.1333333"}, {"lat": "37.9283333", "city": "Kishti", "lon": "70.1691667"}, {"lat": "37.9283333", "city": "Kishti-Poy\u00ebn", "lon": "70.1691667"}, {"lat": "37.9283333", "city": "Kisht-Poyon", "lon": "70.1691667"}, {"lat": "37.7727778", "city": "Kizilbulok", "lon": "69.1616667"}, {"lat": "38.45", "city": "Kizil", "lon": "68.9166667"}, {"lat": "37.2788889", "city": "Kizilkuch", "lon": "68.1963889"}, {"lat": "38.4188889", "city": "Kizilqishloq", "lon": "68.5747222"}, {"lat": "38.0816667", "city": "Kizilsoy", "lon": "69.4491667"}, {"lat": "38.4666667", "city": "Kizyl-Bulak", "lon": "68.4"}, {"lat": "37.1952778", "city": "Kizyl-Kala", "lon": "68.5786111"}, {"lat": "38.0458333", "city": "Kizyl-Mazar-Bolo", "lon": "69.5880556"}, {"lat": "38.0458333", "city": "Kizyl-Mazar", "lon": "69.5880556"}, {"lat": "37.7075", "city": "Kochkarbulok", "lon": "69.1588889"}, {"lat": "37.3044444", "city": "Kochkiya", "lon": "69.1241667"}, {"lat": "37.6588889", "city": "Kodara", "lon": "69.5569444"}, {"lat": "37.7166667", "city": "(( Kodara ))", "lon": "69.8833333"}, {"lat": "38.5530556", "city": "Kofarnihon", "lon": "69.0197222"}, {"lat": "38.5530556", "city": "Kofarnikhon", "lon": "69.0197222"}, {"lat": "38.5983333", "city": "Kofarniqon", "lon": "69.1111111"}, {"lat": "38.2833333", "city": "Koka-Bulak", "lon": "68.5833333"}, {"lat": "38.7555556", "city": "Kokbulak", "lon": "69.6775"}, {"lat": "37.805", "city": "Kokliksoy", "lon": "69.0402778"}, {"lat": "37.805", "city": "Koklisoy", "lon": "69.0402778"}, {"lat": "38.4422222", "city": "Koktasch", "lon": "68.7769444"}, {"lat": "38.4422222", "city": "Koktash", "lon": "68.7769444"}, {"lat": "37.9666667", "city": "(( Kol-Bulak ))", "lon": "69.15"}, {"lat": "38.3127778", "city": "Kole-Bulak", "lon": "68.3405556"}, {"lat": "37.5894444", "city": "Kolkhozabad", "lon": "68.6608333"}, {"lat": "37.5894444", "city": "Kolkhozobod", "lon": "68.6608333"}, {"lat": "38.2930556", "city": "Kolusuf'yan", "lon": "69.4063889"}, {"lat": "38.5491667", "city": "Komangoran", "lon": "68.9702778"}, {"lat": "38.5036111", "city": "Kombinat Slepykh", "lon": "68.5763889"}, {"lat": "37.4986111", "city": "Kommuna", "lon": "69.425"}, {"lat": "37.4636111", "city": "Kommunizm", "lon": "68.1630556"}, {"lat": "37.7811111", "city": "Komsomolabad", "lon": "69.6063889"}, {"lat": "38.8669444", "city": "Komsomolbad", "lon": "69.9622222"}, {"lat": "37.3969444", "city": "Komsomol", "lon": "68.6455556"}, {"lat": "37.7811111", "city": "Komsomolobod", "lon": "69.6063889"}, {"lat": "38.4677778", "city": "Konchi", "lon": "68.5808333"}, {"lat": "38.4677778", "city": "Konchy", "lon": "68.5808333"}, {"lat": "38.5383333", "city": "Konstitutsiya", "lon": "68.7188889"}, {"lat": "37.7686111", "city": "Korgaron", "lon": "69.9525"}, {"lat": "37.2319444", "city": "Korolevskaya Dacha", "lon": "68.3886111"}, {"lat": "38.1552778", "city": "Kosabulok", "lon": "68.525"}, {"lat": "38.1552778", "city": "Kosabuloq", "lon": "68.525"}, {"lat": "38.6805556", "city": "Kosataroshi Bolo", "lon": "68.6666667"}, {"lat": "38.4333333", "city": "Kosatarosh", "lon": "69.5"}, {"lat": "37.3458333", "city": "Koshachinar", "lon": "68.1869444"}, {"lat": "37.3458333", "city": "Koshachinor", "lon": "68.1869444"}, {"lat": "38.0333333", "city": "Kosh-Bulak", "lon": "68.5166667"}, {"lat": "37.9861111", "city": "Koshkiya", "lon": "69.6422222"}, {"lat": "38.3622222", "city": "Kosimobod", "lon": "68.6402778"}, {"lat": "38.5333333", "city": "Kosychubak", "lon": "70.0333333"}, {"lat": "38.575", "city": "Kotorak", "lon": "70.3227778"}, {"lat": "38.5333333", "city": "Kozychubak", "lon": "70.0333333"}, {"lat": "38.5333333", "city": "Kozychuzak", "lon": "70.0333333"}, {"lat": "37.3480556", "city": "Krasnoostrovskiy", "lon": "68.685"}, {"lat": "38.4166667", "city": "Krchi-Kul'", "lon": "68.6"}, {"lat": "37.7666667", "city": "(( Krichol ))", "lon": "70.0666667"}, {"lat": "38.3166667", "city": "Kshindara Poy\u00ebn", "lon": "70.0666667"}, {"lat": "38.4147222", "city": "Kuchkan-Bulak", "lon": "68.2797222"}, {"lat": "38.1422222", "city": "Kuchkan", "lon": "69.5058333"}, {"lat": "38.1833333", "city": "Kuduk", "lon": "68.6166667"}, {"lat": "37.3080556", "city": "Kudukly", "lon": "69.1108333"}, {"lat": "37.9102778", "city": "Kuibul'yen", "lon": "69.3536111"}, {"lat": "37.95", "city": "Kuibyshevabad", "lon": "68.8166667"}, {"lat": "37.3111111", "city": "Kuitemez", "lon": "69.0619444"}, {"lat": "38.7555556", "city": "Kukabuloq", "lon": "69.6775"}, {"lat": "38.4413889", "city": "Kukhnaboy", "lon": "68.5988889"}, {"lat": "38.6333333", "city": "Kukhon", "lon": "68.5191667"}, {"lat": "38.2727778", "city": "Kulabad", "lon": "68.9927778"}, {"lat": "38.6858333", "city": "Kul'abad", "lon": "69.5830556"}, {"lat": "37.9091667", "city": "Kulab", "lon": "69.7819444"}, {"lat": "37.9666667", "city": "(( Kul'-Ayud-Bek ))", "lon": "69.9833333"}, {"lat": "37.8816667", "city": "Kulbek", "lon": "69.5702778"}, {"lat": "38.4", "city": "Kul'-Bulak", "lon": "68.7666667"}, {"lat": "38.3127778", "city": "Kul'bulok", "lon": "68.3405556"}, {"lat": "38.3127778", "city": "Kulbuloq", "lon": "68.3405556"}, {"lat": "38.1508333", "city": "Kul'chashma", "lon": "70.0216667"}, {"lat": "38.1461111", "city": "Kuldara", "lon": "69.8311111"}, {"lat": "37.2811111", "city": "Kul'deman", "lon": "69.0666667"}, {"lat": "37.2811111", "city": "Kul'diman", "lon": "69.0666667"}, {"lat": "37.9763889", "city": "Kul'doman", "lon": "69.8891667"}, {"lat": "38.4166667", "city": "Kulegtel'", "lon": "69.8"}, {"lat": "38.6572222", "city": "Kulibedak", "lon": "68.7244444"}, {"lat": "38.2930556", "city": "Kulisufiy\u00ebn", "lon": "69.4063889"}, {"lat": "37.9677778", "city": "Kul'", "lon": "69.9869444"}, {"lat": "38.6219444", "city": "Kul", "lon": "69.2208333"}, {"lat": "38.6547222", "city": "Kul'makmidi", "lon": "68.8336111"}, {"lat": "38.5141667", "city": "Kulmunda", "lon": "68.5852778"}, {"lat": "37.9091667", "city": "Kulob", "lon": "69.7819444"}, {"lat": "38.2727778", "city": "Kulobod", "lon": "68.9927778"}, {"lat": "37.9666667", "city": "(( Kul'-Odzhar-Bek ))", "lon": "69.9833333"}, {"lat": "38.6508333", "city": "Kul'pista", "lon": "68.8052778"}, {"lat": "38.1333333", "city": "Kululu", "lon": "70.05"}, {"lat": "37.9091667", "city": "Kulyab", "lon": "69.7819444"}, {"lat": "37.4127778", "city": "Kumsangir", "lon": "68.6844444"}, {"lat": "37.3419444", "city": "Kumsay", "lon": "69.0080556"}, {"lat": "37.3419444", "city": "Kumsoy", "lon": "69.0080556"}, {"lat": "38.45", "city": "Kunchi", "lon": "68.5666667"}, {"lat": "38.2872222", "city": "Kundashar", "lon": "70.0713889"}, {"lat": "38.2872222", "city": "Kundashor", "lon": "70.0713889"}, {"lat": "38.25", "city": "Kungara", "lon": "70.2666667"}, {"lat": "38.25", "city": "Kungora", "lon": "70.2666667"}, {"lat": "37.7666667", "city": "(( Kun-Tyube ))", "lon": "69.6"}, {"lat": "37.8980556", "city": "Kunyashaar", "lon": "69.7644444"}, {"lat": "38.5811111", "city": "Kuprukboshi", "lon": "69.0755556"}, {"lat": "38.5811111", "city": "Kuprukboshy", "lon": "69.0755556"}, {"lat": "38.8", "city": "Kuranch", "lon": "70.1833333"}, {"lat": "38.4422222", "city": "Kurban-Kusa", "lon": "68.1575"}, {"lat": "37.7777778", "city": "Kurbanshaid", "lon": "69.5577778"}, {"lat": "37.7777778", "city": "Kurbanshait", "lon": "69.5577778"}, {"lat": "37.7777778", "city": "Kurbansheit", "lon": "69.5577778"}, {"lat": "38.0316667", "city": "Kurbantaybulok-Poy\u00ebn", "lon": "69.6563889"}, {"lat": "38.4422222", "city": "Kurbonkusa", "lon": "68.1575"}, {"lat": "38.3", "city": "Kurdyk-Say", "lon": "68.8333333"}, {"lat": "37.185", "city": "Kurdzhalol", "lon": "68.185"}, {"lat": "37.8363889", "city": "Kurgan-Tyube", "lon": "68.7802778"}, {"lat": "38.3", "city": "Kur-Kuduk", "lon": "68.75"}, {"lat": "37.2488889", "city": "Kurot", "lon": "68.1683333"}, {"lat": "38.6413889", "city": "Kurpai", "lon": "68.8619444"}, {"lat": "38.6413889", "city": "Kurpay", "lon": "68.8619444"}, {"lat": "37.7502778", "city": "Kurzhumtosh", "lon": "69.7627778"}, {"lat": "38.3166667", "city": "Kus-Abad", "lon": "68.8666667"}, {"lat": "37.3458333", "city": "Kushachinor", "lon": "68.1869444"}, {"lat": "37.3458333", "city": "Kushaginor", "lon": "68.1869444"}, {"lat": "38.1422222", "city": "Kushkak", "lon": "69.5058333"}, {"lat": "37.9861111", "city": "Kushkiya", "lon": "69.6422222"}, {"lat": "38.5338889", "city": "Kushtepa Pervaya", "lon": "68.815"}, {"lat": "38.5338889", "city": "Kush-Tepa-Uzb", "lon": "68.815"}, {"lat": "37.7819444", "city": "Kushteppa", "lon": "69.6063889"}, {"lat": "37.8666667", "city": "Kuybishevskiy", "lon": "68.7333333"}, {"lat": "37.95", "city": "Kuybishevsk", "lon": "68.8166667"}, {"lat": "37.9102778", "city": "Kuybul'on", "lon": "69.3536111"}, {"lat": "37.9102778", "city": "Kuybul'yen", "lon": "69.3536111"}, {"lat": "37.95", "city": "Kuybyshevabad", "lon": "68.8166667"}, {"lat": "37.8666667", "city": "Kuybyshevskiy", "lon": "68.7333333"}, {"lat": "37.8666667", "city": "Kuybyshevsk", "lon": "68.7333333"}, {"lat": "37.9861111", "city": "Kuyikushkiya", "lon": "69.6422222"}, {"lat": "38.4044444", "city": "Kuymot", "lon": "69.1066667"}, {"lat": "37.1972222", "city": "Kuyu-Burka", "lon": "69.1433333"}, {"lat": "37.3111111", "city": "Kuyu-Temez", "lon": "69.0619444"}, {"lat": "37.3111111", "city": "Kuyutemiz", "lon": "69.0619444"}, {"lat": "38.4986111", "city": "Kuzibacha", "lon": "68.1347222"}, {"lat": "37.4008333", "city": "Kyrkuduk", "lon": "69.2027778"}, {"lat": "38.4027778", "city": "Kyrma", "lon": "68.825"}, {"lat": "37.7833333", "city": "(( Kyshkasangou ))", "lon": "69.9666667"}, {"lat": "37.9283333", "city": "Kyshtipoy\u00ebn", "lon": "70.1691667"}, {"lat": "38.0458333", "city": "Kyzul-Mazar-Bolo", "lon": "69.5880556"}, {"lat": "37.1916667", "city": "Kyzyl-Askar", "lon": "68.15"}, {"lat": "37.7727778", "city": "Kyzylbulok", "lon": "69.1616667"}, {"lat": "38.0672222", "city": "Kyzylguzar", "lon": "69.4069444"}, {"lat": "37.9", "city": "Kyzylkala", "lon": "68.65"}, {"lat": "38.4188889", "city": "Kyzylkishlak", "lon": "68.5747222"}, {"lat": "37.2788889", "city": "Kyzyl-Kuch", "lon": "68.1963889"}, {"lat": "38.0458333", "city": "Kyzyl-Mazar-Bolo", "lon": "69.5880556"}, {"lat": "38.0458333", "city": "Kyzyl-Mazar", "lon": "69.5880556"}, {"lat": "37.4358333", "city": "Kyzylnishon", "lon": "68.6386111"}, {"lat": "38.5452778", "city": "Kyzyl Nishon", "lon": "68.8861111"}, {"lat": "38.0816667", "city": "Kyzylsoy", "lon": "69.4491667"}, {"lat": "37.5391667", "city": "Kyzylsu", "lon": "69.3388889"}, {"lat": "38.3833333", "city": "Kyzyl-Tabobu", "lon": "68.55"}, {"lat": "37.3863889", "city": "Kyzyl-Tadzhikistan", "lon": "68.6588889"}, {"lat": "37.9", "city": "Kzyl-Kala", "lon": "68.65"}, {"lat": "38.0458333", "city": "Kzyl-Mazar-Bolo", "lon": "69.5880556"}, {"lat": "38.0458333", "city": "Kzyl-Mazar", "lon": "69.5880556"}, {"lat": "38.5236111", "city": "Labital", "lon": "68.6925"}, {"lat": "37.8958333", "city": "Lagman", "lon": "69.7475"}, {"lat": "38.5094444", "city": "Lakai-Begi", "lon": "69.0816667"}, {"lat": "38.5094444", "city": "Lakai-Bezi", "lon": "69.0816667"}, {"lat": "38.5094444", "city": "Lakaybegi", "lon": "69.0816667"}, {"lat": "38.35", "city": "Lakhat-Bul", "lon": "68.3666667"}, {"lat": "38.2947222", "city": "Lakhiti", "lon": "69.8947222"}, {"lat": "38.2947222", "city": "Lakhuti", "lon": "69.8947222"}, {"lat": "37.2902778", "city": "Laklakuya", "lon": "68.1863889"}, {"lat": "37.9816667", "city": "Langar-Kalon", "lon": "70.0072222"}, {"lat": "37.9816667", "city": "Langar", "lon": "70.0072222"}, {"lat": "38.5505556", "city": "Langar-Poy\u00ebn", "lon": "68.5675"}, {"lat": "38.5094444", "city": "Laqaybeg\u00ed", "lon": "69.0816667"}, {"lat": "37.8152778", "city": "Larkhobi", "lon": "69.6755556"}, {"lat": "38.6186111", "city": "Latokhorak", "lon": "68.5666667"}, {"lat": "38.4061111", "city": "Lattaband", "lon": "68.5380556"}, {"lat": "38.4061111", "city": "Lattaban", "lon": "68.5380556"}, {"lat": "38.6186111", "city": "Lattakhorak", "lon": "68.5666667"}, {"lat": "38.45", "city": "Layka", "lon": "68.65"}, {"lat": "38.8430556", "city": "Layron", "lon": "69.8219444"}, {"lat": "37.4722222", "city": "Leninabad", "lon": "68.5258333"}, {"lat": "37.1491667", "city": "Lenin\u00e2\u0080\u009dyel", "lon": "68.1236111"}, {"lat": "38.1077778", "city": "Leningrad", "lon": "70.0308333"}, {"lat": "38.1077778", "city": "Leningradskiy", "lon": "70.0308333"}, {"lat": "38.4422222", "city": "Lenin", "lon": "68.7769444"}, {"lat": "38.4422222", "city": "Leninskiy", "lon": "68.7769444"}, {"lat": "37.1491667", "city": "Leninyuli", "lon": "68.1236111"}, {"lat": "38.0108333", "city": "Lenin Yuly", "lon": "68.8347222"}, {"lat": "38.3711111", "city": "Leprozoriy", "lon": "68.515"}, {"lat": "38.6280556", "city": "Lidzhak", "lon": "69.14"}, {"lat": "38.6280556", "city": "Lijak", "lon": "69.14"}, {"lat": "37.8697222", "city": "Lilykutal", "lon": "69.7555556"}, {"lat": "38.3788889", "city": "Lohur", "lon": "68.7041667"}, {"lat": "38.0327778", "city": "Lokhur", "lon": "69.1997222"}, {"lat": "38.5958333", "city": "Lolag\u00ed", "lon": "68.5497222"}, {"lat": "38.5713889", "city": "Lolazor", "lon": "68.9894444"}, {"lat": "37.4866667", "city": "Lomanov", "lon": "69.3772222"}, {"lat": "38.6741667", "city": "Loshkharf", "lon": "69.3277778"}, {"lat": "37.8202778", "city": "Louka", "lon": "69.7877778"}, {"lat": "38.4", "city": "Loyeva", "lon": "70.05"}, {"lat": "38.6055556", "city": "Loyob", "lon": "68.8775"}, {"lat": "37.0413889", "city": "Lublikor", "lon": "68.0825"}, {"lat": "38.7052778", "city": "Luchob", "lon": "68.6838889"}, {"lat": "37.8697222", "city": "Lulikutal", "lon": "69.7555556"}, {"lat": "38.3555556", "city": "Lushiy\u00ebn", "lon": "69.9483333"}, {"lat": "37.8958333", "city": "Lyagman", "lon": "69.7475"}, {"lat": "37.8697222", "city": "Lyalikutal", "lon": "69.7555556"}, {"lat": "38.1333333", "city": "Lyangar-Dara", "lon": "70.2166667"}, {"lat": "37.9816667", "city": "Lyangar-Kolon", "lon": "70.0072222"}, {"lat": "38.1333333", "city": "Lyangar", "lon": "70.2166667"}, {"lat": "37.8152778", "city": "Lyarkhobi", "lon": "69.6755556"}, {"lat": "38.6186111", "city": "Lyatakhorak", "lon": "68.5666667"}, {"lat": "38.3833333", "city": "Lyatoban", "lon": "68.5333333"}, {"lat": "38.3788889", "city": "Lyaur", "lon": "68.7041667"}, {"lat": "37.2902778", "city": "Lyaylyag-Uya", "lon": "68.1863889"}, {"lat": "37.2902778", "city": "Lyaylyakuya", "lon": "68.1863889"}, {"lat": "37.0413889", "city": "Lyublikar", "lon": "68.0825"}, {"lat": "38.7052778", "city": "Lyuch'-Ob", "lon": "68.6838889"}, {"lat": "38.5761111", "city": "Machiton", "lon": "68.9705556"}, {"lat": "37.45", "city": "Madaniat", "lon": "68.5333333"}, {"lat": "37.45", "city": "Madaniyat", "lon": "68.6527778"}, {"lat": "38.6575", "city": "Magmurud", "lon": "68.9480556"}, {"lat": "38.6875", "city": "Magov", "lon": "69.1063889"}, {"lat": "38.5038889", "city": "Mahmadsho", "lon": "68.7013889"}, {"lat": "38.5038889", "city": "Makhmadshoi", "lon": "68.7013889"}, {"lat": "38.5038889", "city": "Makhmadsho", "lon": "68.7013889"}, {"lat": "38.4422222", "city": "Makhrazi", "lon": "69.2797222"}, {"lat": "38.5038889", "city": "Mak-Mashau", "lon": "68.7013889"}, {"lat": "38.2666667", "city": "Maksev", "lon": "69.1666667"}, {"lat": "37.4222222", "city": "Maksim Gor'kiy", "lon": "68.5677778"}, {"lat": "37.4838889", "city": "Maksim Gorkiy", "lon": "68.6236111"}, {"lat": "38.2666667", "city": "Mansev", "lon": "69.1666667"}, {"lat": "37.8216667", "city": "Marazteppa", "lon": "69.5997222"}, {"lat": "37.6638889", "city": "Margob", "lon": "69.5975"}, {"lat": "37.4511111", "city": "Marguzar", "lon": "69.3563889"}, {"lat": "38.625", "city": "Marifati", "lon": "68.69"}, {"lat": "37.6913889", "city": "Marish-Karon", "lon": "69.8513889"}, {"lat": "38.6575", "city": "Marmurud", "lon": "68.9480556"}, {"lat": "37.8333333", "city": "(( Maroz ))", "lon": "69.5833333"}, {"lat": "38.1572222", "city": "Martaki", "lon": "69.9938889"}, {"lat": "37.7402778", "city": "Mashal", "lon": "69.0530556"}, {"lat": "38.3730556", "city": "Maulak", "lon": "69.3980556"}, {"lat": "38.5727778", "city": "Mavlondzhari-Bolo", "lon": "68.5536111"}, {"lat": "38.5630556", "city": "Mavlondzhar", "lon": "68.5502778"}, {"lat": "37.5266667", "city": "Mayda-Patta", "lon": "69.3205556"}, {"lat": "37.2233333", "city": "Maydon Komsomol", "lon": "68.0361111"}, {"lat": "37.8", "city": "(( Maydon ))", "lon": "69.9333333"}, {"lat": "38.6930556", "city": "Maydon", "lon": "69.7408333"}, {"lat": "38.4763889", "city": "Mazaryuru", "lon": "70.0791667"}, {"lat": "38.4763889", "city": "Mazori", "lon": "70.0791667"}, {"lat": "38.4763889", "city": "Mazorsultan", "lon": "70.0791667"}, {"lat": "38.4763889", "city": "Mazorsulton", "lon": "70.0791667"}, {"lat": "38.4763889", "city": "Mazory", "lon": "70.0791667"}, {"lat": "38.5761111", "city": "Mecheton", "lon": "68.9705556"}, {"lat": "38.0872222", "city": "Mehnat", "lon": "68.6886111"}, {"lat": "37.7266667", "city": "Mehnatobad", "lon": "69.5458333"}, {"lat": "38.1705556", "city": "Mehnatobod", "lon": "68.9566667"}, {"lat": "37.7266667", "city": "Mekhnatabad", "lon": "69.5458333"}, {"lat": "38.0872222", "city": "Mekhnat", "lon": "68.6886111"}, {"lat": "37.3591667", "city": "Mekhnat-Rokhat", "lon": "68.7247222"}, {"lat": "38.6197222", "city": "Mekhtari", "lon": "68.8991667"}, {"lat": "38.6055556", "city": "Mekhtari Novyy", "lon": "68.9086111"}, {"lat": "37.6133333", "city": "Metintugay", "lon": "69.5605556"}, {"lat": "37.6133333", "city": "Metintughay", "lon": "69.5605556"}, {"lat": "38.4666667", "city": "Meynet-Kash", "lon": "68.25"}, {"lat": "37.4166667", "city": "Mikoyanabad", "lon": "68.2"}, {"lat": "38.4980556", "city": "Mikoyan", "lon": "68.8397222"}, {"lat": "39.1166667", "city": "Mimichi", "lon": "70.6666667"}, {"lat": "38.2997222", "city": "Mingachar", "lon": "68.5216667"}, {"lat": "38.2666667", "city": "Ming-Botman", "lon": "68.4166667"}, {"lat": "38.2997222", "city": "Mingichar", "lon": "68.5216667"}, {"lat": "38.4666667", "city": "Ming-Tut", "lon": "68.2166667"}, {"lat": "37.9666667", "city": "(( Min'-Tut ))", "lon": "69.7666667"}, {"lat": "37.5922222", "city": "Mirakhur-Kishlak", "lon": "69.3686111"}, {"lat": "38.2686111", "city": "Mirzakulabad", "lon": "68.815"}, {"lat": "38.5605556", "city": "Mirzochul'", "lon": "68.6736111"}, {"lat": "38.2686111", "city": "Mirzoqulobod", "lon": "68.815"}, {"lat": "37.6913889", "city": "Mishkoron", "lon": "69.8513889"}, {"lat": "38.6666667", "city": "Misninobad", "lon": "69.5333333"}, {"lat": "37.2833333", "city": "Misyr-Abad", "lon": "68.1166667"}, {"lat": "37.8", "city": "Mitin-Tugay", "lon": "69.6069444"}, {"lat": "38.8186111", "city": "Miy\u00ebnadara", "lon": "69.9252778"}, {"lat": "38.8186111", "city": "Miyondara", "lon": "69.9252778"}, {"lat": "37.9630556", "city": "Mogol", "lon": "69.7563889"}, {"lat": "37.2875", "city": "Mogul", "lon": "69.1391667"}, {"lat": "38.5691667", "city": "Moinkadzh", "lon": "68.9355556"}, {"lat": "38.5611111", "city": "Moinkadzh-Poy\u00ebn", "lon": "68.9525"}, {"lat": "38.5691667", "city": "Moinkaj", "lon": "68.9355556"}, {"lat": "38.5333333", "city": "Moloshady", "lon": "68.35"}, {"lat": "37.3486111", "city": "Molotovabad", "lon": "68.6733333"}, {"lat": "38.1513889", "city": "Momandien", "lon": "70.0672222"}, {"lat": "38.1513889", "city": "Momandiyen", "lon": "70.0672222"}, {"lat": "37.8947222", "city": "Momirak", "lon": "69.9219444"}, {"lat": "38.5541667", "city": "Morteppa", "lon": "68.5911111"}, {"lat": "37.6127778", "city": "Moskovskiy", "lon": "69.7061111"}, {"lat": "37.6566667", "city": "Moskva", "lon": "69.6291667"}, {"lat": "38.5611111", "city": "Mounkach Bolo", "lon": "68.9525"}, {"lat": "38.8602778", "city": "Mudzhikharf Mayda", "lon": "69.8758333"}, {"lat": "38.8602778", "city": "Mudzhikharf", "lon": "69.8758333"}, {"lat": "38.8602778", "city": "Mudzhikharv", "lon": "69.8758333"}, {"lat": "38.6552778", "city": "Muguloni-Poy\u00ebn", "lon": "68.7033333"}, {"lat": "38.5333333", "city": "Mugulon", "lon": "68.8652778"}, {"lat": "38.6552778", "city": "Mugul-Payen", "lon": "68.7033333"}, {"lat": "37.5208333", "city": "Muhojirobod", "lon": "69.4547222"}, {"lat": "38.8602778", "city": "Mujikharf", "lon": "69.8758333"}, {"lat": "37.5208333", "city": "Mukhodzhirabad", "lon": "69.4547222"}, {"lat": "38.5291667", "city": "Mulla-Dobat", "lon": "68.9380556"}, {"lat": "37.8666667", "city": "(( Mulla-Kazagi ))", "lon": "69.8166667"}, {"lat": "37.9586111", "city": "Mullasultan", "lon": "69.8061111"}, {"lat": "38.5291667", "city": "Mullodavot", "lon": "68.9380556"}, {"lat": "37.9586111", "city": "Mullo-Sultani", "lon": "69.8061111"}, {"lat": "37.9586111", "city": "Mullosulton", "lon": "69.8061111"}, {"lat": "38.1077778", "city": "Muminabad", "lon": "70.0308333"}, {"lat": "37.8947222", "city": "Mumirak", "lon": "69.9219444"}, {"lat": "38.1077778", "city": "Mumynabad", "lon": "70.0308333"}, {"lat": "37.9702778", "city": "Munda", "lon": "69.3941667"}, {"lat": "37.9644444", "city": "Mundok-Belo", "lon": "69.3941667"}, {"lat": "37.9702778", "city": "Mundok-Poy\u00ebn", "lon": "69.3941667"}, {"lat": "37.9702778", "city": "Mundon", "lon": "69.3941667"}, {"lat": "37.3511111", "city": "Murateppa", "lon": "67.9702778"}, {"lat": "38.6280556", "city": "Murshikor", "lon": "68.7469444"}, {"lat": "38.3719444", "city": "Murutak", "lon": "68.5041667"}, {"lat": "38.2686111", "city": "Murza-Gul", "lon": "68.815"}, {"lat": "38.6666667", "city": "Muskinabad", "lon": "69.5333333"}, {"lat": "38.5611111", "city": "Muykach-Bolo", "lon": "68.9525"}, {"lat": "38.8825", "city": "Nadirabad", "lon": "70.1255556"}, {"lat": "38.5561111", "city": "Nadzh", "lon": "68.5019444"}, {"lat": "37.5738889", "city": "Namozdzhoy", "lon": "69.3783333"}, {"lat": "37.4277778", "city": "Namuna", "lon": "68.5152778"}, {"lat": "37.9833333", "city": "Nandzheymas", "lon": "69.7333333"}, {"lat": "38.2952778", "city": "Naryn", "lon": "68.935"}, {"lat": "38.5261111", "city": "Nasosnyy", "lon": "68.71"}, {"lat": "38.2577778", "city": "Naubad", "lon": "68.3438889"}, {"lat": "37.8408333", "city": "Navaabad", "lon": "70.0372222"}, {"lat": "39.0077778", "city": "Navabad", "lon": "70.1555556"}, {"lat": "38.5877778", "city": "Navabadskiy", "lon": "68.7386111"}, {"lat": "38.2577778", "city": "Navbod", "lon": "68.3438889"}, {"lat": "38.4361111", "city": "Navdekh", "lon": "69.3319444"}, {"lat": "38.0094444", "city": "Navdi", "lon": "68.8086111"}, {"lat": "38.9833333", "city": "Navdonek", "lon": "70.2166667"}, {"lat": "38.0094444", "city": "Navdy", "lon": "68.8086111"}, {"lat": "38.2869444", "city": "Navkoram", "lon": "69.0411111"}, {"lat": "37.6358333", "city": "Navobodi Bolo", "lon": "69.3808333"}, {"lat": "37.5019444", "city": "Navobod", "lon": "68.8891667"}, {"lat": "38.6883333", "city": "Navruzbulok", "lon": "68.6469444"}, {"lat": "38.6883333", "city": "Navruzbuloq", "lon": "68.6469444"}, {"lat": "37.8833333", "city": "Nayza-Bulak", "lon": "68.5166667"}, {"lat": "37.8241667", "city": "Nazarboy", "lon": "69.9147222"}, {"lat": "38.6008333", "city": "Nil'kon", "lon": "68.9213889"}, {"lat": "39.1166667", "city": "Nimicha", "lon": "70.6666667"}, {"lat": "39.1166667", "city": "Nimichi", "lon": "70.6666667"}, {"lat": "39.1166667", "city": "Nimichi-Poy\u00ebn", "lon": "70.6666667"}, {"lat": "38.1333333", "city": "Nishorak", "lon": "70.2166667"}, {"lat": "37.1952778", "city": "Nizhni Pyandzh", "lon": "68.5786111"}, {"lat": "37.3833333", "city": "Nizhniy Khokak", "lon": "68.1333333"}, {"lat": "37.1952778", "city": "Nizhniy Pandzh", "lon": "68.5786111"}, {"lat": "37.1952778", "city": "Nizhniy Pyandza", "lon": "68.5786111"}, {"lat": "37.1952778", "city": "Nizhniy Pyandzh", "lon": "68.5786111"}, {"lat": "38.8825", "city": "Nodirobod", "lon": "70.1255556"}, {"lat": "38.4425", "city": "Noling", "lon": "69.4797222"}, {"lat": "38.3883333", "city": "Norak", "lon": "69.325"}, {"lat": "38.2952778", "city": "Noryn", "lon": "68.935"}, {"lat": "37.4122222", "city": "Nosir Khisrav", "lon": "68.1880556"}, {"lat": "37.6358333", "city": "Novabadi-Bolo", "lon": "69.3808333"}, {"lat": "37.0852778", "city": "Novabad", "lon": "68.1191667"}, {"lat": "37.6283333", "city": "Novabad-Poy\u00ebn", "lon": "69.3594444"}, {"lat": "38.4258333", "city": "Novasoy", "lon": "68.1161111"}, {"lat": "37.2969444", "city": "Novaya Zemlya", "lon": "68.6552778"}, {"lat": "38.2869444", "city": "Novkoram", "lon": "69.0411111"}, {"lat": "38.5877778", "city": "Novoabad", "lon": "68.7386111"}, {"lat": "38.4833333", "city": "Novobad", "lon": "70.0833333"}, {"lat": "37.4044444", "city": "Novobod", "lon": "68.6894444"}, {"lat": "37.8102778", "city": "Novobulok", "lon": "69.8841667"}, {"lat": "38.7988889", "city": "Nuranch", "lon": "70.2075"}, {"lat": "38.3883333", "city": "Nurek", "lon": "69.325"}, {"lat": "37.4644444", "city": "Nurisharkh", "lon": "69.3677778"}, {"lat": "38.7988889", "city": "Nurundzh", "lon": "70.2075"}, {"lat": "38.7988889", "city": "Nurung", "lon": "70.2075"}, {"lat": "39.0077778", "city": "Nusratobod", "lon": "70.1555556"}, {"lat": "39.0077778", "city": "Nusstatobad", "lon": "70.1555556"}, {"lat": "38.7958333", "city": "Obiborik", "lon": "69.8502778"}, {"lat": "38.7666667", "city": "Obi-Dzhuk", "lon": "68.9"}, {"lat": "38.72", "city": "Obigarm", "lon": "69.7094444"}, {"lat": "38.1586111", "city": "Obikiik", "lon": "68.6722222"}, {"lat": "38.9075", "city": "Obilurd", "lon": "70.1380556"}, {"lat": "38.2", "city": "Obimuki", "lon": "69.0255556"}, {"lat": "38.6705556", "city": "Obinukra", "lon": "69.2872222"}, {"lat": "38.6705556", "city": "Obinuqra", "lon": "69.2872222"}, {"lat": "37.7552778", "city": "Obitera", "lon": "69.9494444"}, {"lat": "38.53", "city": "Ochamayli", "lon": "68.6791667"}, {"lat": "37.725", "city": "Odinaboy", "lon": "69.8491667"}, {"lat": "38.7666667", "city": "Odzhuk", "lon": "68.9"}, {"lat": "38.5441667", "city": "Oim", "lon": "68.3319444"}, {"lat": "38.2872222", "city": "Okbulok", "lon": "69.6963889"}, {"lat": "38.5872222", "city": "Okchakman", "lon": "68.9180556"}, {"lat": "37.7938889", "city": "Okchinor", "lon": "69.5802778"}, {"lat": "37.8447222", "city": "Okdzhar", "lon": "69.5616667"}, {"lat": "38.3833333", "city": "Okhteryak", "lon": "70.0166667"}, {"lat": "38.5083333", "city": "Okkurgon", "lon": "68.7416667"}, {"lat": "37.6691667", "city": "Okmazar", "lon": "69.6525"}, {"lat": "37.6691667", "city": "Okmazor", "lon": "69.6525"}, {"lat": "38.15", "city": "Oksu", "lon": "69.3"}, {"lat": "38.525", "city": "Oktabr'", "lon": "68.3333333"}, {"lat": "38.525", "city": "Oktabrsk", "lon": "68.3333333"}, {"lat": "38.5916667", "city": "Oktok", "lon": "68.8633333"}, {"lat": "38.2633333", "city": "Oktosh", "lon": "69.9819444"}, {"lat": "38.0763889", "city": "Oktyabr", "lon": "68.8366667"}, {"lat": "38.525", "city": "Oktyabr''", "lon": "68.3333333"}, {"lat": "37.765", "city": "Oktyabr'sh", "lon": "68.8027778"}, {"lat": "37.3277778", "city": "Oktyabrskiy", "lon": "68.7080556"}, {"lat": "38.525", "city": "Oktyabr'skiy", "lon": "68.3333333"}, {"lat": "37.765", "city": "Oktyabrsk", "lon": "68.8027778"}, {"lat": "37.7777778", "city": "Olimtoy", "lon": "69.3855556"}, {"lat": "38.4477778", "city": "Oliy-Sovet", "lon": "68.8"}, {"lat": "38.55", "city": "Omada", "lon": "68.35"}, {"lat": "38.3483333", "city": "Oqbulok", "lon": "68.6586111"}, {"lat": "38.2697222", "city": "Oqbuloq", "lon": "68.5430556"}, {"lat": "37.8447222", "city": "Oqjar", "lon": "69.5616667"}, {"lat": "38.4752778", "city": "Oqmachit", "lon": "68.1775"}, {"lat": "38.0561111", "city": "Oqmajid", "lon": "68.3541667"}, {"lat": "38.5083333", "city": "Oqqurgon", "lon": "68.7416667"}, {"lat": "38.15", "city": "Oqsu", "lon": "69.3"}, {"lat": "38.5530556", "city": "Ordhonikidzeabad", "lon": "69.0197222"}, {"lat": "38.5530556", "city": "Ordzhonikidzeabad", "lon": "69.0197222"}, {"lat": "38.5530556", "city": "Orjonikidzeabad", "lon": "69.0197222"}, {"lat": "38.5530556", "city": "Orjonikidzeobod", "lon": "69.0197222"}, {"lat": "37.6", "city": "Orzu", "lon": "68.8166667"}, {"lat": "39.1666667", "city": "Osiob-Dara", "lon": "70.7"}, {"lat": "37.9983333", "city": "Osmanbika", "lon": "69.7602778"}, {"lat": "37.9983333", "city": "Osman-Buka", "lon": "69.7602778"}, {"lat": "38.5722222", "city": "Ovul", "lon": "68.7244444"}, {"lat": "38.545", "city": "Oybosh", "lon": "68.5375"}, {"lat": "38.0722222", "city": "Oykamar", "lon": "68.6788889"}, {"lat": "38.0022222", "city": "Ozodii Shark", "lon": "68.8566667"}, {"lat": "38.5108333", "city": "Ozodii Zanon", "lon": "68.7094444"}, {"lat": "38.3441667", "city": "Ozodi", "lon": "69.0688889"}, {"lat": "37.7091667", "city": "Pakhtaabad", "lon": "69.4961111"}, {"lat": "38.4669444", "city": "Pakhta-Bay", "lon": "68.1338889"}, {"lat": "38.4166667", "city": "Pakhtaboy", "lon": "68.1416667"}, {"lat": "37.3780556", "city": "Pakhtakor", "lon": "68.6552778"}, {"lat": "37.7091667", "city": "Pakhtaobod", "lon": "69.4961111"}, {"lat": "38.3", "city": "Pam-Dara", "lon": "70.15"}, {"lat": "38.3641667", "city": "Pandzheriyen", "lon": "70.0880556"}, {"lat": "38.3641667", "city": "Panjariyon", "lon": "70.0880556"}, {"lat": "37.3252778", "city": "Panji Bolo", "lon": "68.6819444"}, {"lat": "37.1952778", "city": "Panji Poyon", "lon": "68.5786111"}, {"lat": "37.2383333", "city": "Panj", "lon": "69.0969444"}, {"lat": "38.2333333", "city": "Parchasay", "lon": "69.2"}, {"lat": "38.2608333", "city": "Parchasoy", "lon": "69.0397222"}, {"lat": "37.2591667", "city": "Parizhskaya-Kommuna", "lon": "68.1188889"}, {"lat": "38.1802778", "city": "Parkamchi", "lon": "69.3505556"}, {"lat": "38.1802778", "city": "Parkamchy", "lon": "69.3505556"}, {"lat": "37.4922222", "city": "Parkbar", "lon": "69.4016667"}, {"lat": "37.4922222", "city": "Parkhar", "lon": "69.4016667"}, {"lat": "37.55", "city": "Partizani Surkh", "lon": "68.5833333"}, {"lat": "38.4747222", "city": "Partizani-Surkh", "lon": "68.7813889"}, {"lat": "37.7333333", "city": "Parvar", "lon": "70.2166667"}, {"lat": "37.4552778", "city": "Pasariq", "lon": "68.4938889"}, {"lat": "37.4552778", "city": "Pasaryk", "lon": "68.4938889"}, {"lat": "38.7797222", "city": "Pashor", "lon": "70.2847222"}, {"lat": "38.4863889", "city": "Pasivaram", "lon": "69.7694444"}, {"lat": "38.5011111", "city": "Paskitomchi", "lon": "68.9105556"}, {"lat": "37.4552778", "city": "Pass-Aryk", "lon": "68.4938889"}, {"lat": "38.2922222", "city": "Pastakon", "lon": "69.1288889"}, {"lat": "38.2333333", "city": "Pastezak", "lon": "69.9333333"}, {"lat": "38.2333333", "city": "Pastezas", "lon": "69.9333333"}, {"lat": "38.3", "city": "Pattalik", "lon": "68.85"}, {"lat": "37.8025", "city": "Paytok", "lon": "69.6441667"}, {"lat": "38.4097222", "city": "Peho", "lon": "69.3519444"}, {"lat": "38.4097222", "city": "Pekho", "lon": "69.3519444"}, {"lat": "37.4625", "city": "Pereselenstroy", "lon": "68.6141667"}, {"lat": "37.3344444", "city": "Pervomayskiy", "lon": "68.715"}, {"lat": "37.3411111", "city": "Pervomaysk", "lon": "68.7522222"}, {"lat": "37.3344444", "city": "Pervoye Maya", "lon": "68.715"}, {"lat": "37.3322222", "city": "Peshkadam", "lon": "69.0463889"}, {"lat": "37.3322222", "city": "Peshqadam", "lon": "69.0463889"}, {"lat": "37.3661111", "city": "Peteul", "lon": "68.6330556"}, {"lat": "37.7833333", "city": "Pingan", "lon": "69.55"}, {"lat": "37.7833333", "city": "(( Pingon ))", "lon": "69.55"}, {"lat": "38.6877778", "city": "Pionerabad", "lon": "69.5530556"}, {"lat": "38.6877778", "city": "Pionerobod", "lon": "69.5530556"}, {"lat": "38.2961111", "city": "Pioner", "lon": "68.9280556"}, {"lat": "37.3438889", "city": "Pionerskiy", "lon": "68.6644444"}, {"lat": "37.2833333", "city": "(( Pionersk ))", "lon": "68.7"}, {"lat": "38.6", "city": "Pishtovo", "lon": "69.9166667"}, {"lat": "37.7158333", "city": "Pistamazor", "lon": "69.8530556"}, {"lat": "37.4202778", "city": "Pobeda", "lon": "69.3530556"}, {"lat": "37.9522222", "city": "Pod\u00e2\u0080\u009dyem", "lon": "69.1011111"}, {"lat": "38.8669444", "city": "Pombachi", "lon": "69.9622222"}, {"lat": "38.6836111", "city": "Poru", "lon": "69.6605556"}, {"lat": "37.6666667", "city": "Pos\u00eblok Nomer Chetv\u00ebrtyy", "lon": "68.8333333"}, {"lat": "38.5286111", "city": "Pravda", "lon": "68.8116667"}, {"lat": "37.5327778", "city": "Puchkok", "lon": "69.4672222"}, {"lat": "38.1905556", "city": "Pushing", "lon": "69.4430556"}, {"lat": "38.1905556", "city": "Pushin", "lon": "69.4430556"}, {"lat": "38.0391667", "city": "Pushion Miona", "lon": "69.7913889"}, {"lat": "38.0166667", "city": "Pushion Poy\u00ebn", "lon": "69.7666667"}, {"lat": "38.0391667", "city": "Pushiy\u00ebn-Miy\u00ebna", "lon": "69.7913889"}, {"lat": "38.0166667", "city": "Pushiy\u00ebn Poy\u00ebn", "lon": "69.7666667"}, {"lat": "38.0391667", "city": "Pushiy\u00ebn", "lon": "69.7913889"}, {"lat": "38.0391667", "city": "Pushiyon", "lon": "69.7913889"}, {"lat": "37.6786111", "city": "Pushkin", "lon": "69.5755556"}, {"lat": "38.3555556", "city": "Pushyon", "lon": "69.9483333"}, {"lat": "37.15", "city": "(( Pustin-Dara ))", "lon": "67.8166667"}, {"lat": "37.2383333", "city": "Pyandzh", "lon": "69.0969444"}, {"lat": "37.885", "city": "Pyandzhsola", "lon": "69.7397222"}, {"lat": "37.4122222", "city": "Qabodiyon", "lon": "68.1880556"}, {"lat": "38.7019444", "city": "Qal'ai Nav", "lon": "69.6427778"},