{"VC": {"02": [{"lat": "13.1666667", "city": "Camden Park", "lon": "-61.2333333"}, {"lat": "13.1666667", "city": "Chauncey", "lon": "-61.2333333"}, {"lat": "13.1666667", "city": "Clare Valley", "lon": "-61.25"}, {"lat": "13.1833333", "city": "Dubois", "lon": "-61.2333333"}, {"lat": "13.1575", "city": "Edinboro", "lon": "-61.2444444"}, {"lat": "13.2", "city": "Francois", "lon": "-61.2166667"}, {"lat": "13.1658333", "city": "Liberty Lodge", "lon": "-61.2316667"}, {"lat": "13.1666667", "city": "Montrose", "lon": "-61.2333333"}, {"lat": "13.1833333", "city": "Pembroke", "lon": "-61.25"}, {"lat": "13.1666667", "city": "Questelles", "lon": "-61.2333333"}, {"lat": "13.1644444", "city": "Redemption", "lon": "-61.2294444"}, {"lat": "13.2", "city": "Vermont", "lon": "-61.2166667"}], "03": [{"lat": "13.2833333", "city": "Chateaubelair", "lon": "-61.25"}, {"lat": "13.2833333", "city": "Richmond", "lon": "-61.25"}, {"lat": "13.2833333", "city": "Richmond Town", "lon": "-61.25"}, {"lat": "13.2833333", "city": "Richmond Vale", "lon": "-61.2333333"}, {"lat": "13.2666667", "city": "Rosehall", "lon": "-61.2333333"}, {"lat": "13.2666667", "city": "Troumaka", "lon": "-61.25"}, {"lat": "13.3166667", "city": "Wallibou", "lon": "-61.2166667"}, {"lat": "13.3166667", "city": "Wallibu", "lon": "-61.2166667"}], "01": [{"lat": "13.1833333", "city": "Adelphi", "lon": "-61.1333333"}, {"lat": "13.2", "city": "Baiabu", "lon": "-61.1333333"}, {"lat": "13.2333333", "city": "Belle Vue", "lon": "-61.1166667"}, {"lat": "13.2833333", "city": "Bequia", "lon": "-61.1333333"}, {"lat": "13.2", "city": "Biabou", "lon": "-61.1333333"}, {"lat": "13.25", "city": "Byera Village", "lon": "-61.1166667"}, {"lat": "13.2833333", "city": "Chapmans", "lon": "-61.1166667"}, {"lat": "13.2333333", "city": "Colonarie", "lon": "-61.1166667"}, {"lat": "13.3666667", "city": "Fancy", "lon": "-61.1666667"}, {"lat": "13.2333333", "city": "Friendly", "lon": "-61.1166667"}, {"lat": "13.2666667", "city": "Georgetown", "lon": "-61.1166667"}, {"lat": "13.2", "city": "Greiggs", "lon": "-61.15"}, {"lat": "13.1666667", "city": "Mesopatamia", "lon": "-61.1666667"}, {"lat": "13.1666667", "city": "Mesopotamia", "lon": "-61.1666667"}, {"lat": "13.35", "city": "New Sandy Bay Village", "lon": "-61.1333333"}, {"lat": "13.2166667", "city": "North Union", "lon": "-61.1333333"}, {"lat": "13.2833333", "city": "O'Briens", "lon": "-61.1333333"}, {"lat": "13.3166667", "city": "Orange Hill", "lon": "-61.1166667"}, {"lat": "13.1666667", "city": "Peruvian Vale", "lon": "-61.1333333"}, {"lat": "13.3", "city": "Rabaca", "lon": "-61.15"}, {"lat": "13.3", "city": "Rabacca", "lon": "-61.15"}, {"lat": "13.3", "city": "Rabaka", "lon": "-61.15"}, {"lat": "13.2", "city": "Richland Park", "lon": "-61.1666667"}, {"lat": "13.2166667", "city": "Sans Souci", "lon": "-61.1166667"}, {"lat": "13.2333333", "city": "South Rivers", "lon": "-61.1333333"}, {"lat": "13.3333333", "city": "Tourama", "lon": "-61.15"}, {"lat": "13.3333333", "city": "Turema", "lon": "-61.15"}, {"lat": "13.3", "city": "Waterloo", "lon": "-61.1333333"}], "06": [{"lat": "12.5833333", "city": "Ashton", "lon": "-61.4333333"}, {"lat": "12.95", "city": "Bednoe", "lon": "-61.25"}, {"lat": "12.6833333", "city": "Charlestown", "lon": "-61.3333333"}, {"lat": "12.8833333", "city": "Cheltenham", "lon": "-61.1833333"}, {"lat": "12.5833333", "city": "Clifton", "lon": "-61.4166667"}, {"lat": "12.5833333", "city": "Cliftons", "lon": "-61.4166667"}, {"lat": "12.9833333", "city": "Derrick", "lon": "-61.25"}, {"lat": "12.8833333", "city": "Dovers", "lon": "-61.1833333"}, {"lat": "12.9833333", "city": "Friendship", "lon": "-61.2333333"}, {"lat": "12.8833333", "city": "Lovell Village", "lon": "-61.1833333"}, {"lat": "12.6333333", "city": "Old Wall", "lon": "-61.3833333"}, {"lat": "12.9833333", "city": "Paget Farm", "lon": "-61.25"}, {"lat": "13.0166667", "city": "Port-Elisabeth", "lon": "-61.2333333"}, {"lat": "13.0166667", "city": "Port Elizabeth", "lon": "-61.2333333"}, {"lat": "13.0", "city": "Union", "lon": "-61.2333333"}], "04": [{"lat": "13.1333333", "city": "Arnos Vale", "lon": "-61.2"}, {"lat": "13.15", "city": "Belmont", "lon": "-61.1833333"}, {"lat": "13.1333333", "city": "Brighton", "lon": "-61.1666667"}, {"lat": "13.1333333", "city": "Brighton Village", "lon": "-61.1666667"}, {"lat": "13.1166667", "city": "Caliaqua", "lon": "-61.1833333"}, {"lat": "13.1166667", "city": "Calliagda", "lon": "-61.1833333"}, {"lat": "13.1166667", "city": "Calliaqua", "lon": "-61.1833333"}, {"lat": "13.1441667", "city": "Greathead", "lon": "-61.2208333"}, {"lat": "13.1333333", "city": "Kingstown", "lon": "-61.2166667"}, {"lat": "13.1583333", "city": "Kingstown Park", "lon": "-61.235"}, {"lat": "13.1333333", "city": "Ribishi", "lon": "-61.1833333"}, {"lat": "13.1333333", "city": "Stubbs", "lon": "-61.15"}], "05": [{"lat": "13.2333333", "city": "Barawally", "lon": "-61.2666667"}, {"lat": "13.2333333", "city": "Barroualie", "lon": "-61.2666667"}, {"lat": "13.2333333", "city": "Barrouallie", "lon": "-61.2666667"}, {"lat": "13.2333333", "city": "Barrualli", "lon": "-61.2666667"}, {"lat": "13.2333333", "city": "Hermitage", "lon": "-61.2166667"}, {"lat": "13.2", "city": "Layou", "lon": "-61.2666667"}, {"lat": "13.2333333", "city": "Princes Town", "lon": "-61.2666667"}, {"lat": "13.2", "city": "Rutland Vale", "lon": "-61.2833333"}, {"lat": "13.2", "city": "Rutland Vale Village", "lon": "-61.2833333"}, {"lat": "13.25", "city": "Spring Village", "lon": "-61.2333333"}]}}