{"VE": {"02": [{"lat": "9.9666667", "city": "Acapulco", "lon": "-65.1666667"}, {"lat": "8.7166667", "city": "Agua Amarilla", "lon": "-64.8"}, {"lat": "7.9494444", "city": "Agua Blanca", "lon": "-65.3872222"}, {"lat": "10.0333333", "city": "Agua Caliente", "lon": "-65.3333333"}, {"lat": "10.0333333", "city": "Agua Calientica", "lon": "-65.3166667"}, {"lat": "8.7833333", "city": "Agua Clara", "lon": "-64.5166667"}, {"lat": "9.3738889", "city": "Agua Dulce", "lon": "-64.7811111"}, {"lat": "8.7275", "city": "Agua Fr\u00eda", "lon": "-63.5663889"}, {"lat": "9.4819444", "city": "Agua Salada", "lon": "-64.7438889"}, {"lat": "9.5438889", "city": "Agua Santa", "lon": "-64.7141667"}, {"lat": "9.3266667", "city": "Agua Sola", "lon": "-64.6583333"}, {"lat": "8.4088889", "city": "Alcornoquito Blanco", "lon": "-64.6666667"}, {"lat": "7.6666667", "city": "Alemania", "lon": "-64.8666667"}, {"lat": "8.5916667", "city": "Algarrobo", "lon": "-64.0288889"}, {"lat": "8.5647222", "city": "Altagracia", "lon": "-64.0661111"}, {"lat": "9.9916667", "city": "Altamira", "lon": "-64.2061111"}, {"lat": "9.1166667", "city": "Alto Alegre", "lon": "-64.8333333"}, {"lat": "10.0166667", "city": "Alto Barrie\u00f1o", "lon": "-64.0861111"}, {"lat": "9.9333333", "city": "Alto Caribe", "lon": "-64.5611111"}, {"lat": "10.0422222", "city": "Alto Castillero", "lon": "-64.4833333"}, {"lat": "9.6722222", "city": "Alto Clarindero", "lon": "-64.7061111"}, {"lat": "9.95", "city": "Alto Domingo", "lon": "-64.75"}, {"lat": "9.7266667", "city": "Alto Nacacual", "lon": "-64.74"}, {"lat": "9.2166667", "city": "Altozano", "lon": "-64.9833333"}, {"lat": "8.95", "city": "\u00c1lvarez", "lon": "-64.7833333"}, {"lat": "10.0694444", "city": "Amana", "lon": "-64.0555556"}, {"lat": "9.8555556", "city": "Amanita", "lon": "-65.1041667"}, {"lat": "9.42", "city": "Anaco Abajo", "lon": "-64.6872222"}, {"lat": "9.4375", "city": "Anaco", "lon": "-64.4730556"}, {"lat": "9.4705556", "city": "Anaquito", "lon": "-64.47"}, {"lat": "9.7644444", "city": "Anauco", "lon": "-64.3794444"}, {"lat": "10.0833333", "city": "Angostura", "lon": "-64.5833333"}, {"lat": "9.1833333", "city": "Apamate", "lon": "-64.9"}, {"lat": "10.1561111", "city": "Apamato", "lon": "-64.5355556"}, {"lat": "9.4591667", "city": "Aragua", "lon": "-64.8275"}, {"lat": "9.4591667", "city": "Aragua de Barcelona", "lon": "-64.8275"}, {"lat": "9.05", "city": "Araguatos", "lon": "-63.85"}, {"lat": "10.0833333", "city": "Arag\u00fcita", "lon": "-64.5666667"}, {"lat": "9.1886111", "city": "Araibel", "lon": "-64.1780556"}, {"lat": "10.2333333", "city": "Arapo", "lon": "-64.4833333"}, {"lat": "7.85", "city": "Arbolitas", "lon": "-65.2333333"}, {"lat": "7.85", "city": "Arbolito", "lon": "-65.2333333"}, {"lat": "8.9536111", "city": "Arenales", "lon": "-64.5822222"}, {"lat": "9.7833333", "city": "Arenas", "lon": "-65.55"}, {"lat": "8.5833333", "city": "Arib\u00ed", "lon": "-64.7666667"}, {"lat": "8.3477778", "city": "Aruco", "lon": "-64.3263889"}, {"lat": "9.7727778", "city": "Asiento Viejo Coco de Mono", "lon": "-64.8794444"}, {"lat": "9.3841667", "city": "Asiento Viejo La Fundaci\u00f3n", "lon": "-65.1175"}, {"lat": "8.7519444", "city": "Astromelia", "lon": "-63.5641667"}, {"lat": "8.4383333", "city": "Atapirire", "lon": "-64.3697222"}, {"lat": "8.7633333", "city": "Aventaz\u00f3n", "lon": "-64.2122222"}, {"lat": "8.3788889", "city": "Ayacucho", "lon": "-64.6966667"}, {"lat": "9.9833333", "city": "Bachaquito", "lon": "-65.1166667"}, {"lat": "9.345", "city": "Bajada la Chaguarama", "lon": "-64.0333333"}, {"lat": "9.7027778", "city": "Bajo Anaco", "lon": "-65.1305556"}, {"lat": "10.0", "city": "Bajo Aragua", "lon": "-64.15"}, {"lat": "9.725", "city": "Bajo Camoruco", "lon": "-65.0333333"}, {"lat": "9.7916667", "city": "Bajo Carujo", "lon": "-65.1055556"}, {"lat": "9.8916667", "city": "Bajo Coquito", "lon": "-65.9"}, {"lat": "9.72", "city": "Bajo de la Cruz", "lon": "-64.9461111"}, {"lat": "9.6866667", "city": "Bajo Dividive", "lon": "-64.7394444"}, {"lat": "9.775", "city": "Bajo el Burro", "lon": "-65.1069444"}, {"lat": "9.7288889", "city": "Bajo el Cacho", "lon": "-64.9733333"}, {"lat": "9.6761111", "city": "Bajo el Toro", "lon": "-64.7183333"}, {"lat": "9.7777778", "city": "Bajo el Veg\u00f3n", "lon": "-65.2930556"}, {"lat": "10.1333333", "city": "Bajo Grande", "lon": "-64.4166667"}, {"lat": "8.8833333", "city": "Bajo Hondo", "lon": "-63.4333333"}, {"lat": "9.7105556", "city": "Bajo Juan Jos\u00e9", "lon": "-64.735"}, {"lat": "9.7166667", "city": "Bajo Las Cruces", "lon": "-65.2194444"}, {"lat": "9.8805556", "city": "Bajo las Mariposas", "lon": "-65.3138889"}, {"lat": "9.4225", "city": "Bajo Lindo", "lon": "-64.735"}, {"lat": "9.72", "city": "Bajo Redondo", "lon": "-64.7388889"}, {"lat": "9.6722222", "city": "Bajos Ca\u00f1o Macual", "lon": "-65.1611111"}, {"lat": "9.8152778", "city": "Bajos del Mono", "lon": "-65.1805556"}, {"lat": "9.9361111", "city": "Bajos de Macuare", "lon": "-65.2833333"}, {"lat": "8.7777778", "city": "Bajos de San Bartolo", "lon": "-64.6916667"}, {"lat": "9.745", "city": "Bajo Sin Tripa", "lon": "-65.0416667"}, {"lat": "10.0333333", "city": "Barbacoas", "lon": "-64.6166667"}, {"lat": "10.1333333", "city": "Barcelona", "lon": "-64.7"}, {"lat": "10.1833333", "city": "Barlovento", "lon": "-64.5333333"}, {"lat": "9.3380556", "city": "Barranca", "lon": "-64.1161111"}, {"lat": "8.15", "city": "Barrancas", "lon": "-65.3666667"}, {"lat": "9.9333333", "city": "Barranco", "lon": "-65.2333333"}, {"lat": "9.9333333", "city": "Barrancones", "lon": "-65.2333333"}, {"lat": "8.39", "city": "Barrancos Colorados", "lon": "-62.6825"}, {"lat": "9.4780556", "city": "Barrialote", "lon": "-64.8275"}, {"lat": "10.13", "city": "Barrio Aduana", "lon": "-64.6783333"}, {"lat": "9.2333333", "city": "Barrio Blanco", "lon": "-64.9166667"}, {"lat": "10.1366667", "city": "Barrio Buenos Aires", "lon": "-64.7022222"}, {"lat": "10.1311111", "city": "Barrio Cayaurima", "lon": "-64.7"}, {"lat": "8.8333333", "city": "Barrio El Bajo", "lon": "-64.7333333"}, {"lat": "10.2033333", "city": "Barrio El Para\u00edso", "lon": "-64.6572222"}, {"lat": "10.1416667", "city": "Barrio Guamachito", "lon": "-64.675"}, {"lat": "10.155", "city": "Barrio Sucre", "lon": "-64.6705556"}, {"lat": "9.8666667", "city": "Basura", "lon": "-65.45"}, {"lat": "8.0666667", "city": "Bayona", "lon": "-65.0666667"}, {"lat": "8.0938889", "city": "Bebedero", "lon": "-64.5655556"}, {"lat": "9.9166667", "city": "Bel\u00e9n", "lon": "-65.1833333"}, {"lat": "8.5988889", "city": "Bella Vista", "lon": "-63.4172222"}, {"lat": "8.6666667", "city": "Bello Monte", "lon": "-64.8833333"}, {"lat": "10.0166667", "city": "Bergant\u00edn", "lon": "-64.3666667"}, {"lat": "10.1833333", "city": "Bido\u00f1o", "lon": "-64.6333333"}, {"lat": "8.7491667", "city": "Boca de Areo", "lon": "-63.5411111"}, {"lat": "8.6388889", "city": "Boca de Cogollar", "lon": "-63.1511111"}, {"lat": "9.9", "city": "Boca de Guaibe", "lon": "-65.2"}, {"lat": "9.1191667", "city": "Boca de G\u00fcibimba", "lon": "-63.6113889"}, {"lat": "9.7105556", "city": "Boca de Jabillo", "lon": "-65.5955556"}, {"lat": "9.0319444", "city": "Boca de La Leona", "lon": "-63.8902778"}, {"lat": "8.1288889", "city": "Boca del Pao", "lon": "-64.3047222"}, {"lat": "8.7755556", "city": "Boca de Rio Claro", "lon": "-63.2147222"}, {"lat": "9.9833333", "city": "Boca de Tigre", "lon": "-64.55"}, {"lat": "10.1333333", "city": "Boca de Uchire", "lon": "-65.4333333"}, {"lat": "9.9", "city": "Boca Guaribe", "lon": "-65.2"}, {"lat": "9.1166667", "city": "Boca G\u00fcibimba", "lon": "-63.6166667"}, {"lat": "10.1166667", "city": "Boca Nueva", "lon": "-65.3"}, {"lat": "8.7755556", "city": "Boca R\u00edo Claro", "lon": "-63.2147222"}, {"lat": "8.1288889", "city": "Bocas del Pao", "lon": "-64.3047222"}, {"lat": "9.3444444", "city": "Bogota", "lon": "-65.2888889"}, {"lat": "8.8", "city": "Bombita", "lon": "-64.25"}, {"lat": "9.2666667", "city": "Boqueral", "lon": "-64.5333333"}, {"lat": "10.15", "city": "Boquer\u00f3n", "lon": "-64.55"}, {"lat": "10.0694444", "city": "Boqueroncito", "lon": "-65.1016667"}, {"lat": "9.5", "city": "Boquerones", "lon": "-65.0833333"}, {"lat": "8.5977778", "city": "Borbollones", "lon": "-63.4372222"}, {"lat": "9.7327778", "city": "Borregue\u00f1a", "lon": "-65.1477778"}, {"lat": "8.3352778", "city": "Botal\u00f3n", "lon": "-63.2588889"}, {"lat": "9.6016667", "city": "Botal\u00f3n del Paso la Tigra", "lon": "-65.6222222"}, {"lat": "8.35", "city": "Botij\u00f3n", "lon": "-65.0333333"}, {"lat": "8.0833333", "city": "Botijones", "lon": "-63.6166667"}, {"lat": "8.1183333", "city": "Bruzual", "lon": "-65.2194444"}, {"lat": "10.0666667", "city": "Bucar\u00e1l", "lon": "-64.0166667"}, {"lat": "8.2511111", "city": "Buche Pelao", "lon": "-64.5683333"}, {"lat": "10.0166667", "city": "Buena Vista", "lon": "-64.5"}, {"lat": "9.0352778", "city": "Buena Vista de Chive", "lon": "-63.8188889"}, {"lat": "10.0105556", "city": "Buenos Aires", "lon": "-65.5216667"}, {"lat": "8.6477778", "city": "Cabecera de la Canoa", "lon": "-63.8733333"}, {"lat": "8.5666667", "city": "Cabecera del Yabo", "lon": "-63.25"}, {"lat": "9.0411111", "city": "Cabecera de Morichalote", "lon": "-63.5433333"}, {"lat": "8.8166667", "city": "Cabeceras", "lon": "-64.2666667"}, {"lat": "8.3613889", "city": "Cabeceras de Cachama", "lon": "-63.7155556"}, {"lat": "8.6502778", "city": "Cabeceras de La Canoa", "lon": "-63.8719444"}, {"lat": "8.8166667", "city": "Cabeceras del Car\u00eds", "lon": "-64.2666667"}, {"lat": "8.9", "city": "Cabeceras del Pao", "lon": "-64.5166667"}, {"lat": "8.5666667", "city": "Cabeceras del Yabo", "lon": "-63.25"}, {"lat": "8.4166667", "city": "Cabeceras de Manasma", "lon": "-64.2833333"}, {"lat": "8.1011111", "city": "Cabeceras de Veladero", "lon": "-65.0638889"}, {"lat": "9.5758333", "city": "Cabeza de Tigre", "lon": "-64.6469444"}, {"lat": "9.675", "city": "Cabeza de Vaca", "lon": "-64.675"}, {"lat": "9.6227778", "city": "Caca\u00edto", "lon": "-64.5222222"}, {"lat": "9.0705556", "city": "Cachama", "lon": "-64.3288889"}, {"lat": "8.355", "city": "Cachamita", "lon": "-63.7533333"}, {"lat": "9.0705556", "city": "Cachamo", "lon": "-64.3288889"}, {"lat": "8.5611111", "city": "Cachipito", "lon": "-63.9694444"}, {"lat": "8.9666667", "city": "Cachipo", "lon": "-64.6333333"}, {"lat": "9.1638889", "city": "Cadel", "lon": "-64.5594444"}, {"lat": "9.6227778", "city": "Caicaito", "lon": "-64.5222222"}, {"lat": "9.25", "city": "Caicara", "lon": "-64.6833333"}, {"lat": "8.9919444", "city": "Caico Seco", "lon": "-64.4813889"}, {"lat": "9.95", "city": "Caigua", "lon": "-64.85"}, {"lat": "9.0333333", "city": "Calazanero", "lon": "-64.6333333"}, {"lat": "10.15", "city": "Cambural", "lon": "-64.5333333"}, {"lat": "9.3166667", "city": "Cambur", "lon": "-64.4"}, {"lat": "10.1566667", "city": "Camburito", "lon": "-64.4666667"}, {"lat": "9.4269444", "city": "Camoruco", "lon": "-64.2619444"}, {"lat": "9.9311111", "city": "Campanario", "lon": "-65.3488889"}, {"lat": "10.0011111", "city": "Campo Alegre", "lon": "-64.1638889"}, {"lat": "9.1916667", "city": "Campo Bonito", "lon": "-64.5833333"}, {"lat": "8.2833333", "city": "Campo Claro", "lon": "-64.5666667"}, {"lat": "9.2216667", "city": "Campo Dowell", "lon": "-64.0133333"}, {"lat": "9.0122222", "city": "Campo G\u00fcico", "lon": "-64.1438889"}, {"lat": "10.0416667", "city": "Campo Lindo", "lon": "-64.54"}, {"lat": "9.2194444", "city": "Campo Mata", "lon": "-64.0516667"}, {"lat": "9.2075", "city": "Campo Misscuty", "lon": "-64.045"}, {"lat": "9.3933333", "city": "Campo Naico de Venezuela", "lon": "-64.4719444"}, {"lat": "8.5166667", "city": "Ca\u00f1a Amarga", "lon": "-65.0333333"}, {"lat": "8.3855556", "city": "Canafistola", "lon": "-64.2183333"}, {"lat": "9.5555556", "city": "Ca\u00f1averal", "lon": "-64.7436111"}, {"lat": "9.2166667", "city": "Ca\u00f1averalito", "lon": "-65.0666667"}, {"lat": "10.1", "city": "Cancoba", "lon": "-64.5666667"}, {"lat": "9.5666667", "city": "Canillar", "lon": "-65.1333333"}, {"lat": "8.6008333", "city": "Canoa", "lon": "-63.8716667"}, {"lat": "9.9833333", "city": "Ca\u00f1o Amarillo", "lon": "-65.3333333"}, {"lat": "9.8", "city": "Ca\u00f1o Negro", "lon": "-65.2166667"}, {"lat": "9.3833333", "city": "Ca\u00f1o Seco", "lon": "-65.15"}, {"lat": "9.0666667", "city": "Cantarrana", "lon": "-64.8833333"}, {"lat": "9.3105556", "city": "Cantaura", "lon": "-64.3594444"}, {"lat": "9.3105556", "city": "Cantura", "lon": "-64.3594444"}, {"lat": "9.7333333", "city": "Capachal", "lon": "-65.5333333"}, {"lat": "9.5697222", "city": "Capachito", "lon": "-63.8586111"}, {"lat": "9.7027778", "city": "Capacho", "lon": "-63.9552778"}, {"lat": "8.3975", "city": "Capaico", "lon": "-63.8563889"}, {"lat": "9.9697222", "city": "Capalla", "lon": "-64.3919444"}, {"lat": "9.9697222", "city": "Capaya", "lon": "-64.3919444"}, {"lat": "9.4666667", "city": "Capilla de Mar\u00eda", "lon": "-64.3"}, {"lat": "10.0166667", "city": "Capiricual", "lon": "-64.5666667"}, {"lat": "9.1833333", "city": "Capuchino", "lon": "-64.55"}, {"lat": "8.2788889", "city": "Capuringa", "lon": "-63.5611111"}, {"lat": "10.0333333", "city": "Carabobo", "lon": "-64.5833333"}, {"lat": "10.0333333", "city": "Caracol", "lon": "-65.3333333"}, {"lat": "9.8333333", "city": "Caraguina", "lon": "-64.8"}, {"lat": "9.3586111", "city": "Caramiche", "lon": "-64.4119444"}, {"lat": "8.3288889", "city": "Carapa", "lon": "-63.2838889"}, {"lat": "9.9344444", "city": "Carapita", "lon": "-64.4227778"}, {"lat": "8.4116667", "city": "Carapuch\u00edn", "lon": "-63.5197222"}, {"lat": "10.1666667", "city": "Caratal", "lon": "-64.4833333"}, {"lat": "9.95", "city": "Carataquiche", "lon": "-64.5833333"}, {"lat": "9.1419444", "city": "Carbonero", "lon": "-64.1908333"}, {"lat": "8.4205556", "city": "Cardonal", "lon": "-62.8225"}, {"lat": "10.1", "city": "Cardoncito", "lon": "-65.2666667"}, {"lat": "9.4438889", "city": "Caricare", "lon": "-64.9541667"}, {"lat": "8.3166667", "city": "Caricito", "lon": "-63.8666667"}, {"lat": "10.0277778", "city": "Carima", "lon": "-64.6388889"}, {"lat": "10.0761111", "city": "Carinagua", "lon": "-64.4738889"}, {"lat": "8.5", "city": "Caris", "lon": "-63.8333333"}, {"lat": "8.3166667", "city": "Carisito", "lon": "-63.8666667"}, {"lat": "9.2", "city": "Carmelo", "lon": "-63.8833333"}, {"lat": "9.3", "city": "Carmen Fern\u00e1ndez", "lon": "-64.1166667"}, {"lat": "8.2944444", "city": "Carmona", "lon": "-63.45"}, {"lat": "9.4594444", "city": "Carpintero", "lon": "-64.3141667"}, {"lat": "8.4563889", "city": "Carralito", "lon": "-62.7975"}, {"lat": "10.1666667", "city": "Carrasposo", "lon": "-64.5"}, {"lat": "10.0433333", "city": "Carrizal", "lon": "-64.4583333"}, {"lat": "9.4166667", "city": "Carrizales", "lon": "-65.0666667"}, {"lat": "9.7666667", "city": "Carrizalito", "lon": "-65.2666667"}, {"lat": "8.3027778", "city": "Cartagena", "lon": "-64.9527778"}, {"lat": "8.2677778", "city": "Cartanal", "lon": "-64.5627778"}, {"lat": "8.2555556", "city": "Carutal", "lon": "-64.8122222"}, {"lat": "8.6138889", "city": "Carutico", "lon": "-65.0341667"}, {"lat": "9.6333333", "city": "Caruto", "lon": "-65.45"}, {"lat": "9.7333333", "city": "Casa Javillar", "lon": "-65.1166667"}, {"lat": "8.3613889", "city": "Casa\u00f1a", "lon": "-63.6202778"}, {"lat": "8.2588889", "city": "Casa Nueva", "lon": "-64.7605556"}, {"lat": "9.7094444", "city": "Casas Viejas", "lon": "-64.2483333"}, {"lat": "9.2333333", "city": "Cascar\u00f3n", "lon": "-64.7666667"}, {"lat": "9.95", "city": "Casita", "lon": "-65.2"}, {"lat": "9.8333333", "city": "Castillero", "lon": "-64.6333333"}, {"lat": "8.3277778", "city": "Castillito", "lon": "-63.4027778"}, {"lat": "8.2166667", "city": "Casupal", "lon": "-64.5333333"}, {"lat": "8.23", "city": "Casupal Higuerote", "lon": "-64.515"}, {"lat": "9.95", "city": "Cataquiche", "lon": "-64.5833333"}, {"lat": "10.0666667", "city": "Cautaro", "lon": "-65.35"}, {"lat": "9.7", "city": "Cede\u00f1o", "lon": "-65.1833333"}, {"lat": "10.0216667", "city": "Cedral", "lon": "-64.1027778"}, {"lat": "9.3666667", "city": "Celosa", "lon": "-64.6"}, {"lat": "8.6916667", "city": "Centella", "lon": "-65.0794444"}, {"lat": "9.0166667", "city": "Cerrito Verde", "lon": "-64.8833333"}, {"lat": "9.9833333", "city": "Cerro Blanco", "lon": "-64.8166667"}, {"lat": "10.0", "city": "Cerro de Piedra", "lon": "-64.65"}, {"lat": "8.4833333", "city": "Cerro Mono", "lon": "-64.7433333"}, {"lat": "10.0344444", "city": "Cerro Negro", "lon": "-64.2461111"}, {"lat": "8.9788889", "city": "Chacao", "lon": "-63.6922222"}, {"lat": "10.0666667", "city": "Chacare", "lon": "-64.1"}, {"lat": "9.4858333", "city": "Chaco", "lon": "-64.8483333"}, {"lat": "10.0833333", "city": "Chacopata", "lon": "-64.95"}, {"lat": "10.0694444", "city": "Chadare", "lon": "-64.1"}, {"lat": "9.2155556", "city": "Chaguarama", "lon": "-63.7522222"}, {"lat": "8.6555556", "city": "Chaguaramas", "lon": "-62.7794444"}, {"lat": "9.2", "city": "Chaguaramos", "lon": "-63.75"}, {"lat": "9.2833333", "city": "Chaparra", "lon": "-64.9166667"}, {"lat": "9.2833333", "city": "Chaparral", "lon": "-64.9166667"}, {"lat": "9.8333333", "city": "Characual", "lon": "-64.85"}, {"lat": "9.85", "city": "Charco Largo", "lon": "-65.5"}, {"lat": "10.2333333", "city": "Chaure", "lon": "-64.6"}, {"lat": "10.0833333", "city": "Chaves", "lon": "-65.3833333"}, {"lat": "10.0833333", "city": "Ch\u00e1vez", "lon": "-65.3833333"}, {"lat": "10.0333333", "city": "Chavito", "lon": "-65.4333333"}, {"lat": "9.1666667", "city": "Cherespay", "lon": "-63.7833333"}, {"lat": "8.6291667", "city": "Chiguacara", "lon": "-63.8697222"}, {"lat": "9.2666667", "city": "Chiguapo", "lon": "-64.6"}, {"lat": "9.325", "city": "Chiguarcara", "lon": "-65.17"}, {"lat": "9.1372222", "city": "Chig\u00fcita", "lon": "-64.0644444"}, {"lat": "8.3405556", "city": "Chimborazo", "lon": "-64.3333333"}, {"lat": "8.3766667", "city": "Chimire", "lon": "-63.8116667"}, {"lat": "8.3583333", "city": "Chinchorreta", "lon": "-63.6027778"}, {"lat": "9.4166667", "city": "Chipuro", "lon": "-64.35"}, {"lat": "9.9655556", "city": "Chiriguara", "lon": "-64.4038889"}, {"lat": "9.8983333", "city": "Chispero", "lon": "-64.3522222"}, {"lat": "9.0977778", "city": "Chive", "lon": "-63.9863889"}, {"lat": "9.3419444", "city": "Chorochoro Arriba", "lon": "-64.5475"}, {"lat": "9.3430556", "city": "Chorochoro", "lon": "-64.5697222"}, {"lat": "10.2166667", "city": "Chorrer\u00f3n", "lon": "-64.5833333"}, {"lat": "8.5316667", "city": "Chuapire", "lon": "-63.8633333"}, {"lat": "10.0416667", "city": "Chucho", "lon": "-64.4361111"}, {"lat": "10.0683333", "city": "Chuponal", "lon": "-64.3227778"}, {"lat": "9.2069444", "city": "Chupururo", "lon": "-64.0672222"}, {"lat": "9.2155556", "city": "C\u00eda Texas", "lon": "-64.1072222"}, {"lat": "8.1666667", "city": "Cicapro", "lon": "-64.0833333"}, {"lat": "9.7083333", "city": "Cintur\u00f3n de Mono", "lon": "-64.065"}, {"lat": "8.1166667", "city": "Cipriano", "lon": "-64.5"}, {"lat": "9.9166667", "city": "Ciruelita", "lon": "-65.0666667"}, {"lat": "9.9166667", "city": "Ciruelito", "lon": "-65.0666667"}, {"lat": "9.9166667", "city": "Ciruelo", "lon": "-65.0666667"}, {"lat": "9.9333333", "city": "Clarines", "lon": "-65.1666667"}, {"lat": "7.9611111", "city": "Cochera", "lon": "-64.8394444"}, {"lat": "8.1333333", "city": "Cochineras Piedra Pinta", "lon": "-65.1333333"}, {"lat": "10.1188889", "city": "Codicia", "lon": "-64.4722222"}, {"lat": "8.35", "city": "Cogollal", "lon": "-64.4666667"}, {"lat": "8.6166667", "city": "Cogollar", "lon": "-63.4111111"}, {"lat": "10.1311111", "city": "Colorada", "lon": "-64.6383333"}, {"lat": "8.7536111", "city": "Coloradito", "lon": "-63.4902778"}, {"lat": "9.3166667", "city": "Comboy", "lon": "-64.4"}, {"lat": "8.9436111", "city": "Concordia", "lon": "-63.9344444"}, {"lat": "10.2455556", "city": "Conoma", "lon": "-64.5294444"}, {"lat": "10.2394444", "city": "Conomita", "lon": "-64.5372222"}, {"lat": "9.8111111", "city": "Conoraima", "lon": "-64.7166667"}, {"lat": "9.9311111", "city": "Conotero", "lon": "-64.6916667"}, {"lat": "8.3944444", "city": "Copaico", "lon": "-63.8616667"}, {"lat": "9.7833333", "city": "Coraboda", "lon": "-65.35"}, {"lat": "8.4563889", "city": "Coralito", "lon": "-62.7975"}, {"lat": "10.1", "city": "Corcoba", "lon": "-64.5666667"}, {"lat": "9.7833333", "city": "Corcobado", "lon": "-65.35"}, {"lat": "9.7833333", "city": "Corcovada", "lon": "-65.35"}, {"lat": "10.1", "city": "Coricual", "lon": "-64.4666667"}, {"lat": "9.7833333", "city": "Corobada", "lon": "-65.35"}, {"lat": "9.1333333", "city": "Corocita", "lon": "-64.8166667"}, {"lat": "9.1333333", "city": "Corocito", "lon": "-64.8166667"}, {"lat": "9.2833333", "city": "Coronel", "lon": "-65.05"}, {"lat": "9.1333333", "city": "Corosita", "lon": "-64.8166667"}, {"lat": "9.5666667", "city": "Coroso", "lon": "-65.2"}, {"lat": "8.9288889", "city": "Corozal", "lon": "-63.3630556"}, {"lat": "8.9666667", "city": "Corozo", "lon": "-63.6166667"}, {"lat": "8.4563889", "city": "Corralito", "lon": "-62.7975"}, {"lat": "9.2666667", "city": "Correa", "lon": "-64.9"}, {"lat": "8.3894444", "city": "Corrientoso", "lon": "-63.1019444"}, {"lat": "9.05", "city": "Corriga", "lon": "-64.9"}, {"lat": "9.05", "city": "Corrigo", "lon": "-64.9"}, {"lat": "9.9916667", "city": "Cotopriz", "lon": "-64.6833333"}, {"lat": "9.9522222", "city": "Cotua", "lon": "-64.6583333"}, {"lat": "8.8816667", "city": "Cristobero", "lon": "-64.0225"}, {"lat": "9.9538889", "city": "Crucero Clarines", "lon": "-65.1611111"}, {"lat": "9.5127778", "city": "Crucero de Aragua", "lon": "-64.4880556"}, {"lat": "9.955", "city": "Crucero el Hatillo", "lon": "-65.1722222"}, {"lat": "9.7372222", "city": "Crucero Granadillo", "lon": "-65.3513889"}, {"lat": "9.7438889", "city": "Crucero Pardillal", "lon": "-65.3416667"}, {"lat": "9.9166667", "city": "Cruz Bel\u00e9n", "lon": "-65.1833333"}, {"lat": "9.8833333", "city": "Cruz de Topocual", "lon": "-64.9166667"}, {"lat": "10.05", "city": "Cruz Verde", "lon": "-64.6666667"}, {"lat": "9.95", "city": "Cuatro", "lon": "-65.1333333"}, {"lat": "8.3716667", "city": "Cucasana", "lon": "-63.2872222"}, {"lat": "10.15", "city": "Cucuta", "lon": "-64.2833333"}, {"lat": "9.0", "city": "Cuico", "lon": "-64.1666667"}, {"lat": "9.15", "city": "Cuiva", "lon": "-64.55"}, {"lat": "9.4", "city": "Cuj\u00ed Gacho", "lon": "-64.9833333"}, {"lat": "9.4", "city": "Cuj\u00edguacha", "lon": "-64.9833333"}, {"lat": "10.0611111", "city": "Culantrillar", "lon": "-64.3277778"}, {"lat": "9.6458333", "city": "Cumaca", "lon": "-64.3225"}, {"lat": "8.4708333", "city": "Cunaguaro", "lon": "-64.2805556"}, {"lat": "10.1333333", "city": "Curaguaro", "lon": "-64.5666667"}, {"lat": "9.95", "city": "Curataguiche", "lon": "-64.5833333"}, {"lat": "9.95", "city": "Curataquiche", "lon": "-64.5833333"}, {"lat": "9.95", "city": "Currucay", "lon": "-65.6"}, {"lat": "8.0338889", "city": "Curujujul", "lon": "-64.9905556"}, {"lat": "9.585", "city": "Curumunta", "lon": "-64.0744444"}, {"lat": "9.41", "city": "Curva de Billo", "lon": "-64.4702778"}, {"lat": "8.1166667", "city": "Cusebe", "lon": "-64.7666667"}, {"lat": "8.2783333", "city": "Cuseve", "lon": "-64.0772222"}, {"lat": "8.0577778", "city": "Daniel", "lon": "-65.0094444"}, {"lat": "9.9727778", "city": "Desparramadero", "lon": "-64.57"}, {"lat": "10.025", "city": "Diego Felipe", "lon": "-64.7916667"}, {"lat": "9.3822222", "city": "Dividive", "lon": "-65.1888889"}, {"lat": "8.1188889", "city": "Domingote", "lon": "-64.605"}, {"lat": "8.8097222", "city": "Dos Matas", "lon": "-63.7152778"}, {"lat": "8.1583333", "city": "Dura Poco", "lon": "-64.7005556"}, {"lat": "8.7233333", "city": "El Aceital", "lon": "-63.0413889"}, {"lat": "7.6727778", "city": "El Aceite", "lon": "-64.8355556"}, {"lat": "8.9588889", "city": "El Aisme", "lon": "-63.8941667"}, {"lat": "9.9833333", "city": "El Alambre", "lon": "-65.3166667"}, {"lat": "8.5836111", "city": "El Alborrobo", "lon": "-63.6361111"}, {"lat": "8.5838889", "city": "El Alero", "lon": "-64.025"}, {"lat": "8.8008333", "city": "El Algarrobo", "lon": "-63.6075"}, {"lat": "9.3666667", "city": "El Alto del Oscurote", "lon": "-64.55"}, {"lat": "8.0605556", "city": "El Alto", "lon": "-64.5327778"}, {"lat": "8.4369444", "city": "El Amparo", "lon": "-63.0058333"}, {"lat": "8.3666667", "city": "El Andino", "lon": "-63.6666667"}, {"lat": "10.1", "city": "El Apamato", "lon": "-64.5"}, {"lat": "7.85", "city": "El Arbolito", "lon": "-65.2333333"}, {"lat": "9.1833333", "city": "El Arenal", "lon": "-64.9333333"}, {"lat": "8.3394444", "city": "El Aro", "lon": "-64.45"}, {"lat": "9.8694444", "city": "El Aserradero", "lon": "-65.0688889"}, {"lat": "8.1666667", "city": "El Atravesado", "lon": "-65.2666667"}, {"lat": "8.7333333", "city": "El Bajo", "lon": "-64.4833333"}, {"lat": "8.3855556", "city": "El Banquito", "lon": "-64.6088889"}, {"lat": "9.4488889", "city": "El Bayito", "lon": "-64.7897222"}, {"lat": "10.0644444", "city": "El Blanco", "lon": "-64.1055556"}, {"lat": "8.07", "city": "El Bolsillo", "lon": "-64.5444444"}, {"lat": "9.5", "city": "El Boquer\u00f3n", "lon": "-65.0833333"}, {"lat": "8.1211111", "city": "El Borracho", "lon": "-64.5388889"}, {"lat": "9.3333333", "city": "El Botal\u00f3n", "lon": "-64.65"}, {"lat": "8.0388889", "city": "El Bote", "lon": "-64.3955556"}, {"lat": "8.1527778", "city": "El Brinco", "lon": "-64.7038889"}, {"lat": "9.9883333", "city": "El Bucare", "lon": "-64.0905556"}, {"lat": "9.9877778", "city": "El Buen Punto", "lon": "-64.355"}, {"lat": "8.8313889", "city": "El Burro", "lon": "-63.7969444"}, {"lat": "10.1166667", "city": "El Cacao", "lon": "-64.5333333"}, {"lat": "9.9333333", "city": "El Caim\u00e1n", "lon": "-64.6833333"}, {"lat": "8.6333333", "city": "El Canaguaro", "lon": "-64.5166667"}, {"lat": "8.0972222", "city": "El Ca\u00f1o", "lon": "-64.7088889"}, {"lat": "9.4741667", "city": "El Cant\u00f3n", "lon": "-64.9330556"}, {"lat": "8.7191667", "city": "El Card\u00f3n", "lon": "-63.2477778"}, {"lat": "9.65", "city": "El Caribe", "lon": "-65.5333333"}, {"lat": "9.7166667", "city": "El Cari\u00f1o", "lon": "-65.0166667"}, {"lat": "8.7916667", "city": "El Caris", "lon": "-64.2638889"}, {"lat": "8.0933333", "city": "El Carito", "lon": "-64.7927778"}, {"lat": "9.2", "city": "El Carmelo", "lon": "-63.8833333"}, {"lat": "9.8152778", "city": "El Carmen", "lon": "-64.13"}, {"lat": "8.8827778", "city": "El Caro", "lon": "-63.8358333"}, {"lat": "8.7858333", "city": "El Caruto", "lon": "-63.4705556"}, {"lat": "8.35", "city": "El Catalinero", "lon": "-64.7333333"}, {"lat": "8.2261111", "city": "El Catire", "lon": "-64.9005556"}, {"lat": "7.9444444", "city": "El Cebruno", "lon": "-64.9933333"}, {"lat": "9.8", "city": "El Cedamo", "lon": "-65.2833333"}, {"lat": "9.9972222", "city": "El Cedral", "lon": "-65.4416667"}, {"lat": "9.8166667", "city": "El Cedro", "lon": "-65.2666667"}, {"lat": "10.2333333", "city": "El Chaparro", "lon": "-64.5416667"}, {"lat": "10.0477778", "city": "El Charal", "lon": "-64.3111111"}, {"lat": "10.2333333", "city": "El Chaure", "lon": "-64.6"}, {"lat": "10.0", "city": "El Cheremero", "lon": "-65.5166667"}, {"lat": "8.55", "city": "El Chinchorro", "lon": "-63.945"}, {"lat": "8.2744444", "city": "El Chiquero", "lon": "-64.625"}, {"lat": "10.1166667", "city": "El Chispero", "lon": "-64.45"}, {"lat": "8.3433333", "city": "El Chup\u00f3n", "lon": "-64.0111111"}, {"lat": "10.0333333", "city": "El Cielo", "lon": "-64.2333333"}, {"lat": "8.0833333", "city": "El Cochino", "lon": "-64.7833333"}, {"lat": "10.0166667", "city": "El Coco", "lon": "-65.3166667"}, {"lat": "9.8316667", "city": "El Cocuy", "lon": "-65.0536111"}, {"lat": "8.13", "city": "El Coloradito", "lon": "-64.7988889"}, {"lat": "8.1255556", "city": "El Colorado", "lon": "-64.79"}, {"lat": "9.3166667", "city": "El Comboy", "lon": "-64.4"}, {"lat": "8.8333333", "city": "El Coronel", "lon": "-64.75"}, {"lat": "8.1808333", "city": "El Corozo", "lon": "-64.4041667"}, {"lat": "10.0333333", "city": "El Crucero", "lon": "-64.6333333"}, {"lat": "8.3061111", "city": "El Cuchillo", "lon": "-64.7322222"}, {"lat": "9.25", "city": "El Cuj\u00ed", "lon": "-65.0666667"}, {"lat": "10.2383333", "city": "El Cumbre", "lon": "-64.5177778"}, {"lat": "8.0227778", "city": "El Curray", "lon": "-64.5766667"}, {"lat": "10.1", "city": "El Danto", "lon": "-64.4"}, {"lat": "10.07", "city": "El Destino", "lon": "-65.3355556"}, {"lat": "10.0411111", "city": "El Diablo", "lon": "-64.2127778"}, {"lat": "9.2863889", "city": "El Diezmero", "lon": "-64.2541667"}, {"lat": "9.7666667", "city": "El Divo", "lon": "-65.35"}, {"lat": "9.2261111", "city": "El Domin\u00f3", "lon": "-63.9827778"}, {"lat": "10.1166667", "city": "El Eneal", "lon": "-64.6"}, {"lat": "7.975", "city": "El Escondido", "lon": "-64.9383333"}, {"lat": "10.0838889", "city": "El Falucho", "lon": "-65.1505556"}, {"lat": "10.0666667", "city": "El Franc\u00e9s", "lon": "-64.4833333"}, {"lat": "9.0597222", "city": "El Fundo", "lon": "-64.3258333"}, {"lat": "9.2833333", "city": "El Gaucho", "lon": "-64.75"}, {"lat": "8.1161111", "city": "El Gavil\u00e1n", "lon": "-64.7905556"}, {"lat": "9.8666667", "city": "El G\u00faacimo", "lon": "-65.6333333"}, {"lat": "9.4", "city": "El Guamache", "lon": "-64.335"}, {"lat": "10.0166667", "city": "El Guamal", "lon": "-64.1"}, {"lat": "9.5969444", "city": "El Guamo", "lon": "-64.6830556"}, {"lat": "9.7416667", "city": "El Guarico", "lon": "-63.9958333"}, {"lat": "9.3533333", "city": "El Guario", "lon": "-64.3336111"}, {"lat": "8.3333333", "city": "El Guasey", "lon": "-64.55"}, {"lat": "8.9597222", "city": "El Gu\u00e1simo", "lon": "-63.5997222"}, {"lat": "9.9333333", "city": "El Guatique", "lon": "-65.2833333"}, {"lat": "8.7402778", "city": "El Guayabo", "lon": "-63.5291667"}, {"lat": "9.15", "city": "El G\u00fcere", "lon": "-64.6666667"}, {"lat": "10.0666667", "city": "El Hatico", "lon": "-64.5333333"}, {"lat": "10.1", "city": "El Hatillo", "lon": "-65.2333333"}, {"lat": "10.0166667", "city": "El Higuerote", "lon": "-65.5833333"}, {"lat": "8.7483333", "city": "El Horizonte", "lon": "-64.8016667"}, {"lat": "8.9111111", "city": "El Hoyal", "lon": "-64.7402778"}, {"lat": "9.0833333", "city": "El Huepe", "lon": "-63.8666667"}, {"lat": "9.0833333", "city": "El Huepo", "lon": "-63.8666667"}, {"lat": "8.6333333", "city": "El Idilio", "lon": "-64.6333333"}, {"lat": "9.7433333", "city": "El Italiano", "lon": "-64.5772222"}, {"lat": "10.0166667", "city": "El Jabillo", "lon": "-64.4194444"}, {"lat": "10.0583333", "city": "El Jard\u00edn", "lon": "-64.0838889"}, {"lat": "9.05", "city": "El Jes\u00fas", "lon": "-64.6"}, {"lat": "8.3191667", "city": "El Jobal", "lon": "-63.2016667"}, {"lat": "9.9405556", "city": "El Jobo", "lon": "-64.7111111"}, {"lat": "10.0833333", "city": "El Jos\u00e9", "lon": "-64.9166667"}, {"lat": "10.05", "city": "El Juncal", "lon": "-64.7833333"}, {"lat": "9.7508333", "city": "El Laberinto", "lon": "-64.0433333"}, {"lat": "9.7666667", "city": "El Ladrillo", "lon": "-64.4333333"}, {"lat": "8.9833333", "city": "El Laysme", "lon": "-63.9"}, {"lat": "10.1666667", "city": "El Lim\u00f3n", "lon": "-64.5666667"}, {"lat": "8.1027778", "city": "El Lindero", "lon": "-64.6522222"}, {"lat": "9.6969444", "city": "El Lucero", "lon": "-64.0461111"}, {"lat": "8.65", "city": "El Macizo", "lon": "-64.95"}, {"lat": "9.3041667", "city": "El Maco", "lon": "-64.3075"}, {"lat": "9.8666667", "city": "El Mamey", "lon": "-65.5166667"}, {"lat": "10.0", "city": "El Mango", "lon": "-65.0"}, {"lat": "8.5983333", "city": "El Manguito", "lon": "-65.0338889"}, {"lat": "7.9555556", "city": "El Manteco", "lon": "-65.2561111"}, {"lat": "10.0416667", "city": "El Maral", "lon": "-64.7783333"}, {"lat": "9.1833333", "city": "El Melero", "lon": "-64.9833333"}, {"lat": "10.0166667", "city": "El Merecural", "lon": "-64.0833333"}, {"lat": "8.8166667", "city": "El Mereicito", "lon": "-63.65"}, {"lat": "10.0166667", "city": "El Merey", "lon": "-64.35"}, {"lat": "8.6583333", "city": "El Milanero", "lon": "-63.2955556"}, {"lat": "8.4766667", "city": "El Modelo", "lon": "-64.3461111"}, {"lat": "9.8", "city": "El Mongo", "lon": "-64.45"}, {"lat": "9.8", "city": "El Mono", "lon": "-65.2166667"}, {"lat": "10.2", "city": "El Morro de Barcelona", "lon": "-64.7"}, {"lat": "10.2", "city": "El Morto de Barcelona", "lon": "-64.6833333"}, {"lat": "9.9333333", "city": "El Mucal", "lon": "-64.6666667"}, {"lat": "9.9166667", "city": "El Muerto", "lon": "-65.3"}, {"lat": "9.85", "city": "El Naranjo", "lon": "-64.7333333"}, {"lat": "8.5461111", "city": "El Negrero", "lon": "-63.5027778"}, {"lat": "9.2666667", "city": "El Olivo", "lon": "-64.7833333"}, {"lat": "8.55", "city": "El Oscurito", "lon": "-64.7666667"}, {"lat": "8.8391667", "city": "El Oso", "lon": "-63.7708333"}, {"lat": "9.9466667", "city": "El Pajar", "lon": "-64.7416667"}, {"lat": "9.9622222", "city": "El P\u00e1jaro", "lon": "-65.4738889"}, {"lat": "8.8333333", "city": "El Palito", "lon": "-63.45"}, {"lat": "9.3711111", "city": "El Palmar", "lon": "-64.7336111"}, {"lat": "7.6705556", "city": "El Palmero", "lon": "-64.8494444"}, {"lat": "8.8", "city": "El Pao de Barcelona", "lon": "-64.6333333"}, {"lat": "8.8", "city": "El Pao", "lon": "-64.6333333"}, {"lat": "10.0216667", "city": "El Paradero", "lon": "-64.4072222"}, {"lat": "8.1305556", "city": "El Para\u00edso", "lon": "-64.8033333"}, {"lat": "8.8", "city": "El Paramadero", "lon": "-64.3166667"}, {"lat": "8.4441667", "city": "El P\u00e1ramo", "lon": "-63.8297222"}, {"lat": "8.4058333", "city": "El Pardillal", "lon": "-63.3730556"}, {"lat": "9.3166667", "city": "El Paruro", "lon": "-64.4833333"}, {"lat": "8.8427778", "city": "El Paso de Mayori", "lon": "-63.8291667"}, {"lat": "8.4213889", "city": "El Patillo", "lon": "-63.3708333"}, {"lat": "9.6", "city": "El Pauj\u00ed", "lon": "-64.4666667"}, {"lat": "9.915", "city": "El Payaso", "lon": "-64.7461111"}, {"lat": "9.6166667", "city": "El Peg\u00f3n", "lon": "-65.2"}, {"lat": "8.1", "city": "El Peine", "lon": "-65.2166667"}, {"lat": "9.3666667", "city": "El Penado", "lon": "-64.6"}, {"lat": "9.2", "city": "El Penunal", "lon": "-63.8666667"}, {"lat": "9.3666667", "city": "El Pere\u00f1o", "lon": "-65.1666667"}, {"lat": "9.3211111", "city": "El Pericoco", "lon": "-64.3702778"}, {"lat": "9.2833333", "city": "El Peride", "lon": "-64.5166667"}, {"lat": "7.9905556", "city": "El Perro", "lon": "-64.855"}, {"lat": "8.1972222", "city": "El Picacho", "lon": "-64.4744444"}, {"lat": "9.95", "city": "El Pilar", "lon": "-64.8"}, {"lat": "8.1788889", "city": "El Pil\u00f3n", "lon": "-64.6827778"}, {"lat": "8.4483333", "city": "El Pi\u00f1al", "lon": "-64.8511111"}, {"lat": "9.2005556", "city": "El Pirara", "lon": "-64.4452778"}, {"lat": "9.9366667", "city": "El Placer", "lon": "-65.6988889"}, {"lat": "8.1011111", "city": "El Play\u00f3n", "lon": "-64.7955556"}, {"lat": "8.3094444", "city": "El Polvero", "lon": "-64.3044444"}, {"lat": "9.0", "city": "El Portillo", "lon": "-64.6666667"}, {"lat": "9.4541667", "city": "El Port\u00f3n", "lon": "-64.5155556"}, {"lat": "10.0211111", "city": "El Potrero", "lon": "-64.4183333"}, {"lat": "9.2166667", "city": "El Progreso", "lon": "-65.15"}, {"lat": "8.0166667", "city": "El Puyazo", "lon": "-64.5333333"}, {"lat": "8.4844444", "city": "El Quebrad\u00f3n", "lon": "-64.8938889"}, {"lat": "9.3666667", "city": "El Quiebrahacho", "lon": "-65.2666667"}, {"lat": "9.1666667", "city": "El Recreo", "lon": "-64.9333333"}, {"lat": "9.8633333", "city": "El Refugio", "lon": "-64.7216667"}, {"lat": "8.05", "city": "El Respeto", "lon": "-64.7666667"}, {"lat": "9.9666667", "city": "El Respiro", "lon": "-65.4666667"}, {"lat": "9.5111111", "city": "El Retamo", "lon": "-65.1263889"}, {"lat": "10.2", "city": "El Retumbo", "lon": "-64.5522222"}, {"lat": "9.8333333", "city": "El Rey", "lon": "-65.45"}, {"lat": "10.1333333", "city": "El Rinc\u00f3n", "lon": "-64.5833333"}, {"lat": "9.1166667", "city": "El Roblar", "lon": "-64.6333333"}, {"lat": "8.3733333", "city": "El Roble", "lon": "-64.905"}, {"lat": "9.2194444", "city": "El Roblote", "lon": "-65.05"}, {"lat": "8.0666667", "city": "El Rodeo", "lon": "-65.0333333"}, {"lat": "8.2083333", "city": "El Rosario", "lon": "-64.4922222"}, {"lat": "8.1833333", "city": "El Saco", "lon": "-64.6166667"}, {"lat": "10.0166667", "city": "El Salado", "lon": "-64.85"}, {"lat": "10.15", "city": "El Salto", "lon": "-64.5166667"}, {"lat": "9.8063889", "city": "El Sam\u00e1n", "lon": "-64.1338889"}, {"lat": "9.9166667", "city": "El Sapo", "lon": "-65.0166667"}, {"lat": "9.6833333", "city": "El Saqueo", "lon": "-65.4166667"}, {"lat": "10.1", "city": "El Socorro", "lon": "-64.55"}, {"lat": "9.6833333", "city": "El Tanquecito", "lon": "-65.4166667"}, {"lat": "9.9333333", "city": "El Tanque", "lon": "-65.6833333"}, {"lat": "9.6833333", "city": "El Tanquesito", "lon": "-65.4166667"}, {"lat": "10.05", "city": "El Tejar", "lon": "-65.0166667"}, {"lat": "8.3166667", "city": "El Teranero", "lon": "-63.7477778"}, {"lat": "8.4261111", "city": "El Tesoro", "lon": "-64.6483333"}, {"lat": "8.4705556", "city": "El Tet\u00f3n", "lon": "-64.6369444"}, {"lat": "8.8925", "city": "El Tigre", "lon": "-64.2527778"}, {"lat": "8.8933333", "city": "El Tigrito", "lon": "-64.1591667"}, {"lat": "10.0166667", "city": "El Toco", "lon": "-64.6666667"}, {"lat": "9.1833333", "city": "El Topo", "lon": "-64.85"}, {"lat": "8.15", "city": "El Toro", "lon": "-64.4166667"}, {"lat": "8.4294444", "city": "El Torre\u00f1o", "lon": "-63.235"}, {"lat": "8.1077778", "city": "El Totumo", "lon": "-64.755"}, {"lat": "10.1338889", "city": "El Toyano", "lon": "-64.475"}, {"lat": "9.6166667", "city": "El Tranquero", "lon": "-65.4166667"}, {"lat": "9.8005556", "city": "El Tunt\u00fan", "lon": "-63.9927778"}, {"lat": "9.23", "city": "El Uvero", "lon": "-63.9722222"}, {"lat": "9.9", "city": "El Valle de Guanape", "lon": "-65.6833333"}, {"lat": "8.3783333", "city": "El Valle", "lon": "-64.6666667"}, {"lat": "8.8788889", "city": "El Vasquero", "lon": "-64.1208333"}, {"lat": "8.3166667", "city": "El Venado", "lon": "-64.6333333"}, {"lat": "8.8363889", "city": "El Yopo", "lon": "-63.7402778"}, {"lat": "10.0333333", "city": "El Zamuro", "lon": "-64.2833333"}, {"lat": "8.1083333", "city": "El Zorro", "lon": "-64.7888889"}, {"lat": "9.6166667", "city": "Encantada", "lon": "-65.1833333"}, {"lat": "7.9116667", "city": "Encrucijada del Alcornocote", "lon": "-64.7027778"}, {"lat": "9.9766667", "city": "Espuma", "lon": "-65.1583333"}, {"lat": "8.3569444", "city": "Falconero", "lon": "-63.6044444"}, {"lat": "10.0166667", "city": "Felipe", "lon": "-64.7833333"}, {"lat": "9.2833333", "city": "Fernandero", "lon": "-65.0666667"}, {"lat": "9.4816667", "city": "Finlandia", "lon": "-64.7938889"}, {"lat": "8.1166667", "city": "Flores", "lon": "-65.0"}, {"lat": "9.9166667", "city": "Fundaci\u00f3n", "lon": "-64.55"}, {"lat": "8.3422222", "city": "Gabriel", "lon": "-63.4372222"}, {"lat": "10.0666667", "city": "Galer\u00f3n", "lon": "-64.35"}, {"lat": "9.0333333", "city": "Garrapata", "lon": "-64.55"}, {"lat": "9.4272222", "city": "Gato Negro", "lon": "-64.8541667"}, {"lat": "7.8672222", "city": "Golofa", "lon": "-65.005"}, {"lat": "9.5108333", "city": "G\u00f3mez", "lon": "-64.7191667"}, {"lat": "9.05", "city": "Guacamayo", "lon": "-64.8666667"}, {"lat": "9.7333333", "city": "Guachabacas", "lon": "-65.05"}, {"lat": "9.7333333", "city": "Guacharaca", "lon": "-65.05"}, {"lat": "9.7011111", "city": "Guadalajara", "lon": "-64.5383333"}, {"lat": "8.7666667", "city": "Guadalupe", "lon": "-63.6"}, {"lat": "8.1494444", "city": "Guaicupa", "lon": "-64.3986111"}, {"lat": "9.8933333", "city": "Guaipo", "lon": "-64.6633333"}, {"lat": "9.2333333", "city": "Guamachito", "lon": "-64.9166667"}, {"lat": "9.9166667", "city": "Guanape", "lon": "-65.5166667"}, {"lat": "9.85", "city": "Guanapito", "lon": "-65.35"}, {"lat": "9.9", "city": "Guanay\u00e9n", "lon": "-64.6833333"}, {"lat": "9.1", "city": "Guanipa", "lon": "-64.3"}, {"lat": "9.65", "city": "Guanotal", "lon": "-65.0833333"}, {"lat": "10.2333333", "city": "Guanta", "lon": "-64.6"}, {"lat": "9.9166667", "city": "Guapa", "lon": "-65.25"}, {"lat": "10.2166667", "city": "Guaraguao", "lon": "-64.6333333"}, {"lat": "8.3961111", "city": "Guaralito", "lon": "-64.8822222"}, {"lat": "10.0166667", "city": "Guaramaco", "lon": "-65.2"}, {"lat": "8.0166667", "city": "Guara\u00fano", "lon": "-64.1283333"}, {"lat": "8.9383333", "city": "Guarenas", "lon": "-63.6138889"}, {"lat": "8.565", "city": "Guarenero", "lon": "-64.9188889"}, {"lat": "9.7666667", "city": "Guaribe", "lon": "-65.4833333"}, {"lat": "9.0752778", "city": "Guarico", "lon": "-64.2333333"}, {"lat": "9.9", "city": "Guarimata", "lon": "-64.7166667"}, {"lat": "9.3533333", "city": "Guario", "lon": "-64.3336111"}, {"lat": "9.9166667", "city": "Guariquero", "lon": "-64.8833333"}, {"lat": "8.5666667", "city": "Guaritotal", "lon": "-63.9"}, {"lat": "9.4288889", "city": "Guaritoto", "lon": "-64.7561111"}, {"lat": "8.3383333", "city": "Guaro", "lon": "-64.5044444"}, {"lat": "8.2666667", "city": "Guasayero", "lon": "-63.6166667"}, {"lat": "8.5383333", "city": "Guasdualito", "lon": "-64.8077778"}, {"lat": "8.9597222", "city": "Gu\u00e1simo", "lon": "-63.5997222"}, {"lat": "9.5688889", "city": "Guastrantal", "lon": "-64.9825"}, {"lat": "9.0644444", "city": "Guatacarito", "lon": "-65.0216667"}, {"lat": "9.2388889", "city": "Guatacaro", "lon": "-64.9505556"}, {"lat": "10.2", "city": "Guatamare", "lon": "-64.55"}, {"lat": "8.3", "city": "Guataparo", "lon": "-63.7333333"}, {"lat": "9.9333333", "city": "Guatique", "lon": "-65.2833333"}, {"lat": "8.2833333", "city": "Guatire", "lon": "-64.8666667"}, {"lat": "10.2", "city": "Guayabal", "lon": "-64.5"}, {"lat": "10.2122222", "city": "Guayuta", "lon": "-64.5083333"}, {"lat": "9.0644444", "city": "G\u00fcepe", "lon": "-63.8302778"}, {"lat": "9.15", "city": "G\u00fcere", "lon": "-64.6666667"}, {"lat": "9.1166667", "city": "Guibimba", "lon": "-63.6166667"}, {"lat": "9.0102778", "city": "G\u00fcico", "lon": "-64.1291667"}, {"lat": "9.9866667", "city": "Guinsero", "lon": "-64.6716667"}, {"lat": "9.2705556", "city": "G\u00fcire", "lon": "-64.2452778"}, {"lat": "8.9402778", "city": "Guita Fr\u00edo", "lon": "-63.5566667"}, {"lat": "9.5358333", "city": "Guzmanero", "lon": "-64.9072222"}, {"lat": "8.6166667", "city": "Hamaca", "lon": "-64.4166667"}, {"lat": "8.6516667", "city": "Hato Campo Lindo", "lon": "-64.5611111"}, {"lat": "8.4372222", "city": "Hato Paraulata", "lon": "-64.6916667"}, {"lat": "9.75", "city": "Herrera", "lon": "-65.2833333"}, {"lat": "10.0166667", "city": "Higuerote", "lon": "-65.5833333"}, {"lat": "10.0666667", "city": "Hoces", "lon": "-64.8833333"}, {"lat": "8.3263889", "city": "Hogaza", "lon": "-63.4880556"}, {"lat": "8.5583333", "city": "Hornito", "lon": "-64.5322222"}, {"lat": "9.7744444", "city": "Huerta Larga", "lon": "-65.0577778"}, {"lat": "9.85", "city": "Irama", "lon": "-64.0166667"}, {"lat": "8.7180556", "city": "Isidore\u00f1o", "lon": "-64.6733333"}, {"lat": "8.5", "city": "Jabillal", "lon": "-65.15"}, {"lat": "8.7572222", "city": "Jabillar", "lon": "-62.9683333"}, {"lat": "9.2666667", "city": "Jag\u00fceicito", "lon": "-65.0333333"}, {"lat": "9.2538889", "city": "Jobalito", "lon": "-64.2125"}, {"lat": "8.85", "city": "Jobito", "lon": "-64.9261111"}, {"lat": "9.7716667", "city": "Jobo Codeado", "lon": "-64.7705556"}, {"lat": "9.15", "city": "Jobo Toc\u00f3n", "lon": "-64.8"}, {"lat": "8.9833333", "city": "Josefina", "lon": "-63.7"}, {"lat": "9.95", "city": "Juajual", "lon": "-64.9"}, {"lat": "9.2", "city": "Juajuillas", "lon": "-64.65"}, {"lat": "9.7872222", "city": "Juan Antonio", "lon": "-64.6877778"}, {"lat": "8.2833333", "city": "Juana Rosa", "lon": "-63.4833333"}, {"lat": "8.0966667", "city": "Juancho L\u00f3pez", "lon": "-64.5977778"}, {"lat": "8.1647222", "city": "Juan Esteban", "lon": "-63.9888889"}, {"lat": "9.3", "city": "Juan Felipe", "lon": "-64.6166667"}, {"lat": "9.925", "city": "Juan Isidro", "lon": "-64.8"}, {"lat": "8.4538889", "city": "Juan Luis", "lon": "-64.3188889"}, {"lat": "9.9583333", "city": "Juan Nicol\u00e1s", "lon": "-64.6333333"}, {"lat": "8.45", "city": "Juasjuillal", "lon": "-63.0388889"}, {"lat": "10.05", "city": "Juncai", "lon": "-64.7833333"}, {"lat": "10.05", "city": "Juncal", "lon": "-64.7833333"}, {"lat": "9.9166667", "city": "Juncialito", "lon": "-64.8666667"}, {"lat": "10.0133333", "city": "La Acequia", "lon": "-64.3544444"}, {"lat": "10.1677778", "city": "La Adjunta", "lon": "-64.5216667"}, {"lat": "8.2472222", "city": "La Alegria", "lon": "-65.1416667"}, {"lat": "8.5633333", "city": "La Alejandr\u00eda", "lon": "-63.9163889"}, {"lat": "10.0", "city": "La Almita", "lon": "-64.55"}, {"lat": "10.0833333", "city": "La Angostura", "lon": "-64.5833333"}, {"lat": "8.4983333", "city": "La Arenosa", "lon": "-64.955"}, {"lat": "10.0166667", "city": "La Asunci\u00f3n", "lon": "-65.0666667"}, {"lat": "7.8788889", "city": "La Atascosa Abajo", "lon": "-65.0633333"}, {"lat": "8.2227778", "city": "La Aurora", "lon": "-64.8988889"}, {"lat": "9.8338889", "city": "La Baba", "lon": "-64.3622222"}, {"lat": "9.0166667", "city": "La Barca", "lon": "-64.9166667"}, {"lat": "9.8666667", "city": "La Basura", "lon": "-65.45"}, {"lat": "9.1", "city": "La Beatriz", "lon": "-64.7666667"}, {"lat": "8.2661111", "city": "La Boca del Lindero", "lon": "-63.5461111"}, {"lat": "8.3333333", "city": "La Boca", "lon": "-64.6333333"}, {"lat": "8.6166667", "city": "La Bodega", "lon": "-64.05"}, {"lat": "8.55", "city": "La Bomba", "lon": "-64.4833333"}, {"lat": "8.75", "city": "La Bonanza", "lon": "-64.5166667"}, {"lat": "9.3616667", "city": "La Bonita", "lon": "-64.7155556"}, {"lat": "10.0166667", "city": "La Boquerita", "lon": "-64.65"}, {"lat": "8.5333333", "city": "La Botija", "lon": "-64.7166667"}, {"lat": "8.2833333", "city": "La Buena Esperanza", "lon": "-63.6166667"}, {"lat": "8.3061111", "city": "La Buena Moza", "lon": "-64.63"}, {"lat": "9.9", "city": "La Burrera", "lon": "-64.6833333"}, {"lat": "9.45", "city": "La Busaca", "lon": "-65.0666667"}, {"lat": "9.6072222", "city": "La Busca", "lon": "-65.1877778"}, {"lat": "9.45", "city": "La Buscaza", "lon": "-65.0666667"}, {"lat": "10.1", "city": "La Cabecera", "lon": "-63.9633333"}, {"lat": "8.2833333", "city": "La Cabeza", "lon": "-65.0666667"}, {"lat": "8.1616667", "city": "La Calceta", "lon": "-64.7138889"}, {"lat": "9.8666667", "city": "La Caler\u00eda", "lon": "-64.75"}, {"lat": "8.6008333", "city": "La Canoa", "lon": "-63.8716667"}, {"lat": "8.1666667", "city": "La Cantina", "lon": "-63.8666667"}, {"lat": "8.2438889", "city": "La Capona", "lon": "-64.6066667"}, {"lat": "10.1833333", "city": "La Caraque\u00f1a", "lon": "-64.55"}, {"lat": "9.9333333", "city": "La Carata", "lon": "-64.1666667"}, {"lat": "9.945", "city": "La Carreta", "lon": "-64.5622222"}, {"lat": "8.3666667", "city": "La Casa Andina", "lon": "-63.6666667"}, {"lat": "8.065", "city": "La Casita", "lon": "-65.2238889"}, {"lat": "8.4727778", "city": "La Causa", "lon": "-64.6866667"}, {"lat": "9.8333333", "city": "La Cecilia", "lon": "-65.25"}, {"lat": "9.6", "city": "La Ceiba de Quisandal", "lon": "-65.2333333"}, {"lat": "8.1022222", "city": "La Ceiba", "lon": "-64.7133333"}, {"lat": "10.0166667", "city": "La Ceniza", "lon": "-64.2"}, {"lat": "9.85", "city": "La Centella", "lon": "-64.75"}, {"lat": "10.1", "city": "La Cerca", "lon": "-65.2"}, {"lat": "9.2", "city": "La Chaguarama", "lon": "-63.75"}, {"lat": "9.7166667", "city": "La Chica", "lon": "-65.1333333"}, {"lat": "8.535", "city": "La Chimenea", "lon": "-63.5066667"}, {"lat": "9.9333333", "city": "La China", "lon": "-64.9166667"}, {"lat": "9.8666667", "city": "La Chorrera", "lon": "-64.5333333"}, {"lat": "9.8333333", "city": "La Cirilera", "lon": "-65.5"}, {"lat": "8.6666667", "city": "La Colina", "lon": "-65.1"}, {"lat": "8.1333333", "city": "La Colmena", "lon": "-65.0333333"}, {"lat": "9.5633333", "city": "La Comunidad", "lon": "-64.3627778"}, {"lat": "8.35", "city": "La Concepci\u00f3n", "lon": "-64.0166667"}, {"lat": "8.9436111", "city": "La Concordia", "lon": "-63.9344444"}, {"lat": "8.8819444", "city": "La Conquista", "lon": "-64.0702778"}, {"lat": "10.1016667", "city": "La Corcovada", "lon": "-64.5666667"}, {"lat": "9.2833333", "city": "La Corona", "lon": "-64.7"}, {"lat": "10.0872222", "city": "La Crucecita", "lon": "-64.6538889"}, {"lat": "10.0833333", "city": "La Crucita", "lon": "-64.65"}, {"lat": "9.9166667", "city": "La Cruz de Bel\u00e9n", "lon": "-65.1833333"}, {"lat": "9.3027778", "city": "La Cruz de la Paloma", "lon": "-64.6544444"}, {"lat": "8.8166667", "city": "La Cruz", "lon": "-64.65"}, {"lat": "9.9038889", "city": "La Cruz Verde", "lon": "-65.5466667"}, {"lat": "9.8988889", "city": "La Cuarera", "lon": "-65.0727778"}, {"lat": "10.0166667", "city": "La Cuesta", "lon": "-64.4"}, {"lat": "7.8544444", "city": "La Cueva", "lon": "-65.0216667"}, {"lat": "10.0627778", "city": "La Culebra", "lon": "-64.0405556"}, {"lat": "7.9694444", "city": "La Culebrita", "lon": "-65.0788889"}, {"lat": "9.6458333", "city": "La Cumaca", "lon": "-64.3225"}, {"lat": "9.3", "city": "La Cupata", "lon": "-64.7333333"}, {"lat": "9.95", "city": "La Curbatera", "lon": "-64.8666667"}, {"lat": "8.3038889", "city": "La Danta", "lon": "-64.7227778"}, {"lat": "9.2466667", "city": "La Disputa", "lon": "-64.865"}, {"lat": "8.1166667", "city": "La Dormida", "lon": "-65.1333333"}, {"lat": "8.7", "city": "La Empalizada", "lon": "-64.6833333"}, {"lat": "9.7", "city": "La Encantada", "lon": "-65.1833333"}, {"lat": "8.2866667", "city": "La Encrucijada", "lon": "-64.8933333"}, {"lat": "9.25", "city": "La Enea", "lon": "-65.1166667"}, {"lat": "9.7833333", "city": "La Erica", "lon": "-65.0505556"}, {"lat": "9.6972222", "city": "La Escondida", "lon": "-65.1944444"}, {"lat": "8.135", "city": "La Esmeralda", "lon": "-64.3708333"}, {"lat": "8.2627778", "city": "La Esperanza de Guatire", "lon": "-64.8822222"}, {"lat": "8.1166667", "city": "La Esperanza", "lon": "-64.65"}, {"lat": "8.245", "city": "La Esquina", "lon": "-64.6277778"}, {"lat": "9.175", "city": "La Estrella", "lon": "-64.9161111"}, {"lat": "8.2605556", "city": "La Fe", "lon": "-64.9511111"}, {"lat": "9.1833333", "city": "La Fernandez", "lon": "-64.0666667"}, {"lat": "10.0783333", "city": "La Fila", "lon": "-64.3255556"}, {"lat": "10.1805556", "city": "La Florida", "lon": "-64.4811111"}, {"lat": "9.1", "city": "La Fortaleza", "lon": "-64.8333333"}, {"lat": "8.1138889", "city": "La Fortuna", "lon": "-64.1805556"}, {"lat": "9.3666667", "city": "La Fragua", "lon": "-65.1"}, {"lat": "8.1111111", "city": "La Francia", "lon": "-64.9527778"}, {"lat": "8.4655556", "city": "La Frontera", "lon": "-64.76"}, {"lat": "8.8325", "city": "La Fundacion del Tigre", "lon": "-63.7197222"}, {"lat": "8.8325", "city": "La Fundaci\u00f3n", "lon": "-63.7197222"}, {"lat": "8.8325", "city": "La Fundaci\u00f3n Tigre", "lon": "-63.7197222"}, {"lat": "8.8325", "city": "La Fundasi\u00f3n", "lon": "-63.7197222"}, {"lat": "9.7333333", "city": "La Gallera", "lon": "-64.5833333"}, {"lat": "8.5333333", "city": "La Gloria", "lon": "-64.9333333"}, {"lat": "9.0266667", "city": "La Golofa", "lon": "-63.6944444"}, {"lat": "9.6666667", "city": "La Granza", "lon": "-65.3"}, {"lat": "8.4738889", "city": "La Guacharaca", "lon": "-64.8038889"}, {"lat": "10.1", "city": "La Guanota", "lon": "-64.3905556"}, {"lat": "9.9333333", "city": "La Guapanica", "lon": "-64.85"}, {"lat": "9.9555556", "city": "La Guarachera", "lon": "-64.8127778"}, {"lat": "9.9333333", "city": "La Guaramita", "lon": "-64.85"}, {"lat": "9.4333333", "city": "La Guasduilla", "lon": "-65.1333333"}, {"lat": "9.9166667", "city": "La Guasimita", "lon": "-65.45"}, {"lat": "9.6694444", "city": "La Guatarama Abajo", "lon": "-64.5238889"}, {"lat": "8.15", "city": "Laguna Amarilla", "lon": "-65.1666667"}, {"lat": "9.9388889", "city": "Laguna Chimis", "lon": "-64.9233333"}, {"lat": "8.0861111", "city": "Laguna", "lon": "-65.0427778"}, {"lat": "9.95", "city": "Lagunita Barrancones", "lon": "-65.2333333"}, {"lat": "9.6166667", "city": "Lagunita", "lon": "-65.2833333"}, {"lat": "9.485", "city": "La Guzmanera", "lon": "-64.7883333"}, {"lat": "7.8716667", "city": "La Horqueta", "lon": "-64.6677778"}, {"lat": "9.7166667", "city": "La Iguana", "lon": "-65.3166667"}, {"lat": "9.6030556", "city": "La Isla", "lon": "-64.0572222"}, {"lat": "7.6966667", "city": "Laja de Musiu Ignacio", "lon": "-64.7655556"}, {"lat": "8.2166667", "city": "La Jarilla", "lon": "-64.9"}, {"lat": "8.9833333", "city": "La Josefina", "lon": "-63.7"}, {"lat": "10.2333333", "city": "La Laguna", "lon": "-64.5333333"}, {"lat": "10.2", "city": "La Lecher\u00eda", "lon": "-64.7"}, {"lat": "8.7166667", "city": "La Leona", "lon": "-65.0666667"}, {"lat": "9.7727778", "city": "La Libertad", "lon": "-64.3013889"}, {"lat": "9.4166667", "city": "La Lira", "lon": "-64.8"}, {"lat": "9.7816667", "city": "La Llapera", "lon": "-64.7466667"}, {"lat": "9.2713889", "city": "La Loma del Toro", "lon": "-64.2166667"}, {"lat": "9.2333333", "city": "La Loma", "lon": "-64.9"}, {"lat": "9.1166667", "city": "La Loma Mijare\u00f1a", "lon": "-64.8166667"}, {"lat": "9.5808333", "city": "La Lorena", "lon": "-64.3172222"}, {"lat": "9.8583333", "city": "La Lorencera", "lon": "-65.6422222"}, {"lat": "8.1872222", "city": "La Lucha", "lon": "-64.4483333"}, {"lat": "9.5666667", "city": "La Madre Vieja", "lon": "-65.2166667"}, {"lat": "9.8333333", "city": "La Mamposter\u00eda", "lon": "-64.6333333"}, {"lat": "10.0166667", "city": "La Maravilla", "lon": "-64.2666667"}, {"lat": "9.6833333", "city": "La Margarita", "lon": "-64.9666667"}, {"lat": "10.0666667", "city": "La Margarite\u00f1a", "lon": "-64.4905556"}, {"lat": "10.0155556", "city": "La Mascota", "lon": "-65.0255556"}, {"lat": "10.0061111", "city": "La Mata de Cafe", "lon": "-64.2961111"}, {"lat": "9.2105556", "city": "La Mata de Medio", "lon": "-63.8972222"}, {"lat": "10.05", "city": "La Matuta", "lon": "-64.55"}, {"lat": "9.2166667", "city": "La Mayita", "lon": "-65.15"}, {"lat": "10.0488889", "city": "Lamedero", "lon": "-64.4216667"}, {"lat": "10.0", "city": "La Median\u00eda", "lon": "-65.0666667"}, {"lat": "8.7277778", "city": "La Mirandera", "lon": "-64.8083333"}, {"lat": "8.2966667", "city": "La Misa", "lon": "-64.4783333"}, {"lat": "9.1666667", "city": "La Mitad", "lon": "-64.5666667"}, {"lat": "10.0844444", "city": "La Mona", "lon": "-64.3138889"}, {"lat": "10.0583333", "city": "La Monta\u00f1a", "lon": "-64.3488889"}, {"lat": "9.9116667", "city": "La Mota", "lon": "-64.5472222"}, {"lat": "8.05", "city": "La Muchacha", "lon": "-65.2166667"}, {"lat": "9.3666667", "city": "La Mula", "lon": "-65.05"}, {"lat": "8.65", "city": "La Negra", "lon": "-64.5"}, {"lat": "8.8436111", "city": "La Nueva Lucha", "lon": "-63.4547222"}, {"lat": "8.8833333", "city": "La Oficina", "lon": "-64.3"}, {"lat": "9.2833333", "city": "La Oliva", "lon": "-64.7833333"}, {"lat": "9.2833333", "city": "La Olivia", "lon": "-64.7833333"}, {"lat": "8.1166667", "city": "La Orejana", "lon": "-65.2833333"}, {"lat": "8.0561111", "city": "La Orilla", "lon": "-64.4594444"}, {"lat": "8.0077778", "city": "La Oripopa", "lon": "-65.0388889"}, {"lat": "9.8055556", "city": "La Osa", "lon": "-65.5144444"}, {"lat": "10.05", "city": "La Padillera", "lon": "-65.0166667"}, {"lat": "9.3166667", "city": "La Paja", "lon": "-64.5833333"}, {"lat": "10.0", "city": "La Palmita", "lon": "-64.7666667"}, {"lat": "8.6333333", "city": "La Panchita", "lon": "-64.9"}, {"lat": "10.0166667", "city": "La Panela", "lon": "-64.35"}, {"lat": "9.25", "city": "La Pascualita", "lon": "-64.2833333"}, {"lat": "8.5194444", "city": "La Pasma", "lon": "-63.6122222"}, {"lat": "8.2683333", "city": "La Pastora", "lon": "-63.7452778"}, {"lat": "7.7738889", "city": "La Paulinera", "lon": "-64.7511111"}, {"lat": "10.0377778", "city": "La Pedrera", "lon": "-65.2094444"}, {"lat": "10.05", "city": "La Pega", "lon": "-64.2833333"}, {"lat": "10.0666667", "city": "La Peluda", "lon": "-63.9666667"}, {"lat": "8.1902778", "city": "La Pe\u00f1a", "lon": "-63.545"}, {"lat": "9.195", "city": "La Perena", "lon": "-64.8955556"}, {"lat": "9.3166667", "city": "La Perra", "lon": "-64.9"}, {"lat": "9.4", "city": "La Petronera", "lon": "-65.0833333"}, {"lat": "10.0466667", "city": "La Pica", "lon": "-64.6583333"}, {"lat": "8.2527778", "city": "La Piedra", "lon": "-64.5933333"}, {"lat": "9.7333333", "city": "La Pintera", "lon": "-65.5"}, {"lat": "8.9941667", "city": "La Pistola", "lon": "-63.6833333"}, {"lat": "9.9036111", "city": "La Placeta", "lon": "-64.0791667"}, {"lat": "9.7166667", "city": "La Placita", "lon": "-65.4666667"}, {"lat": "9.4227778", "city": "La Platera", "lon": "-64.8561111"}, {"lat": "9.3666667", "city": "La Porfiria", "lon": "-64.6"}, {"lat": "8.1216667", "city": "La Pradera", "lon": "-64.62"}, {"lat": "9.7833333", "city": "La Prusia", "lon": "-65.6666667"}, {"lat": "9.7772222", "city": "La Puente", "lon": "-65.0422222"}, {"lat": "7.75", "city": "La Puerta", "lon": "-64.9277778"}, {"lat": "7.6788889", "city": "La Punta", "lon": "-64.8027778"}, {"lat": "7.9133333", "city": "La Quesera", "lon": "-64.8427778"}, {"lat": "10.0166667", "city": "La Quiarera", "lon": "-65.0666667"}, {"lat": "8.2666667", "city": "La Quinta", "lon": "-64.9666667"}, {"lat": "10.0427778", "city": "La Reforma", "lon": "-64.3322222"}, {"lat": "8.0911111", "city": "La Renca", "lon": "-64.7133333"}, {"lat": "8.7733333", "city": "La Represa", "lon": "-64.6736111"}, {"lat": "9.95", "city": "La Requenera", "lon": "-65.0625"}, {"lat": "8.57", "city": "La Reserva", "lon": "-63.9566667"}, {"lat": "9.8333333", "city": "La Riquera", "lon": "-64.8166667"}, {"lat": "9.7333333", "city": "La Romere\u00f1a", "lon": "-64.6166667"}, {"lat": "7.7666667", "city": "La Rudania", "lon": "-64.6333333"}, {"lat": "8.1677778", "city": "La Rueda", "lon": "-64.7627778"}, {"lat": "9.4833333", "city": "La Sabaneta", "lon": "-64.4333333"}, {"lat": "8.2", "city": "Las Aguaditas", "lon": "-65.0833333"}, {"lat": "9.45", "city": "Las Araguatas", "lon": "-65.1666667"}, {"lat": "8.2", "city": "La Sardina", "lon": "-64.55"}, {"lat": "9.3166667", "city": "La Sargera", "lon": "-64.5"}, {"lat": "8.0944444", "city": "Las Babas", "lon": "-65.1527778"}, {"lat": "9.4", "city": "Las B\u00e1quiras", "lon": "-65.2166667"}, {"lat": "8.7369444", "city": "Las Bombitas", "lon": "-63.5194444"}, {"lat": "9.1833333", "city": "Las Bonitas", "lon": "-64.75"}, {"lat": "8.0811111", "city": "Las Brisas", "lon": "-64.545"}, {"lat": "8.7666667", "city": "Las Camazas", "lon": "-64.5833333"}, {"lat": "8.9605556", "city": "Las Ca\u00f1itas", "lon": "-63.3986111"}, {"lat": "9.9", "city": "Las Caros", "lon": "-65.5333333"}, {"lat": "10.0061111", "city": "Las Carutas", "lon": "-64.4183333"}, {"lat": "8.9666667", "city": "Las Casitas", "lon": "-63.4"}, {"lat": "9.9", "city": "Las Chaguaramas", "lon": "-65.6333333"}, {"lat": "8.1494444", "city": "Las Cochinas", "lon": "-64.1488889"}, {"lat": "9.8333333", "city": "Las Cocuicitas", "lon": "-65.65"}, {"lat": "9.6833333", "city": "Las Cocuizas", "lon": "-64.8"}, {"lat": "8.1", "city": "Las Colmenas", "lon": "-65.05"}, {"lat": "8.9166667", "city": "Las Coraguas", "lon": "-63.3833333"}, {"lat": "8.5658333", "city": "Las Corobas", "lon": "-63.9777778"}, {"lat": "8.3333333", "city": "Las Crucecitas", "lon": "-64.6666667"}, {"lat": "9.6333333", "city": "Las Cruces", "lon": "-65.1833333"}, {"lat": "8.3333333", "city": "Las Crugecitas", "lon": "-64.6666667"}, {"lat": "10.1916667", "city": "Las Cuibas", "lon": "-64.5105556"}, {"lat": "8.9166667", "city": "Las Curaguas", "lon": "-63.3833333"}, {"lat": "7.9677778", "city": "Las Delicias", "lon": "-65.3361111"}, {"lat": "10.0333333", "city": "La Serrania", "lon": "-65.0166667"}, {"lat": "9.1833333", "city": "Las Fern\u00e1ndez", "lon": "-64.0666667"}, {"lat": "8.8544444", "city": "Las Flores", "lon": "-64.7708333"}, {"lat": "10.1833333", "city": "Las Garzas", "lon": "-64.6666667"}, {"lat": "9.3", "city": "Las Gaviotas", "lon": "-64.8"}, {"lat": "8.345", "city": "Las Guabinas", "lon": "-63.4119444"}, {"lat": "9.6333333", "city": "Las Guacharacas", "lon": "-64.15"}, {"lat": "8.7666667", "city": "Las Guadalupes", "lon": "-63.6"}, {"lat": "9.9166667", "city": "Las Guasimitas", "lon": "-65.45"}, {"lat": "8.0994444", "city": "La Simpatica", "lon": "-64.7994444"}, {"lat": "9.2", "city": "Las Juajuaitas", "lon": "-64.65"}, {"lat": "9.52", "city": "Las Lagunas", "lon": "-65.2294444"}, {"lat": "9.6166667", "city": "Las Lagunitas", "lon": "-65.2833333"}, {"lat": "10.1", "city": "Las Lajas", "lon": "-64.5333333"}, {"lat": "9.3736111", "city": "Las Lajitas", "lon": "-65.2944444"}, {"lat": "9.8", "city": "Las Lecheras", "lon": "-65.4666667"}, {"lat": "9.8", "city": "Las Lechozas", "lon": "-65.4666667"}, {"lat": "9.6166667", "city": "Las Lomas", "lon": "-65.1666667"}, {"lat": "10.0277778", "city": "Las Maracas", "lon": "-64.3983333"}, {"lat": "8.7", "city": "Las Mar\u00edas", "lon": "-65.1333333"}, {"lat": "10.0205556", "city": "Las Marmoletas", "lon": "-64.3555556"}, {"lat": "8.7833333", "city": "Las Matas", "lon": "-64.65"}, {"lat": "8.2666667", "city": "Las Maticas", "lon": "-64.8833333"}, {"lat": "8.3666667", "city": "Las Mayitas de Corrientoso", "lon": "-63.1333333"}, {"lat": "8.3586111", "city": "Las Mayitas", "lon": "-63.225"}, {"lat": "8.305", "city": "Las Mercedes", "lon": "-63.7316667"}, {"lat": "10.05", "city": "Las Minas", "lon": "-64.3333333"}, {"lat": "9.2166667", "city": "Las Miridas", "lon": "-63.85"}, {"lat": "8.1608333", "city": "Las Mochilas", "lon": "-63.7052778"}, {"lat": "9.05", "city": "Las Mulas", "lon": "-64.9166667"}, {"lat": "8.3188889", "city": "Las Nieves", "lon": "-64.7561111"}, {"lat": "8.1672222", "city": "La Soledad", "lon": "-63.5644444"}, {"lat": "7.9188889", "city": "La Sonrisa", "lon": "-64.9833333"}, {"lat": "10.0333333", "city": "Las Palomas", "lon": "-64.0833333"}, {"lat": "8.1333333", "city": "Las Patillas", "lon": "-65.25"}, {"lat": "10.0666667", "city": "Las Pe\u00f1as", "lon": "-64.6"}, {"lat": "7.9105556", "city": "Las Pe\u00f1itas", "lon": "-65.3711111"}, {"lat": "8.3333333", "city": "Las Piedras", "lon": "-65.2"}, {"lat": "8.7736111", "city": "Las Piedritas", "lon": "-63.5944444"}, {"lat": "9.6422222", "city": "Las Pi\u00f1as", "lon": "-65.2013889"}, {"lat": "8.9225", "city": "Las Piraguas", "lon": "-63.3858333"}, {"lat": "9.9044444", "city": "Las Placitas", "lon": "-65.6583333"}, {"lat": "9.1097222", "city": "Las Polocas", "lon": "-64.2572222"}, {"lat": "9.1094444", "city": "Las Potocas", "lon": "-64.2583333"}, {"lat": "8.2522222", "city": "Las Quisandas", "lon": "-64.5616667"}, {"lat": "8.0622222", "city": "Las Raices", "lon": "-64.0811111"}, {"lat": "7.7977778", "city": "Las Rosas", "lon": "-65.0644444"}, {"lat": "7.85", "city": "Las Sardinas", "lon": "-64.5666667"}, {"lat": "9.65", "city": "Las Tablas", "lon": "-64.9833333"}, {"lat": "7.9472222", "city": "Las Tapiecitas", "lon": "-65.0416667"}, {"lat": "8.2961111", "city": "Las Trincheras", "lon": "-64.8355556"}, {"lat": "9.65", "city": "Las Tunas", "lon": "-64.5"}, {"lat": "8.0675", "city": "Las Tusillas", "lon": "-64.0491667"}, {"lat": "9.9194444", "city": "Las Varas", "lon": "-65.4961111"}, {"lat": "9.6086111", "city": "Las Vegas", "lon": "-64.7063889"}, {"lat": "9.5666667", "city": "Las Veguitas", "lon": "-65.25"}, {"lat": "8.2427778", "city": "Las Violetas", "lon": "-64.815"}, {"lat": "9.8269444", "city": "Las Vueltas", "lon": "-64.02"}, {"lat": "8.25", "city": "La Tascosa", "lon": "-63.9833333"}, {"lat": "9.0833333", "city": "La Teja", "lon": "-64.7"}, {"lat": "10.0344444", "city": "La Tigra", "lon": "-64.3988889"}, {"lat": "8.4402778", "city": "La Tigrita", "lon": "-63.1475"}, {"lat": "10.1833333", "city": "La Toma", "lon": "-64.4933333"}, {"lat": "8.3261111", "city": "La Torta", "lon": "-64.2672222"}, {"lat": "8.25", "city": "La Toscosa", "lon": "-63.9833333"}, {"lat": "9.2966667", "city": "La Trilla", "lon": "-64.3558333"}, {"lat": "9.8833333", "city": "La Trinchera", "lon": "-64.5272222"}, {"lat": "10.0505556", "city": "La Trinidad", "lon": "-64.4055556"}, {"lat": "9.85", "city": "La Tuna", "lon": "-64.2666667"}, {"lat": "10.0333333", "city": "La Uni\u00f3n", "lon": "-64.5166667"}, {"lat": "9.0666667", "city": "La Uvaquera", "lon": "-63.8"}, {"lat": "8.6166667", "city": "La Vaca", "lon": "-64.4833333"}, {"lat": "8.6461111", "city": "Lavandero", "lon": "-64.3216667"}, {"lat": "9.0666667", "city": "La Vaquera", "lon": "-63.8"}, {"lat": "9.0666667", "city": "La Vaquero", "lon": "-63.8"}, {"lat": "8.07", "city": "La Vega", "lon": "-64.4122222"}, {"lat": "9.4447222", "city": "La Verbena", "lon": "-64.8663889"}, {"lat": "8.8333333", "city": "La Verdosa", "lon": "-64.75"}, {"lat": "10.05", "city": "La Victoria", "lon": "-65.4833333"}, {"lat": "8.1166667", "city": "La Vida", "lon": "-65.3833333"}, {"lat": "9.75", "city": "La Vieja", "lon": "-64.1333333"}, {"lat": "8.3194444", "city": "La Vigia", "lon": "-63.3044444"}, {"lat": "9.6527778", "city": "La Villa", "lon": "-65.3027778"}, {"lat": "9.3", "city": "La Vistosa", "lon": "-64.75"}, {"lat": "8.6758333", "city": "La Viuda", "lon": "-63.86"}, {"lat": "8.7833333", "city": "La Vopachera", "lon": "-64.1833333"}, {"lat": "9.4", "city": "L\u00e1zaro", "lon": "-64.8166667"}, {"lat": "8.4166667", "city": "Lazo", "lon": "-64.9"}, {"lat": "8.4166667", "city": "La Zorra", "lon": "-63.4"}, {"lat": "10.2", "city": "Lecheria", "lon": "-64.7"}, {"lat": "9.3836111", "city": "Lechosal", "lon": "-64.6011111"}, {"lat": "9.3836111", "city": "Lechozal", "lon": "-64.6011111"}, {"lat": "10.1094444", "city": "Levy", "lon": "-64.4666667"}, {"lat": "9.7727778", "city": "Libertad", "lon": "-64.3013889"}, {"lat": "8.1755556", "city": "Limoncito", "lon": "-64.5161111"}, {"lat": "9.3833333", "city": "Lindero de la Mejorana", "lon": "-64.8666667"}, {"lat": "9.1", "city": "Loma Alta", "lon": "-64.8666667"}, {"lat": "9.2216667", "city": "Loma Colorada", "lon": "-64.8183333"}, {"lat": "9.8894444", "city": "Loma del Viento", "lon": "-64.8666667"}, {"lat": "8.9972222", "city": "Loma Linda", "lon": "-64.6005556"}, {"lat": "8.6888889", "city": "Los Aceites", "lon": "-64.8916667"}, {"lat": "8.4333333", "city": "Los Adobes", "lon": "-62.8"}, {"lat": "10.0866667", "city": "Los Aguacates", "lon": "-64.5583333"}, {"lat": "9.2927778", "city": "Los Alcaravanes", "lon": "-64.505"}, {"lat": "8.57", "city": "Los Algarrobos", "lon": "-63.4816667"}, {"lat": "8.3675", "city": "Los Algodones", "lon": "-63.2358333"}, {"lat": "9.8333333", "city": "Los Andes", "lon": "-65.0"}, {"lat": "8.3", "city": "Los \u00c1ngeles", "lon": "-64.85"}, {"lat": "9.05", "city": "Los Araguatos", "lon": "-63.85"}, {"lat": "9.9833333", "city": "Los Bajos", "lon": "-64.6"}, {"lat": "9.7833333", "city": "Los Barrancones", "lon": "-65.1166667"}, {"lat": "8.39", "city": "Los Barrancos de Fajardo", "lon": "-62.6825"}, {"lat": "7.6977778", "city": "Los Barrancos", "lon": "-64.9377778"}, {"lat": "8.2833333", "city": "Los Becerros", "lon": "-64.9333333"}, {"lat": "10.0766667", "city": "Los Bejuqueros", "lon": "-64.2944444"}, {"lat": "9.9369444", "city": "Los Botalones", "lon": "-64.4494444"}, {"lat": "8.35", "city": "Los Caballos", "lon": "-64.9833333"}, {"lat": "9.7833333", "city": "Los Camejos", "lon": "-64.75"}, {"lat": "9.2833333", "city": "Los Ca\u00f1ones", "lon": "-64.1333333"}, {"lat": "8.8186111", "city": "Los Ca\u00f1os", "lon": "-64.265"}, {"lat": "9.2", "city": "Los Caobos", "lon": "-64.9277778"}, {"lat": "8.0988889", "city": "Los Caribes", "lon": "-63.9083333"}, {"lat": "8.5272222", "city": "Los Caribitos", "lon": "-63.5322222"}, {"lat": "9.7333333", "city": "Los Caros", "lon": "-65.4666667"}, {"lat": "8.4522222", "city": "Los Cascarones", "lon": "-63.0833333"}, {"lat": "9.3683333", "city": "Los Cerritos", "lon": "-64.6377778"}, {"lat": "9.2", "city": "Los Chaguaramos", "lon": "-63.75"}, {"lat": "8.2838889", "city": "Los Chechecos", "lon": "-63.5494444"}, {"lat": "8.2855556", "city": "LosChechecos", "lon": "-63.5475"}, {"lat": "10.05", "city": "Los Chorros", "lon": "-64.2666667"}, {"lat": "9.9166667", "city": "Los Ciruelitos", "lon": "-65.0666667"}, {"lat": "8.0627778", "city": "Los Cochinos", "lon": "-64.4077778"}, {"lat": "8.6016667", "city": "Los Cocos", "lon": "-64.0733333"}, {"lat": "9.4952778", "city": "Los Conejos", "lon": "-64.8555556"}, {"lat": "8.3666667", "city": "Los Conucos", "lon": "-63.1333333"}, {"lat": "9.3183333", "city": "Los Copezones", "lon": "-64.3516667"}, {"lat": "8.9166667", "city": "Los Coraguas", "lon": "-63.3833333"}, {"lat": "8.5105556", "city": "Los Corrales", "lon": "-64.8183333"}, {"lat": "9.5166667", "city": "Los Cruceros", "lon": "-64.4666667"}, {"lat": "9.5166667", "city": "Los Cruzeros", "lon": "-64.4666667"}, {"lat": "8.3430556", "city": "Los Cuajos", "lon": "-64.2602778"}, {"lat": "9.25", "city": "Los Cuellos", "lon": "-64.8333333"}, {"lat": "8.2794444", "city": "Los Deseos", "lon": "-63.9111111"}, {"lat": "9.5069444", "city": "Los Dividives", "lon": "-64.7297222"}, {"lat": "8.5833333", "city": "Los Dos Caminos", "lon": "-64.9166667"}, {"lat": "9.15", "city": "Los Dos R\u00edos", "lon": "-64.7"}, {"lat": "9.3166667", "city": "Los Dragos", "lon": "-64.6333333"}, {"lat": "9.65", "city": "Los Garzones", "lon": "-65.1833333"}, {"lat": "9.2333333", "city": "Los Gavilanes", "lon": "-65.1333333"}, {"lat": "10.1772222", "city": "Los Guayabos", "lon": "-64.4444444"}, {"lat": "10.0166667", "city": "Los Higuerotes", "lon": "-65.5833333"}, {"lat": "9.95", "city": "Los Jabillos", "lon": "-64.7333333"}, {"lat": "9.6672222", "city": "Los Lechozos", "lon": "-65.3166667"}, {"lat": "10.0166667", "city": "Los Linderos", "lon": "-64.55"}, {"lat": "9.7405556", "city": "Los Los Maniritos", "lon": "-64.5655556"}, {"lat": "9.25", "city": "Los Mamones", "lon": "-65.2333333"}, {"lat": "10.0144444", "city": "Los Manantiales", "lon": "-64.1916667"}, {"lat": "10.0333333", "city": "Los Mangos", "lon": "-65.3666667"}, {"lat": "9.1", "city": "Los Mantequitos", "lon": "-64.5666667"}, {"lat": "9.9333333", "city": "Los M\u00e9danos", "lon": "-65.3166667"}, {"lat": "10.1", "city": "Los Melones", "lon": "-64.6666667"}, {"lat": "8.5194444", "city": "Los Merecures", "lon": "-63.6083333"}, {"lat": "8.8166667", "city": "Los Mereicitos", "lon": "-63.65"}, {"lat": "10.0916667", "city": "Los Mesones", "lon": "-64.6711111"}, {"lat": "9.7555556", "city": "Los Milagros", "lon": "-65.2944444"}, {"lat": "10.1333333", "city": "Los Montones", "lon": "-64.65"}, {"lat": "10.0", "city": "Los Mucos", "lon": "-64.8"}, {"lat": "9.3333333", "city": "Los Olivitos", "lon": "-64.5833333"}, {"lat": "9.7", "city": "Los Olivos", "lon": "-65.0166667"}, {"lat": "10.065", "city": "Los Pajaritos", "lon": "-64.0933333"}, {"lat": "9.3166667", "city": "Los Palos Morochos", "lon": "-64.8"}, {"lat": "9.4166667", "city": "Los Paraderos", "lon": "-64.95"}, {"lat": "9.4166667", "city": "Los Peladeros", "lon": "-64.95"}, {"lat": "9.6166667", "city": "Los Pe\u00f1ones", "lon": "-65.0666667"}, {"lat": "9.4333333", "city": "Los Perritos", "lon": "-65.0833333"}, {"lat": "8.0333333", "city": "Los Pilones", "lon": "-65.25"}, {"lat": "9.1916667", "city": "Los Pinos", "lon": "-65.0416667"}, {"lat": "8.1333333", "city": "Los Placeres", "lon": "-64.7166667"}, {"lat": "8.0166667", "city": "Los Pobres", "lon": "-65.2333333"}, {"lat": "8.0666667", "city": "Los Pozones", "lon": "-65.3333333"}, {"lat": "8.2427778", "city": "Los Pozos", "lon": "-64.895"}, {"lat": "9.6833333", "city": "Los Raizones", "lon": "-65.3833333"}, {"lat": "9.6833333", "city": "Los Raizores", "lon": "-65.3833333"}, {"lat": "10.0133333", "city": "Los Ranchos", "lon": "-64.4355556"}, {"lat": "7.8994444", "city": "Los Rayos", "lon": "-65.0"}, {"lat": "9.6833333", "city": "Los Rayzones", "lon": "-65.3833333"}, {"lat": "8.7166667", "city": "Los Riecitos", "lon": "-64.4666667"}, {"lat": "9.1666667", "city": "Los R\u00edos", "lon": "-64.7"}, {"lat": "8.4166667", "city": "Los Roblecitos", "lon": "-65.05"}, {"lat": "8.4166667", "city": "Los Robles", "lon": "-65.05"}, {"lat": "8.25", "city": "Los Tigres", "lon": "-65.0666667"}, {"lat": "8.2697222", "city": "Los Tonoritos", "lon": "-63.5511111"}, {"lat": "9.9697222", "city": "Los Torres", "lon": "-64.0536111"}, {"lat": "9.8416667", "city": "Los Yesos", "lon": "-64.4805556"}, {"lat": "8.8933333", "city": "Los Yopales", "lon": "-63.4633333"}, {"lat": "9.9116667", "city": "Los Zanjones", "lon": "-64.6916667"}, {"lat": "8.9661111", "city": "Macarapana", "lon": "-64.4130556"}, {"lat": "9.205", "city": "Mac-Gregor", "lon": "-65.065"}, {"lat": "10.0444444", "city": "Macuare", "lon": "-64.4927778"}, {"lat": "9.705", "city": "Macuma", "lon": "-64.75"}, {"lat": "8.0866667", "city": "Macuto", "lon": "-64.7594444"}, {"lat": "9.1333333", "city": "Mahomal", "lon": "-64.9333333"}, {"lat": "8.0527778", "city": "Mahomito", "lon": "-64.5061111"}, {"lat": "10.0794444", "city": "Majagual", "lon": "-64.4416667"}, {"lat": "9.1333333", "city": "Majomal", "lon": "-64.9333333"}, {"lat": "9.8705556", "city": "Majomito", "lon": "-64.7122222"}, {"lat": "9.2", "city": "Majomote", "lon": "-64.8833333"}, {"lat": "9.1166667", "city": "Malejo", "lon": "-64.8666667"}, {"lat": "10.0811111", "city": "Mallorquin", "lon": "-64.63"}, {"lat": "8.2580556", "city": "Malpica", "lon": "-63.6597222"}, {"lat": "8.4072222", "city": "Malquerida", "lon": "-64.5394444"}, {"lat": "8.4588889", "city": "Mamo Arriba", "lon": "-63.0225"}, {"lat": "8.4461111", "city": "Mamo", "lon": "-63.0258333"}, {"lat": "9.5166667", "city": "Mamonal", "lon": "-65.15"}, {"lat": "9.5666667", "city": "Mamoncito", "lon": "-65.1833333"}, {"lat": "9.5333333", "city": "Mam\u00f3n Ra\u00edz", "lon": "-65.2333333"}, {"lat": "9.5588889", "city": "Mam\u00f3n Villeguera", "lon": "-65.2038889"}, {"lat": "9.6361111", "city": "Managuaro", "lon": "-64.46"}, {"lat": "10.2", "city": "Manapoco", "lon": "-64.4833333"}, {"lat": "9.9833333", "city": "Manarito", "lon": "-64.9666667"}, {"lat": "9.9666667", "city": "Manipito", "lon": "-64.95"}, {"lat": "9.9666667", "city": "Manirito", "lon": "-64.95"}, {"lat": "8.5833333", "city": "Mantecote", "lon": "-64.85"}, {"lat": "9.2666667", "city": "Manzanares", "lon": "-64.9333333"}, {"lat": "9.9", "city": "Maparaca", "lon": "-65.1666667"}, {"lat": "7.75", "city": "Mapire", "lon": "-64.7"}, {"lat": "9.1208333", "city": "Mapiricure", "lon": "-64.4069444"}, {"lat": "9.2", "city": "Mapuey", "lon": "-64.5333333"}, {"lat": "9.15", "city": "Mapuey Vianero", "lon": "-64.4833333"}, {"lat": "9.8666667", "city": "Mapuri", "lon": "-65.0666667"}, {"lat": "9.8666667", "city": "Mapur\u00edn", "lon": "-65.0666667"}, {"lat": "9.3833333", "city": "Mapurite", "lon": "-65.1333333"}, {"lat": "9.9833333", "city": "Maraca", "lon": "-65.1333333"}, {"lat": "8.2333333", "city": "Maracay", "lon": "-63.6666667"}, {"lat": "9.95", "city": "Maracual", "lon": "-65.35"}, {"lat": "9.4947222", "city": "Mara", "lon": "-64.3313889"}, {"lat": "9.9666667", "city": "Marapama", "lon": "-65.05"}, {"lat": "9.9666667", "city": "Marapata", "lon": "-65.05"}, {"lat": "9.2088889", "city": "Maremare", "lon": "-64.2869444"}, {"lat": "10.1166667", "city": "Marilago", "lon": "-65.35"}, {"lat": "10.0333333", "city": "Mar\u00edn", "lon": "-64.65"}, {"lat": "10.2033333", "city": "Martinera", "lon": "-64.5222222"}, {"lat": "9.4277778", "city": "Mart\u00ednez", "lon": "-65.1930556"}, {"lat": "8.5561111", "city": "Mata Azul", "lon": "-63.9544444"}, {"lat": "8.5883333", "city": "Mata de los Hachos", "lon": "-63.4288889"}, {"lat": "8.6511111", "city": "Mata de Marcano", "lon": "-63.1666667"}, {"lat": "7.9683333", "city": "Matajey", "lon": "-65.4838889"}, {"lat": "8.3616667", "city": "Mata las Guacharacas", "lon": "-63.3227778"}, {"lat": "10.0333333", "city": "Mata Negra", "lon": "-64.3833333"}, {"lat": "8.05", "city": "Matapalar", "lon": "-65.45"}, {"lat": "8.155", "city": "Matapalo", "lon": "-64.6722222"}, {"lat": "10.0083333", "city": "Mata Redonda", "lon": "-64.0933333"}, {"lat": "9.2166667", "city": "Mata Renca", "lon": "-64.8833333"}, {"lat": "10.1166667", "city": "Mata Sola", "lon": "-65.3333333"}, {"lat": "10.1183333", "city": "Mata Sol Urbanizaci\u00f3n", "lon": "-65.3266667"}, {"lat": "9.1333333", "city": "Matica Corocito", "lon": "-64.8166667"}, {"lat": "9.8430556", "city": "Matiyure", "lon": "-65.1327778"}, {"lat": "9.2666667", "city": "Mato Salto", "lon": "-64.2166667"}, {"lat": "10.1166667", "city": "Maujica", "lon": "-64.7166667"}, {"lat": "10.1166667", "city": "Maurica", "lon": "-64.7166667"}, {"lat": "9.9166667", "city": "Mayares", "lon": "-65.55"}, {"lat": "8.8525", "city": "Mayori", "lon": "-63.8305556"}, {"lat": "8.5666667", "city": "Medanito", "lon": "-65.0"}, {"lat": "9.9833333", "city": "Mediana", "lon": "-65.0833333"}, {"lat": "8.8166667", "city": "Merecito", "lon": "-63.65"}, {"lat": "9.2616667", "city": "Merecural", "lon": "-63.9427778"}, {"lat": "10.1333333", "city": "Merecure", "lon": "-64.5166667"}, {"lat": "8.2666667", "city": "Merecureo", "lon": "-64.7166667"}, {"lat": "8.3561111", "city": "Mereicito", "lon": "-64.8516667"}, {"lat": "8.3405556", "city": "Mereizote", "lon": "-64.4722222"}, {"lat": "8.5894444", "city": "Mereyal", "lon": "-63.8855556"}, {"lat": "8.9036111", "city": "Mereycito", "lon": "-63.4127778"}, {"lat": "9.1666667", "city": "Merey", "lon": "-64.7333333"}, {"lat": "9.1", "city": "Mer\u00eda", "lon": "-64.5833333"}, {"lat": "8.7333333", "city": "Meridiano", "lon": "-64.9666667"}, {"lat": "9.8333333", "city": "Mill\u00e1n", "lon": "-65.2833333"}, {"lat": "9.1666667", "city": "Miraflores", "lon": "-64.6666667"}, {"lat": "10.1805556", "city": "Miramar Urbanizaci\u00f3n", "lon": "-64.6372222"}, {"lat": "8.8166667", "city": "Moja Casabe", "lon": "-64.8"}, {"lat": "8.8166667", "city": "Mojo Casabe", "lon": "-64.8"}, {"lat": "10.0011111", "city": "Monte Cenizo", "lon": "-64.0988889"}, {"lat": "9.75", "city": "Monte Claro", "lon": "-65.25"}, {"lat": "10.0333333", "city": "Monte Cristo", "lon": "-64.3666667"}, {"lat": "9.9833333", "city": "Monte Oscuro", "lon": "-65.6333333"}, {"lat": "9.3666667", "city": "Montero", "lon": "-65.2"}, {"lat": "9.4719444", "city": "Monterrey", "lon": "-64.4761111"}, {"lat": "10.1333333", "city": "Montones", "lon": "-64.65"}, {"lat": "8.5833333", "city": "Moqueta", "lon": "-64.2166667"}, {"lat": "8.5888889", "city": "Moquete", "lon": "-64.2238889"}, {"lat": "8.6383333", "city": "Moquetico", "lon": "-64.3277778"}, {"lat": "8.9666667", "city": "Morales", "lon": "-65.2333333"}, {"lat": "8.7833333", "city": "Morenero", "lon": "-62.9333333"}, {"lat": "8.7833333", "city": "Moreno", "lon": "-62.9333333"}, {"lat": "8.2", "city": "Morichal Honda", "lon": "-63.1333333"}, {"lat": "8.2", "city": "Morichal Hondo", "lon": "-63.1333333"}, {"lat": "9.1080556", "city": "Morichalito", "lon": "-64.0688889"}, {"lat": "8.4841667", "city": "Morichal Larga", "lon": "-63.6863889"}, {"lat": "8.4805556", "city": "Morichal Largo", "lon": "-63.6877778"}, {"lat": "8.5713889", "city": "Morichalote", "lon": "-64.0158333"}, {"lat": "8.1", "city": "Morichal Zorrito", "lon": "-64.8166667"}, {"lat": "8.2455556", "city": "Moriche Seco", "lon": "-63.5377778"}, {"lat": "8.2666667", "city": "Moriche Solo", "lon": "-65.15"}, {"lat": "8.9833333", "city": "Morichila", "lon": "-64.6666667"}, {"lat": "8.475", "city": "Morichito", "lon": "-64.6777778"}, {"lat": "9.2622222", "city": "Morochito", "lon": "-64.4016667"}, {"lat": "10.05", "city": "Morocopa", "lon": "-65.4"}, {"lat": "10.215", "city": "Moropocual", "lon": "-64.5611111"}, {"lat": "8.4", "city": "Morrocoy", "lon": "-65.1166667"}, {"lat": "8.3280556", "city": "M\u00facura", "lon": "-64.2947222"}, {"lat": "8.2988889", "city": "Mucurita", "lon": "-64.3055556"}, {"lat": "8.1508333", "city": "Mulatalito", "lon": "-64.2716667"}, {"lat": "8.5633333", "city": "Mundo Nuevo", "lon": "-63.8927778"}, {"lat": "9.5980556", "city": "Murci\u00e9lago", "lon": "-64.3577778"}, {"lat": "9.9666667", "city": "Murgua", "lon": "-65.4333333"}, {"lat": "9.9333333", "city": "Musumucual", "lon": "-64.8166667"}, {"lat": "9.9894444", "city": "Naranjal", "lon": "-64.1008333"}, {"lat": "9.1080556", "city": "Nardo", "lon": "-63.9880556"}, {"lat": "10.0833333", "city": "Naricual", "lon": "-64.6333333"}, {"lat": "9.4825", "city": "Negro Luis", "lon": "-64.7577778"}, {"lat": "9.7666667", "city": "Nerrera", "lon": "-65.2833333"}, {"lat": "10.1", "city": "Never\u00ed", "lon": "-64.6166667"}, {"lat": "8.4461111", "city": "Nuevo Mamo", "lon": "-63.0258333"}, {"lat": "9.9344444", "city": "Nuevo Mundo", "lon": "-65.0788889"}, {"lat": "8.8833333", "city": "Oficina", "lon": "-64.3"}, {"lat": "9.0833333", "city": "Ojo Agua", "lon": "-64.6666667"}, {"lat": "10.1333333", "city": "Ojo de Agua", "lon": "-64.6333333"}, {"lat": "9.6", "city": "Oneto", "lon": "-65.1833333"}, {"lat": "9.6", "city": "Onoto", "lon": "-65.2"}, {"lat": "9.8722222", "city": "Or\u00e9gano", "lon": "-64.2816667"}, {"lat": "8.4455556", "city": "Orejano", "lon": "-64.79"}, {"lat": "9.7222222", "city": "Origu\u00e1n", "lon": "-64.3891667"}, {"lat": "9.7222222", "city": "Orij\u00e1n", "lon": "-64.3891667"}, {"lat": "9.7222222", "city": "Oriju\u00e1n", "lon": "-64.3891667"}, {"lat": "8.1633333", "city": "Orocopiche", "lon": "-63.5977778"}, {"lat": "9.9", "city": "Oropocual", "lon": "-64.7333333"}, {"lat": "9.75", "city": "Ortega", "lon": "-64.8166667"}, {"lat": "9.9833333", "city": "Pachaquito", "lon": "-65.1"}, {"lat": "9.9833333", "city": "Pajarito", "lon": "-65.0666667"}, {"lat": "8.2333333", "city": "Palacios", "lon": "-65.1"}, {"lat": "8.05", "city": "Palambra", "lon": "-64.6333333"}, {"lat": "8.425", "city": "Palambrita", "lon": "-63.38"}, {"lat": "8.0094444", "city": "Palital", "lon": "-64.1194444"}, {"lat": "7.7333333", "city": "Palitaral", "lon": "-64.715"}, {"lat": "8.6244444", "city": "Palmarito", "lon": "-64.5688889"}, {"lat": "8.6416667", "city": "Palma Sola", "lon": "-64.5438889"}, {"lat": "8.1", "city": "Palmichal", "lon": "-64.65"}, {"lat": "9.9705556", "city": "Palmira", "lon": "-65.1502778"}, {"lat": "9.7166667", "city": "Palmita", "lon": "-65.2833333"}, {"lat": "8.5888889", "city": "Palo Bonito", "lon": "-65.1208333"}, {"lat": "10.0311111", "city": "Palosanal", "lon": "-64.6144444"}, {"lat": "9.7166667", "city": "Palosano", "lon": "-65.35"}, {"lat": "9.8", "city": "Palo Sano", "lon": "-65.0166667"}, {"lat": "9.9166667", "city": "Palotal", "lon": "-64.8666667"}, {"lat": "10.25", "city": "Pamatacual", "lon": "-64.5833333"}, {"lat": "10.0444444", "city": "Panacual", "lon": "-64.4155556"}, {"lat": "9.95", "city": "Panamayal", "lon": "-64.9"}, {"lat": "9.4975", "city": "Panapana", "lon": "-64.0716667"}, {"lat": "9.6519444", "city": "Panapotal", "lon": "-64.9325"}, {"lat": "9.7105556", "city": "Panaripan", "lon": "-64.5583333"}, {"lat": "8.4277778", "city": "Panda", "lon": "-63.7827778"}, {"lat": "9.39", "city": "Pan de Az\u00facar", "lon": "-64.5197222"}, {"lat": "7.9372222", "city": "Papel\u00f3n", "lon": "-64.9655556"}, {"lat": "9.9833333", "city": "Paracacual", "lon": "-64.7166667"}, {"lat": "8.5166667", "city": "Paradero", "lon": "-64.9166667"}, {"lat": "10.0977778", "city": "Paraguatan", "lon": "-65.4511111"}, {"lat": "9.9772222", "city": "Paraguatey", "lon": "-64.675"}, {"lat": "10.0466667", "city": "Paraiso", "lon": "-64.4111111"}, {"lat": "9.5772222", "city": "Param\u00e1n", "lon": "-63.9336111"}, {"lat": "10.01", "city": "Paraminal", "lon": "-64.3061111"}, {"lat": "9.9194444", "city": "Paramin", "lon": "-64.7788889"}, {"lat": "9.3333333", "city": "Parapara", "lon": "-64.8"}, {"lat": "9.2833333", "city": "Paraparito", "lon": "-64.75"}, {"lat": "8.0108333", "city": "Paraparo", "lon": "-63.9947222"}, {"lat": "9.6077778", "city": "Paraulata", "lon": "-64.9838889"}, {"lat": "8.85", "city": "Pariagu\u00e1n", "lon": "-64.7166667"}, {"lat": "9.25", "city": "Pascualita", "lon": "-64.2833333"}, {"lat": "8.3011111", "city": "Paso Ancho", "lon": "-64.5833333"}, {"lat": "8.6016667", "city": "Paso Bajito", "lon": "-64.2205556"}, {"lat": "8.6166667", "city": "Paso Chiquito", "lon": "-64.5166667"}, {"lat": "8.82", "city": "Paso de la Fundaci\u00f3n", "lon": "-63.7272222"}, {"lat": "9.6916667", "city": "Paso de la Morrocoya", "lon": "-65.6916667"}, {"lat": "8.6233333", "city": "Paso de Los Hachos", "lon": "-63.3791667"}, {"lat": "8.6688889", "city": "Paso de los Pobres", "lon": "-64.6038889"}, {"lat": "8.5041667", "city": "Paso del Pueblito", "lon": "-63.6516667"}, {"lat": "8.4569444", "city": "Paso de Mamo", "lon": "-63.0616667"}, {"lat": "8.4569444", "city": "Paso de Mano", "lon": "-63.0616667"}, {"lat": "9.8", "city": "Paso Mam\u00f3n", "lon": "-64.9166667"}, {"lat": "9.95", "city": "Paso Real", "lon": "-65.1722222"}, {"lat": "9.4777778", "city": "Paso Unare", "lon": "-65.2027778"}, {"lat": "9.8", "city": "Pasto Camacho", "lon": "-64.9333333"}, {"lat": "8.4333333", "city": "Pasura", "lon": "-63.85"}, {"lat": "9.4477778", "city": "Patac\u00f3n", "lon": "-64.1747222"}, {"lat": "8.6033333", "city": "Patillita", "lon": "-64.6205556"}, {"lat": "9.9355556", "city": "Paujisal", "lon": "-65.4883333"}, {"lat": "9.9166667", "city": "Pedregal", "lon": "-64.95"}, {"lat": "10.15", "city": "Pek\u00edn", "lon": "-64.5166667"}, {"lat": "9.7", "city": "Peladero Alcornocal", "lon": "-64.5288889"}, {"lat": "9.7247222", "city": "Peladero Los Aripos", "lon": "-64.4180556"}, {"lat": "9.7038889", "city": "Peladero Picapica", "lon": "-64.7172222"}, {"lat": "9.4638889", "city": "Peladeros los Cerritos", "lon": "-64.5461111"}, {"lat": "9.7027778", "city": "Peladero Tabian", "lon": "-64.5205556"}, {"lat": "9.6711111", "city": "Peladero Toyano", "lon": "-64.6955556"}, {"lat": "9.0", "city": "Pelayo", "lon": "-63.6666667"}, {"lat": "9.1086111", "city": "Pele El Ojo", "lon": "-63.6197222"}, {"lat": "10.05", "city": "Pe\u00f1as Negras", "lon": "-64.4666667"}, {"lat": "9.7833333", "city": "Peneima", "lon": "-64.7783333"}, {"lat": "9.7", "city": "Penitas", "lon": "-65.15"}, {"lat": "9.2", "city": "Penunal", "lon": "-63.8666667"}, {"lat": "10.1833333", "city": "Peonia", "lon": "-64.5333333"}, {"lat": "8.3794444", "city": "Pericoco", "lon": "-63.2888889"}, {"lat": "9.2333333", "city": "Periquito", "lon": "-64.7166667"}, {"lat": "10.2333333", "city": "Pertigalete", "lon": "-64.55"}, {"lat": "8.0116667", "city": "Petronita", "lon": "-65.2538889"}, {"lat": "9.2005556", "city": "Piarra", "lon": "-64.4452778"}, {"lat": "8.1922222", "city": "Picach\u00f3n", "lon": "-64.5922222"}, {"lat": "10.0166667", "city": "Pica Pica", "lon": "-65.0166667"}, {"lat": "9.8877778", "city": "Picapica", "lon": "-64.875"}, {"lat": "9.755", "city": "Piedra Cuadrada", "lon": "-64.7372222"}, {"lat": "9.9816667", "city": "Piedra Redonda", "lon": "-64.8488889"}, {"lat": "8.4094444", "city": "Pildorin", "lon": "-65.0888889"}, {"lat": "8.65", "city": "Pilonote", "lon": "-64.8"}, {"lat": "9.75", "city": "Pineo", "lon": "-65.3"}, {"lat": "9.8016667", "city": "Pinipino", "lon": "-64.8366667"}, {"lat": "9.2", "city": "Pi\u00f1onal", "lon": "-63.8666667"}, {"lat": "9.8833333", "city": "Piragua", "lon": "-64.95"}, {"lat": "9.2005556", "city": "Pirara", "lon": "-64.4452778"}, {"lat": "9.7316667", "city": "Pirepire", "lon": "-64.2491667"}, {"lat": "9.6811111", "city": "Piricual", "lon": "-64.7833333"}, {"lat": "9.7316667", "city": "Piripire", "lon": "-64.2491667"}, {"lat": "9.9625", "city": "Pirital", "lon": "-65.0366667"}, {"lat": "9.9105556", "city": "Piritucual", "lon": "-64.815"}, {"lat": "10.0333333", "city": "P\u00edritu", "lon": "-65.0333333"}, {"lat": "9.6125", "city": "Plantanal", "lon": "-64.3286111"}, {"lat": "9.2716667", "city": "Playa Blanca", "lon": "-64.4016667"}, {"lat": "9.6288889", "city": "Pontezuela", "lon": "-65.175"}, {"lat": "8.9591667", "city": "Poros\u00ed", "lon": "-63.5655556"}, {"lat": "9.9488889", "city": "Porsiacaso", "lon": "-65.68"}, {"lat": "10.0166667", "city": "Portorucual", "lon": "-64.8"}, {"lat": "10.1111111", "city": "Portugal", "lon": "-64.5666667"}, {"lat": "8.4333333", "city": "Posura", "lon": "-63.85"}, {"lat": "10.05", "city": "Potoco", "lon": "-64.7333333"}, {"lat": "10.0166667", "city": "Potorucal", "lon": "-64.8"}, {"lat": "10.0166667", "city": "Potorucual", "lon": "-64.8"}, {"lat": "8.9591667", "city": "Potos\u00ed", "lon": "-63.5655556"}, {"lat": "8.3", "city": "Potrerito", "lon": "-64.6"}, {"lat": "9.4858333", "city": "Potrero Alem\u00e1n", "lon": "-64.5038889"}, {"lat": "9.5319444", "city": "Potrico", "lon": "-64.6461111"}, {"lat": "9.9666667", "city": "Pozo Hondo", "lon": "-65.05"}, {"lat": "10.1155556", "city": "Pozo Seco", "lon": "-64.4127778"}, {"lat": "10.1833333", "city": "Pozuelos", "lon": "-64.65"}, {"lat": "10.15", "city": "Provisor", "lon": "-64.6"}, {"lat": "8.4933333", "city": "Pueblito Morichal Largo", "lon": "-63.6566667"}, {"lat": "8.4955556", "city": "Pueblo Nuevo", "lon": "-63.8638889"}, {"lat": "10.0166667", "city": "Pueblo Viejo", "lon": "-65.0333333"}, {"lat": "10.1", "city": "Puente Ayala", "lon": "-64.6666667"}, {"lat": "9.8416667", "city": "Puente Unare", "lon": "-65.1444444"}, {"lat": "7.89", "city": "Puerto Anache", "lon": "-65.1416667"}, {"lat": "9.9383333", "city": "Puerto Arturo", "lon": "-65.1727778"}, {"lat": "7.8861111", "city": "Puerto Cuchillo", "lon": "-65.3538889"}, {"lat": "10.2166667", "city": "Puerto de La Cruz", "lon": "-64.6166667"}, {"lat": "9.8666667", "city": "Puerto Escondido", "lon": "-65.65"}, {"lat": "10.2166667", "city": "Puerto La Cruz", "lon": "-64.6166667"}, {"lat": "10.0666667", "city": "Puerto P\u00edritu", "lon": "-65.05"}, {"lat": "10.0272222", "city": "Puerto Rico", "lon": "-64.3833333"}, {"lat": "10.1", "city": "Puerto Unare", "lon": "-65.1833333"}, {"lat": "9.8777778", "city": "Punta Caim\u00e1n", "lon": "-65.155"}, {"lat": "9.9166667", "city": "Punta de Guanape", "lon": "-65.2"}, {"lat": "9.6166667", "city": "Punta de Suela", "lon": "-65.1833333"}, {"lat": "8.3502778", "city": "Punta Morada", "lon": "-63.0736111"}, {"lat": "9.9683333", "city": "Punto Fijo", "lon": "-64.7"}, {"lat": "9.6833333", "city": "Punto y Coma", "lon": "-65.5333333"}, {"lat": "10.1333333", "city": "Putucual", "lon": "-64.6166667"}, {"lat": "10.0116667", "city": "Quebrada de Aqua", "lon": "-64.2277778"}, {"lat": "9.1833333", "city": "Quebrada de Juaz Jua", "lon": "-63.7833333"}, {"lat": "9.1833333", "city": "Quebrada de Juaz Juaz", "lon": "-63.7833333"}, {"lat": "9.9166667", "city": "Quebrada Honda", "lon": "-64.7666667"}, {"lat": "9.6", "city": "Quebrada Verde", "lon": "-65.5"}, {"lat": "8.3966667", "city": "Quebrad\u00f3n", "lon": "-64.9188889"}, {"lat": "9.1833333", "city": "Quebrahuehue", "lon": "-63.7833333"}, {"lat": "9.8472222", "city": "Quebrajachal", "lon": "-64.4186111"}, {"lat": "9.9461111", "city": "Querecual", "lon": "-64.4816667"}, {"lat": "9.8833333", "city": "Quiamare", "lon": "-64.5333333"}, {"lat": "9.8833333", "city": "Quimare", "lon": "-64.5333333"}, {"lat": "8.2866667", "city": "Quintana", "lon": "-64.8405556"}, {"lat": "8.9402778", "city": "Quita Fr\u00edo", "lon": "-63.5566667"}, {"lat": "9.7166667", "city": "Rabanal", "lon": "-64.9166667"}, {"lat": "9.7166667", "city": "Rabanar", "lon": "-64.9166667"}, {"lat": "9.9833333", "city": "Ramanero", "lon": "-65.3"}, {"lat": "8.3661111", "city": "Ramonote", "lon": "-64.0094444"}, {"lat": "9.2955556", "city": "Rancho Chico", "lon": "-64.6661111"}, {"lat": "8.29", "city": "Rancho de Teja", "lon": "-64.5655556"}, {"lat": "8.1", "city": "Rancho El Tejas", "lon": "-64.1333333"}, {"lat": "8.6", "city": "Rancho Grande", "lon": "-64.8333333"}, {"lat": "9.2088889", "city": "Rancho Maremare", "lon": "-64.2869444"}, {"lat": "9.5944444", "city": "Remolina", "lon": "-65.16"}, {"lat": "8.5155556", "city": "Retortillero", "lon": "-63.6194444"}, {"lat": "8.4688889", "city": "Riecito", "lon": "-63.8522222"}, {"lat": "8.4283333", "city": "Rinc\u00f3n Bonito", "lon": "-64.3794444"}, {"lat": "9.7666667", "city": "Rinc\u00f3n de los Negros", "lon": "-65.6666667"}, {"lat": "9.2166667", "city": "Rinc\u00f3n Largo", "lon": "-64.5833333"}, {"lat": "9.9711111", "city": "R\u00edo Abajo", "lon": "-64.2744444"}, {"lat": "8.7755556", "city": "R\u00edo Claro", "lon": "-63.2147222"}, {"lat": "8.5444444", "city": "R\u00edo Los Chorros", "lon": "-63.8283333"}, {"lat": "8.3333333", "city": "R\u00edo Negro", "lon": "-65.0166667"}, {"lat": "9.7833333", "city": "Rio Viejo", "lon": "-65.65"}, {"lat": "9.9572222", "city": "Rivero", "lon": "-65.4144444"}, {"lat": "9.35", "city": "Roberto Garc\u00eda", "lon": "-64.3333333"}, {"lat": "9.1833333", "city": "Roblecito", "lon": "-64.95"}, {"lat": "9.3925", "city": "Roble Quemado", "lon": "-64.7686111"}, {"lat": "8.9666667", "city": "Roblito", "lon": "-64.6444444"}, {"lat": "9.7461111", "city": "Roblote", "lon": "-64.6116667"}, {"lat": "8.0666667", "city": "Romerito", "lon": "-64.6333333"}, {"lat": "9.8716667", "city": "Romero", "lon": "-64.7783333"}, {"lat": "8.2", "city": "Roncador", "lon": "-65.3333333"}, {"lat": "9.6", "city": "Rond\u00f3n Piedra", "lon": "-65.1333333"}, {"lat": "7.7222222", "city": "Rubicon", "lon": "-64.7227778"}, {"lat": "8.3344444", "city": "Rufino", "lon": "-63.7133333"}, {"lat": "9.2", "city": "Ruicero", "lon": "-64.9333333"}, {"lat": "10.0666667", "city": "Sabana Blanca", "lon": "-64.5166667"}, {"lat": "10.05", "city": "Sabana de Libertad", "lon": "-64.5166667"}, {"lat": "9.4955556", "city": "Sabana de Pedro", "lon": "-64.4341667"}, {"lat": "9.6611111", "city": "Sabana de Prado", "lon": "-64.5705556"}, {"lat": "9.9", "city": "Sabana de Roble", "lon": "-65.4833333"}, {"lat": "10.0166667", "city": "Sabana de Uchire", "lon": "-65.5333333"}, {"lat": "10.0166667", "city": "Sabana de Uriche", "lon": "-65.5333333"}, {"lat": "9.9", "city": "Sabana El Roble", "lon": "-65.4833333"}, {"lat": "9.5166667", "city": "Sabana Grande", "lon": "-65.1333333"}, {"lat": "10.1", "city": "Sabana Larga", "lon": "-64.55"}, {"lat": "10.0833333", "city": "Sabaneta", "lon": "-64.7"}, {"lat": "9.5805556", "city": "Sabilar", "lon": "-65.1511111"}, {"lat": "9.1494444", "city": "Sabina", "lon": "-63.8311111"}, {"lat": "9.1494444", "city": "Sabino", "lon": "-63.8311111"}, {"lat": "9.55", "city": "Sacacual", "lon": "-64.4833333"}, {"lat": "8.4311111", "city": "Sacristan", "lon": "-64.7827778"}, {"lat": "9.6833333", "city": "Salado", "lon": "-64.9"}, {"lat": "8.1622222", "city": "Salazar", "lon": "-64.7444444"}, {"lat": "9.7666667", "city": "Salistral", "lon": "-65.05"}, {"lat": "10.1694444", "city": "San Agust\u00edn", "lon": "-64.4933333"}, {"lat": "9.1986111", "city": "San Andr\u00e9s", "lon": "-63.9147222"}, {"lat": "9.9697222", "city": "San Antonio de Capaya", "lon": "-64.3919444"}, {"lat": "9.1652778", "city": "San Antonio de Guanipa", "lon": "-64.0405556"}, {"lat": "9.0638889", "city": "San Antonio de Nipa", "lon": "-63.9777778"}, {"lat": "10.0166667", "city": "San Antonio", "lon": "-65.1833333"}, {"lat": "8.2666667", "city": "San Bartolo", "lon": "-65.2666667"}, {"lat": "9.9666667", "city": "San Bernardino", "lon": "-64.7333333"}, {"lat": "9.25", "city": "San Carlos", "lon": "-65.1833333"}, {"lat": "9.8", "city": "S\u00e1nchez", "lon": "-64.4333333"}, {"lat": "8.4166667", "city": "San Diego de Cabrutica", "lon": "-64.9"}, {"lat": "10.1", "city": "San Diego", "lon": "-64.5666667"}, {"lat": "8.2833333", "city": "San Felipe", "lon": "-64.5"}, {"lat": "8.8666667", "city": "San F\u00e9lix", "lon": "-64.6166667"}, {"lat": "9.1333333", "city": "San Fernando", "lon": "-64.6"}, {"lat": "9.0166667", "city": "San Francisco", "lon": "-64.6"}, {"lat": "8.4272222", "city": "Sangay", "lon": "-64.6583333"}, {"lat": "9.8555556", "city": "Sangrillo", "lon": "-64.9772222"}, {"lat": "9.5666667", "city": "San Ignacio", "lon": "-64.5"}, {"lat": "10.0833333", "city": "San Isidro", "lon": "-64.45"}, {"lat": "9.2833333", "city": "San Jacinto", "lon": "-64.4333333"}, {"lat": "9.3136111", "city": "San Joaqu\u00edn", "lon": "-64.4819444"}, {"lat": "8.4938889", "city": "San Jos\u00e9 de Coloradito", "lon": "-62.6491667"}, {"lat": "8.8933333", "city": "San Jos\u00e9 de Guanipa", "lon": "-64.1591667"}, {"lat": "10.0416667", "city": "San Jos\u00e9", "lon": "-64.35"}, {"lat": "10.05", "city": "San Juan", "lon": "-65.35"}, {"lat": "9.75", "city": "San Lorenzo", "lon": "-65.0166667"}, {"lat": "8.1722222", "city": "San Luis", "lon": "-64.505"}, {"lat": "8.3405556", "city": "San Manuel", "lon": "-64.4747222"}, {"lat": "9.75", "city": "San Mateo", "lon": "-64.55"}, {"lat": "8.2511111", "city": "San Miguel", "lon": "-64.4783333"}, {"lat": "9.8658333", "city": "San Nicol\u00e1s", "lon": "-64.3569444"}, {"lat": "9.7666667", "city": "San Pablo", "lon": "-65.05"}, {"lat": "10.1666667", "city": "San Pedro", "lon": "-64.55"}, {"lat": "10.0", "city": "San Rafael", "lon": "-64.5166667"}, {"lat": "8.8333333", "city": "San Ram\u00f3n", "lon": "-64.65"}, {"lat": "8.7444444", "city": "San Roman", "lon": "-64.6666667"}, {"lat": "9.2833333", "city": "San Roque", "lon": "-64.7166667"}, {"lat": "9.0333333", "city": "San Salvador", "lon": "-64.65"}, {"lat": "8.5058333", "city": "San Sim\u00f3n", "lon": "-64.4202778"}, {"lat": "9.3166667", "city": "Santa Ana", "lon": "-64.65"}, {"lat": "9.9975", "city": "Santa Anita", "lon": "-64.3744444"}, {"lat": "8.25", "city": "Santa B\u00e1rbara", "lon": "-63.75"}, {"lat": "8.5244444", "city": "Santa Catalina", "lon": "-64.4736111"}, {"lat": "8.5", "city": "Santa Clara", "lon": "-64.6"}, {"lat": "8.0558333", "city": "Santa Cruz de Orinoco", "lon": "-64.4472222"}, {"lat": "10.0361111", "city": "Santa Cruz", "lon": "-64.2055556"}, {"lat": "8.4761111", "city": "Santa Elena", "lon": "-64.4144444"}, {"lat": "8.9641667", "city": "Santa Fe", "lon": "-63.5469444"}, {"lat": "9.2666667", "city": "Santa Gertrudis", "lon": "-64.7333333"}, {"lat": "9.9097222", "city": "Santa In\u00e9s", "lon": "-64.3522222"}, {"lat": "8.4461111", "city": "Santa Isabel", "lon": "-64.3127778"}, {"lat": "10.0811111", "city": "Santa Juana", "lon": "-64.4555556"}, {"lat": "8.2338889", "city": "Santa Marta", "lon": "-64.2186111"}, {"lat": "8.9408333", "city": "Santa M\u00e9", "lon": "-64.1308333"}, {"lat": "9.6038889", "city": "Santander", "lon": "-64.8061111"}, {"lat": "8.6236111", "city": "Santa Rita", "lon": "-64.1680556"}, {"lat": "9.0880556", "city": "Santa Rosa", "lon": "-64.3175"}, {"lat": "8.5183333", "city": "Santa Teresa", "lon": "-64.7633333"}, {"lat": "10.1444444", "city": "Santo Domingo", "lon": "-64.6361111"}, {"lat": "8.1333333", "city": "San Tom\u00e9", "lon": "-64.9416667"}, {"lat": "8.8833333", "city": "Santo Tom\u00e1s", "lon": "-64.55"}, {"lat": "8.3008333", "city": "Santoyo", "lon": "-63.4233333"}, {"lat": "8.9666667", "city": "San Vicente", "lon": "-64.8"}, {"lat": "8.95", "city": "San Vitorio", "lon": "-64.7583333"}, {"lat": "8.4616667", "city": "Saquimare", "lon": "-64.3644444"}, {"lat": "8.0838889", "city": "Sariapo", "lon": "-64.825"}, {"lat": "8.3566667", "city": "Satural", "lon": "-63.3413889"}, {"lat": "8.4622222", "city": "Secundinero", "lon": "-64.7294444"}, {"lat": "10.1", "city": "Socorro", "lon": "-64.55"}, {"lat": "8.1672222", "city": "Soledad", "lon": "-63.5644444"}, {"lat": "9.1105556", "city": "Sombrerito", "lon": "-64.2122222"}, {"lat": "9.2", "city": "Sombrero", "lon": "-64.45"}, {"lat": "9.215", "city": "Sote\u00f1os", "lon": "-64.2555556"}, {"lat": "8.3666667", "city": "Suata", "lon": "-65.2"}, {"lat": "4.25", "city": "Sui\u00f1a", "lon": "-64.6833333"}, {"lat": "9.3333333", "city": "Sumbatela", "lon": "-64.5"}, {"lat": "8.4275", "city": "Tabare", "lon": "-63.8808333"}, {"lat": "8.4666667", "city": "Tabaro", "lon": "-63.8666667"}, {"lat": "10.085", "city": "Tabera", "lon": "-64.6"}, {"lat": "8.6833333", "city": "Taguapire", "lon": "-65.1"}, {"lat": "9.1333333", "city": "Taguatagua", "lon": "-64.5"}, {"lat": "9.6833333", "city": "Tamarindo", "lon": "-65.1833333"}, {"lat": "9.2177778", "city": "Taparito", "lon": "-64.9916667"}, {"lat": "9.0166667", "city": "Tapatapa", "lon": "-64.6166667"},