{"WF": {"00": [{"lat": "-13.2833333", "city": "Ahoa", "lon": "-176.2"}, {"lat": "-13.2666667", "city": "Akaka", "lon": "-176.1333333"}, {"lat": "-13.2333333", "city": "Alele", "lon": "-176.15"}, {"lat": "-14.3166667", "city": "Alo", "lon": "-178.1166667"}, {"lat": "-14.35", "city": "Alofitai", "lon": "-178.05"}, {"lat": "-13.25", "city": "Fakauita", "lon": "-176.1833333"}, {"lat": "-13.3", "city": "Falaleu", "lon": "-176.15"}, {"lat": "-13.3166667", "city": "Fineveke", "lon": "-176.2"}, {"lat": "-14.3", "city": "Foi", "lon": "-178.0833333"}, {"lat": "-13.3333333", "city": "Gahi", "lon": "-176.15"}, {"lat": "-13.25", "city": "Gamua", "lon": "-176.1333333"}, {"lat": "-13.3", "city": "Haafusia", "lon": "-176.15"}, {"lat": "-13.35", "city": "Ha'alalo", "lon": "-176.1833333"}, {"lat": "-13.3333333", "city": "Haatofo", "lon": "-176.15"}, {"lat": "-13.35", "city": "Halalo", "lon": "-176.1833333"}, {"lat": "-13.2833333", "city": "Halamaitai", "lon": "-176.1333333"}, {"lat": "-14.3166667", "city": "Kolia", "lon": "-178.0833333"}, {"lat": "-13.35", "city": "Kolopopo", "lon": "-176.1666667"}, {"lat": "-13.25", "city": "Lano", "lon": "-176.1333333"}, {"lat": "-14.3", "city": "Leava", "lon": "-178.1666667"}, {"lat": "-13.2666667", "city": "Liku", "lon": "-176.1333333"}, {"lat": "-13.35", "city": "Loto Mua", "lon": "-176.1666667"}, {"lat": "-14.3166667", "city": "Malae", "lon": "-178.1166667"}, {"lat": "-13.2833333", "city": "Mat\u00e2'utu", "lon": "-176.1333333"}, {"lat": "-13.35", "city": "Mua", "lon": "-176.1666667"}, {"lat": "-13.2833333", "city": "Regina Spit", "lon": "-176.1333333"}, {"lat": "-14.3", "city": "Sigav\u00e9", "lon": "-178.1666667"}, {"lat": "-14.3", "city": "Singave", "lon": "-178.1666667"}, {"lat": "-14.2333333", "city": "Tauai", "lon": "-178.1666667"}, {"lat": "-13.35", "city": "Teesi", "lon": "-176.1666667"}, {"lat": "-13.35", "city": "T\u00e9ess\u00e9", "lon": "-176.1666667"}, {"lat": "-13.3166667", "city": "Tepa", "lon": "-176.15"}, {"lat": "-13.2166667", "city": "Tufuone", "lon": "-176.1666667"}, {"lat": "-13.35", "city": "Utufua", "lon": "-176.15"}, {"lat": "-13.2666667", "city": "Utuloa", "lon": "-176.1833333"}, {"lat": "-13.2166667", "city": "Vailala", "lon": "-176.15"}, {"lat": "-13.3166667", "city": "Vaimatau", "lon": "-176.2"}, {"lat": "-13.2333333", "city": "Vaitupu", "lon": "-176.15"}, {"lat": "-14.3166667", "city": "Vel\u00e9", "lon": "-178.0666667"}]}}