{"YE": {"11": [{"lat": "14.4297222", "city": "Abasir", "lon": "44.5047222"}, {"lat": "14.6", "city": "Abassir", "lon": "44.4666667"}, {"lat": "14.8", "city": "`Abd Allah", "lon": "44.3666667"}, {"lat": "14.5666667", "city": "Ad Dabbah", "lon": "44.1666667"}, {"lat": "14.7", "city": "Ad Daghah", "lon": "44.5416667"}, {"lat": "14.3522222", "city": "Ad Dan", "lon": "43.8577778"}, {"lat": "14.3522222", "city": "Ad Dann", "lon": "43.8577778"}, {"lat": "14.7952778", "city": "Ad Dar", "lon": "43.8819444"}, {"lat": "14.5941667", "city": "Ad Darb", "lon": "44.3502778"}, {"lat": "14.7338889", "city": "Ad Dawahirah", "lon": "44.3988889"}, {"lat": "14.7158333", "city": "Ad Dawhi", "lon": "44.0255556"}, {"lat": "14.6647222", "city": "Ad Dayq", "lon": "44.3375"}, {"lat": "14.4730556", "city": "Ad Du`ayrah", "lon": "44.6480556"}, {"lat": "14.5258333", "city": "Ad Dubrah", "lon": "44.2088889"}, {"lat": "14.6019444", "city": "Ad Dula`", "lon": "44.1625"}, {"lat": "14.435", "city": "Ad Dur", "lon": "44.3872222"}, {"lat": "14.51", "city": "Adh Dhira`", "lon": "43.9683333"}, {"lat": "14.3997222", "city": "Ad Ru`ah", "lon": "44.5963889"}, {"lat": "14.6172222", "city": "Afk", "lon": "44.285"}, {"lat": "14.8483333", "city": "Ahlal", "lon": "44.1833333"}, {"lat": "14.8883333", "city": "`A'ithayn", "lon": "44.2055556"}, {"lat": "14.5502778", "city": "Al `Adanah", "lon": "44.1788889"}, {"lat": "14.4252778", "city": "Al `Adan", "lon": "44.2502778"}, {"lat": "14.6166667", "city": "Alagbaf", "lon": "44.4333333"}, {"lat": "14.6294444", "city": "Al Aghwal", "lon": "44.4577778"}, {"lat": "14.2583333", "city": "Al Ahad", "lon": "43.6416667"}, {"lat": "14.8833333", "city": "Al Ahma", "lon": "44.3333333"}, {"lat": "14.7805556", "city": "Al Ahsam", "lon": "44.0666667"}, {"lat": "14.8694444", "city": "Al Ajwaf", "lon": "43.9933333"}, {"lat": "14.6355556", "city": "Al Akhal", "lon": "44.2244444"}, {"lat": "14.5", "city": "Al `Alamah", "lon": "44.65"}, {"lat": "14.5638889", "city": "Al `Allanah", "lon": "44.4986111"}, {"lat": "14.5", "city": "`Alamah", "lon": "44.65"}, {"lat": "14.7555556", "city": "Al `Amariyah", "lon": "44.4494444"}, {"lat": "14.8333333", "city": "Al `Aqm", "lon": "44.3833333"}, {"lat": "14.6833333", "city": "Al Arba", "lon": "44.2666667"}, {"lat": "14.6833333", "city": "Al Arbah", "lon": "44.2666667"}, {"lat": "14.6833333", "city": "Al Aribe", "lon": "44.2166667"}, {"lat": "14.3125", "city": "Al Asalimah", "lon": "43.6875"}, {"lat": "14.9325", "city": "Al `Awasijah", "lon": "44.2516667"}, {"lat": "14.5952778", "city": "Al `Awshah", "lon": "44.1822222"}, {"lat": "14.725", "city": "Al Baradun", "lon": "44.5833333"}, {"lat": "14.385", "city": "Al Barraq", "lon": "44.7047222"}, {"lat": "14.7422222", "city": "Al Bustan", "lon": "44.2011111"}, {"lat": "14.5666667", "city": "Al Dabbah", "lon": "44.1666667"}, {"lat": "14.5833333", "city": "Alesi", "lon": "44.5"}, {"lat": "14.4708333", "city": "Al Fijwar", "lon": "44.1761111"}, {"lat": "14.6666667", "city": "Al Gadd", "lon": "44.2833333"}, {"lat": "14.8333333", "city": "Al Game", "lon": "44.2833333"}, {"lat": "14.9166667", "city": "Al Gap", "lon": "44.15"}, {"lat": "14.55", "city": "Al Ghirafa", "lon": "44.35"}, {"lat": "14.55", "city": "Al Ghirafah", "lon": "44.35"}, {"lat": "14.7405556", "city": "Al Ghudham", "lon": "44.0408333"}, {"lat": "14.6333333", "city": "Al Gule", "lon": "44.4666667"}, {"lat": "14.4641667", "city": "Al Hadan", "lon": "44.2841667"}, {"lat": "14.7", "city": "Al Hadar", "lon": "43.975"}, {"lat": "14.8594444", "city": "Al Haddadiyah", "lon": "43.8777778"}, {"lat": "14.6744444", "city": "Al Haddah", "lon": "44.0733333"}, {"lat": "14.8333333", "city": "Al Hadid", "lon": "44.1"}, {"lat": "14.7075", "city": "Al Hafah", "lon": "44.1616667"}, {"lat": "14.7247222", "city": "Al Hamra'", "lon": "44.1916667"}, {"lat": "14.7325", "city": "Al Harf", "lon": "44.0230556"}, {"lat": "14.8333333", "city": "Al Harharah", "lon": "44.2666667"}, {"lat": "14.4958333", "city": "Al Haruj", "lon": "44.6041667"}, {"lat": "14.9644444", "city": "Al Harurah", "lon": "44.4008333"}, {"lat": "14.4833333", "city": "Al Hashnah", "lon": "44.7"}, {"lat": "14.7455556", "city": "Al Hatab", "lon": "44.0755556"}, {"lat": "14.8833333", "city": "Al Hegerai", "lon": "44.3666667"}, {"lat": "14.45", "city": "Al Heyatfe", "lon": "44.3333333"}, {"lat": "14.6975", "city": "Al Hibs", "lon": "44.1980556"}, {"lat": "14.5919444", "city": "Al Hijfah", "lon": "44.2727778"}, {"lat": "14.6941667", "city": "Al Hijrah", "lon": "44.0972222"}, {"lat": "14.5833333", "city": "Al Hijre", "lon": "44.3833333"}, {"lat": "14.6405556", "city": "Al Hillah", "lon": "44.2697222"}, {"lat": "14.7347222", "city": "Al Hiqa'", "lon": "44.3755556"}, {"lat": "14.6", "city": "Al Hisseine", "lon": "44.3833333"}, {"lat": "14.4052778", "city": "Al Hubari", "lon": "44.4622222"}, {"lat": "14.9166667", "city": "Al Hudra", "lon": "44.1166667"}, {"lat": "14.45", "city": "Al Husaymah", "lon": "44.7"}, {"lat": "14.3180556", "city": "Al Husayn", "lon": "43.5277778"}, {"lat": "14.5369444", "city": "Al Jabjab", "lon": "44.2375"}, {"lat": "14.6666667", "city": "AL Jadd", "lon": "44.2833333"}, {"lat": "14.8333333", "city": "Al Jadid", "lon": "44.1"}, {"lat": "14.6830556", "city": "Al Jahili", "lon": "44.1461111"}, {"lat": "14.5952778", "city": "Al Jallah", "lon": "43.8669444"}, {"lat": "14.5166667", "city": "Al Jawb", "lon": "44.6666667"}, {"lat": "14.9038889", "city": "Al Jiya'", "lon": "44.1566667"}, {"lat": "14.5338889", "city": "Al Jubbah", "lon": "44.2638889"}, {"lat": "14.7369444", "city": "Al Jum`ah", "lon": "43.9647222"}, {"lat": "14.5994444", "city": "Al Jumayhah", "lon": "43.9497222"}, {"lat": "14.4486111", "city": "Al Kawlah", "lon": "44.5958333"}, {"lat": "14.6333333", "city": "Al Khalaqah", "lon": "44.4166667"}, {"lat": "14.8025", "city": "Al Khanaq", "lon": "44.1719444"}, {"lat": "14.4652778", "city": "Al Kharabah", "lon": "44.1472222"}, {"lat": "14.7022222", "city": "Al Kharbah", "lon": "43.9391667"}, {"lat": "14.6333333", "city": "Al Khulqah", "lon": "44.4166667"}, {"lat": "14.4", "city": "Al Kitar", "lon": "44.3"}, {"lat": "14.7180556", "city": "Al Ku`b", "lon": "44.1736111"}, {"lat": "14.9405556", "city": "Al Kumaym", "lon": "44.3794444"}, {"lat": "14.5375", "city": "Al Lisi", "lon": "44.5333333"}, {"lat": "14.7586111", "city": "Al Ma`\u00e1birah", "lon": "43.9355556"}, {"lat": "14.8433333", "city": "Al Madarah", "lon": "44.3144444"}, {"lat": "14.6919444", "city": "Al Magharib", "lon": "44.0283333"}, {"lat": "14.4963889", "city": "Al Mahall", "lon": "44.0063889"}, {"lat": "14.6569444", "city": "Al Mahfad", "lon": "44.4619444"}, {"lat": "14.6858333", "city": "Al Mahillah", "lon": "44.4002778"}, {"lat": "14.9538889", "city": "Al Mahqari", "lon": "44.1808333"}, {"lat": "14.6169444", "city": "Al Mahrurah", "lon": "43.8858333"}, {"lat": "14.7605556", "city": "Al Majan ash Shumah", "lon": "44.0344444"}, {"lat": "14.73", "city": "Al Majarin", "lon": "43.8505556"}, {"lat": "14.8741667", "city": "Al Malha'", "lon": "44.4716667"}, {"lat": "14.8666667", "city": "Al Manshiyah", "lon": "44.1833333"}, {"lat": "14.5727778", "city": "Al Mansurah", "lon": "44.2852778"}, {"lat": "14.1922222", "city": "Al Maqsha", "lon": "43.7191667"}, {"lat": "14.5163889", "city": "Al Marqab", "lon": "44.0602778"}, {"lat": "14.7352778", "city": "Al Masaqirah", "lon": "44.4586111"}, {"lat": "14.8047222", "city": "Al Masawir", "lon": "44.1394444"}, {"lat": "14.7377778", "city": "Al Masha`ibah", "lon": "44.0433333"}, {"lat": "14.6583333", "city": "Al Mashakhrah", "lon": "44.6"}, {"lat": "14.5166667", "city": "Al Masna`ah", "lon": "44.5"}, {"lat": "14.7352778", "city": "Al Maswah", "lon": "44.2483333"}, {"lat": "14.4525", "city": "Al Matamir", "lon": "44.0063889"}, {"lat": "14.5888889", "city": "Al Mawahib", "lon": "44.4247222"}, {"lat": "14.9166667", "city": "Al Mawdhar", "lon": "44.3333333"}, {"lat": "14.7625", "city": "Al Mayanid", "lon": "44.5375"}, {"lat": "14.4661111", "city": "Al Mayfa`ah", "lon": "44.5488889"}, {"lat": "14.6552778", "city": "Al Ma`zibah", "lon": "43.9711111"}, {"lat": "14.4666667", "city": "Al Merard", "lon": "44.25"}, {"lat": "14.635", "city": "Al Mihdajah", "lon": "44.2138889"}, {"lat": "14.7627778", "city": "Al Mij`arah", "lon": "43.7944444"}, {"lat": "14.4161111", "city": "Al Mijhal", "lon": "44.5555556"}, {"lat": "14.5466667", "city": "Al Millah", "lon": "44.4308333"}, {"lat": "14.5022222", "city": "Al Minjalah Rakhamah", "lon": "43.9672222"}, {"lat": "14.4513889", "city": "Al Mishraq", "lon": "44.0888889"}, {"lat": "14.5952778", "city": "Al Mishwaf", "lon": "44.4058333"}, {"lat": "14.5011111", "city": "Al Mitbabah", "lon": "44.0530556"}, {"lat": "14.7", "city": "Al Mughadiyah", "lon": "44.65"}, {"lat": "14.2791667", "city": "Al Musbah", "lon": "43.5791667"}, {"lat": "14.6794444", "city": "Al Qahir", "lon": "44.1716667"}, {"lat": "14.6277778", "city": "Al Qa`mah", "lon": "44.3244444"}, {"lat": "14.7333333", "city": "Al Qarah", "lon": "43.85"}, {"lat": "14.8144444", "city": "Al Qawazi`ah", "lon": "44.2113889"}, {"lat": "14.6613889", "city": "Al Qudadah", "lon": "44.4866667"}, {"lat": "14.3894444", "city": "Al Qufl", "lon": "44.3675"}, {"lat": "14.445", "city": "Al Qullah", "lon": "44.4686111"}, {"lat": "14.6833333", "city": "Al Qu`mah", "lon": "44.3"}, {"lat": "14.8177778", "city": "Al Qurayyah", "lon": "44.1702778"}, {"lat": "14.4666667", "city": "Al Qurun", "lon": "44.1833333"}, {"lat": "14.5666667", "city": "Al Suwayda", "lon": "44.5"}, {"lat": "14.6030556", "city": "Al `Ubrayh", "lon": "44.1819444"}, {"lat": "14.85", "city": "Al `Ulbah", "lon": "44.3"}, {"lat": "14.8333333", "city": "Al `Uqm", "lon": "44.3833333"}, {"lat": "14.9480556", "city": "Al Wajirah", "lon": "43.9986111"}, {"lat": "14.4666667", "city": "Al Wak", "lon": "43.9666667"}, {"lat": "14.7", "city": "Al Yatrah", "lon": "44.2166667"}, {"lat": "14.6561111", "city": "Al Yitarah", "lon": "44.2188889"}, {"lat": "14.4705556", "city": "`Amid", "lon": "44.3391667"}, {"lat": "14.6333333", "city": "`Anban", "lon": "43.95"}, {"lat": "14.7452778", "city": "An Nasami", "lon": "44.1863889"}, {"lat": "14.5658333", "city": "An Nawbatayn", "lon": "43.9486111"}, {"lat": "14.6", "city": "An Nirb Ghiraa", "lon": "44.5"}, {"lat": "14.4666667", "city": "`Ans Safiyan", "lon": "44.65"}, {"lat": "14.4666667", "city": "`Ans Sanyan", "lon": "44.65"}, {"lat": "14.4666667", "city": "Ans Sinyan", "lon": "44.65"}, {"lat": "14.4666667", "city": "`Ans Sufyan", "lon": "44.65"}, {"lat": "14.3333333", "city": "Arjub", "lon": "43.5333333"}, {"lat": "14.3333333", "city": "`Arjud", "lon": "43.5333333"}, {"lat": "14.9963889", "city": "Ar Rabu'", "lon": "44.4027778"}, {"lat": "14.5533333", "city": "Ar Ribat", "lon": "44.2113889"}, {"lat": "14.9666667", "city": "Ar Rishadah", "lon": "44.525"}, {"lat": "14.4941667", "city": "Ar Riyamah", "lon": "44.0744444"}, {"lat": "14.7838889", "city": "Ar Rizwah", "lon": "44.1641667"}, {"lat": "14.3997222", "city": "Ar Ru`ah", "lon": "44.5963889"}, {"lat": "14.55", "city": "Ar Rubu`", "lon": "43.95"}, {"lat": "14.3997222", "city": "Ar Rukbah", "lon": "44.5963889"}, {"lat": "14.7530556", "city": "`Asam", "lon": "44.3283333"}, {"lat": "14.3933333", "city": "`Asfiran", "lon": "44.2836111"}, {"lat": "14.655", "city": "`Ashrus", "lon": "44.1822222"}, {"lat": "14.7166667", "city": "Ash Shahizah", "lon": "44.1"}, {"lat": "14.4833333", "city": "Ash Shamahi", "lon": "44.35"}, {"lat": "14.7852778", "city": "Ash Sharaf", "lon": "43.8747222"}, {"lat": "14.4966667", "city": "Ash Sharjabi", "lon": "44.2066667"}, {"lat": "14.4794444", "city": "Ash Sharyah", "lon": "44.2594444"}, {"lat": "14.8", "city": "Ash Shuaf", "lon": "44.3833333"}, {"lat": "14.4544444", "city": "Ash Shu`aybah", "lon": "44.0547222"}, {"lat": "14.7316667", "city": "Ash Shumah", "lon": "43.9744444"}, {"lat": "14.8833333", "city": "Ash Shursh", "lon": "44.2333333"}, {"lat": "14.5633333", "city": "Ash Shuwab", "lon": "43.8925"}, {"lat": "14.8291667", "city": "Asla`", "lon": "44.0783333"}, {"lat": "14.3333333", "city": "As Sahw", "lon": "43.6541667"}, {"lat": "14.2944444", "city": "As Salfah", "lon": "43.9283333"}, {"lat": "14.6666667", "city": "As Salih", "lon": "44.0666667"}, {"lat": "14.7158333", "city": "As Salil", "lon": "44.4613889"}, {"lat": "14.3330556", "city": "As Samhah", "lon": "43.5413889"}, {"lat": "14.5530556", "city": "As Sanam", "lon": "44.2663889"}, {"lat": "14.3788889", "city": "As Sarah", "lon": "44.5919444"}, {"lat": "14.62", "city": "As Sawda'", "lon": "43.8652778"}, {"lat": "14.37", "city": "As Sawma`ah", "lon": "44.5466667"}, {"lat": "14.4666667", "city": "As Sawm", "lon": "44.45"}, {"lat": "14.8136111", "city": "As Sayh", "lon": "44.2061111"}, {"lat": "14.6", "city": "As Siflah", "lon": "44.4"}, {"lat": "14.6455556", "city": "As Sirm", "lon": "43.9061111"}, {"lat": "14.5002778", "city": "As Suwayda`", "lon": "44.5358333"}, {"lat": "14.5147222", "city": "As Suwayda'", "lon": "44.2561111"}, {"lat": "14.5002778", "city": "As Suwaydah", "lon": "44.5358333"}, {"lat": "14.7941667", "city": "Athabah", "lon": "43.9019444"}, {"lat": "14.9666667", "city": "Athein", "lon": "44.2"}, {"lat": "14.5666667", "city": "Athmad", "lon": "44.1955556"}, {"lat": "14.5691667", "city": "Ath Thaniyah", "lon": "44.2594444"}, {"lat": "14.6891667", "city": "Ath Thujrah", "lon": "44.4844444"}, {"lat": "14.4991667", "city": "`Aybah", "lon": "44.1583333"}, {"lat": "14.5430556", "city": "`Ayshan", "lon": "44.2991667"}, {"lat": "14.8161111", "city": "Az\u00cc\u00a7 Z\u00cc\u00a7ahrah", "lon": "43.9325"}, {"lat": "14.6480556", "city": "Az\u00cc\u00a7 Z\u00cc\u00a7ahr", "lon": "43.9138889"}, {"lat": "14.625", "city": "Az\u00cc\u00a7 Z\u00cc\u00a7ali`", "lon": "44.1016667"}, {"lat": "14.4986111", "city": "Az Zilah", "lon": "44.0266667"}, {"lat": "14.3833333", "city": "Baalan", "lon": "44.2833333"}, {"lat": "14.5277778", "city": "Bab al Filak", "lon": "44.4569444"}, {"lat": "14.4433333", "city": "Bakhran", "lon": "44.3625"}, {"lat": "14.3833333", "city": "Ba`lan", "lon": "44.2833333"}, {"lat": "14.6366667", "city": "Bal Jabiri", "lon": "43.8713889"}, {"lat": "14.9", "city": "Bani Ahmad", "lon": "44.4333333"}, {"lat": "14.7372222", "city": "Bani `Akrut", "lon": "44.4880556"}, {"lat": "14.9666667", "city": "Bani Bada", "lon": "44.6"}, {"lat": "14.6930556", "city": "Bani Dabyan", "lon": "44.2133333"}, {"lat": "14.8377778", "city": "Bani Falah", "lon": "44.2494444"}, {"lat": "14.75", "city": "Bani Hadir", "lon": "44.2666667"}, {"lat": "14.4166667", "city": "Bani Hamar", "lon": "44.2833333"}, {"lat": "14.2583333", "city": "Bani Hatam", "lon": "43.5958333"}, {"lat": "14.7719444", "city": "Bani Haysan", "lon": "44.1433333"}, {"lat": "14.9", "city": "Bani Hudayr", "lon": "44.25"}, {"lat": "14.7191667", "city": "Bani Jahdab", "lon": "43.9069444"}, {"lat": "14.7205556", "city": "Bani Jamil", "lon": "44.4816667"}, {"lat": "14.6880556", "city": "Bani Khudayr", "lon": "44.2897222"}, {"lat": "14.8130556", "city": "Bani Mihann", "lon": "44.2011111"}, {"lat": "14.7544444", "city": "Bani Nashwan", "lon": "43.9583333"}, {"lat": "14.7875", "city": "Bani Qaws", "lon": "44.4041667"}, {"lat": "14.9166667", "city": "Bani Saaba", "lon": "44.2666667"}, {"lat": "14.7102778", "city": "Bani Saba'", "lon": "44.2927778"}, {"lat": "14.8094444", "city": "Bani Sabir", "lon": "44.2036111"}, {"lat": "14.7333333", "city": "Bani Salamah", "lon": "44.0333333"}, {"lat": "14.8169444", "city": "Bani Sanad", "lon": "44.2083333"}, {"lat": "14.4", "city": "Bani Sari", "lon": "44.3666667"}, {"lat": "14.8533333", "city": "Bani Sirhan", "lon": "44.2480556"}, {"lat": "14.8166667", "city": "Bani `Ubayd", "lon": "44.2144444"}, {"lat": "14.9916667", "city": "Bayhan al A`mas", "lon": "44.625"}, {"lat": "14.9452778", "city": "Bayid", "lon": "44.4363889"}, {"lat": "14.6694444", "city": "Bayt Abu Hasan", "lon": "44.2294444"}, {"lat": "14.7180556", "city": "Bayt Abu Mahniqah", "lon": "44.4066667"}, {"lat": "14.9", "city": "Bayt Abu Manika", "lon": "44.3833333"}, {"lat": "14.7788889", "city": "Bayt Abu Sha'i", "lon": "44.2316667"}, {"lat": "14.8", "city": "Bayt ad Dabyani", "lon": "44.1333333"}, {"lat": "14.5333333", "city": "Bayt ad Daylami", "lon": "44.5333333"}, {"lat": "14.6755556", "city": "Bayt ad Dubaybi", "lon": "43.9580556"}, {"lat": "14.3894444", "city": "Bayt al Adwar", "lon": "44.5477778"}, {"lat": "14.8833333", "city": "Bayt al Babian", "lon": "44.3666667"}, {"lat": "14.4", "city": "Bayt al Baim", "lon": "44.3166667"}, {"lat": "14.4", "city": "Bayt al Ba`m", "lon": "44.3166667"}, {"lat": "14.4", "city": "Bayt al Bum", "lon": "44.3166667"}, {"lat": "14.5333333", "city": "Bayt al Daylami", "lon": "44.5333333"}, {"lat": "14.7105556", "city": "Bayt al Fatiqi", "lon": "44.4463889"}, {"lat": "14.9166667", "city": "Bayt al Gire", "lon": "44.1666667"}, {"lat": "14.6525", "city": "Bayt al Jamarah", "lon": "43.9975"}, {"lat": "14.6055556", "city": "Bayt al Ja`wiri", "lon": "44.0641667"}, {"lat": "14.3930556", "city": "Bayt al Kawmani", "lon": "44.4430556"}, {"lat": "14.7236111", "city": "Bayt al Khadr", "lon": "44.1986111"}, {"lat": "14.65", "city": "Bayt al Maq`ad", "lon": "43.9166667"}, {"lat": "14.7333333", "city": "Bayt al Marehibi", "lon": "44.2666667"}, {"lat": "14.7333333", "city": "Bayt al Marhibi", "lon": "44.2666667"}, {"lat": "14.4138889", "city": "Bayt al Misri", "lon": "44.6794444"}, {"lat": "14.5666667", "city": "Bayt al Mudir", "lon": "43.8833333"}, {"lat": "14.6333333", "city": "Bayt al Qamis", "lon": "43.95"}, {"lat": "14.7791667", "city": "Bayt al Umaysi", "lon": "44.0480556"}, {"lat": "15.0272222", "city": "Bayt al `Utmi", "lon": "44.1863889"}, {"lat": "14.7561111", "city": "Bayt an Nushayri", "lon": "44.2311111"}, {"lat": "14.7536111", "city": "Bayt ar Rakhami", "lon": "43.9977778"}, {"lat": "14.4772222", "city": "Bayt ash Shita'", "lon": "44.1977778"}, {"lat": "14.8755556", "city": "Bayt ash Shubay", "lon": "44.1408333"}, {"lat": "14.7494444", "city": "Bayt as Sinani", "lon": "44.2780556"}, {"lat": "14.8755556", "city": "Bayt as Suba`i", "lon": "44.1408333"}, {"lat": "14.7158333", "city": "Bayt az Zab", "lon": "44.2341667"}, {"lat": "14.8755556", "city": "Bayt Eshubai", "lon": "44.1408333"}, {"lat": "14.7166667", "city": "Bayt Haidad", "lon": "44.2166667"}, {"lat": "14.8283333", "city": "Bayt Humran", "lon": "43.9619444"}, {"lat": "14.7419444", "city": "Bayt Hutrum", "lon": "44.1933333"}, {"lat": "14.7333333", "city": "Bayt Kulayb", "lon": "44.5833333"}, {"lat": "14.8247222", "city": "Bayt Mirrah", "lon": "44.1677778"}, {"lat": "14.45", "city": "Bayt Qamlan", "lon": "44.4833333"}, {"lat": "14.45", "city": "Bayt Qamuan", "lon": "44.4833333"}, {"lat": "14.6777778", "city": "Bayt Shutayf", "lon": "44.4425"}, {"lat": "14.6805556", "city": "Bayt Suqal", "lon": "44.0808333"}, {"lat": "14.7852778", "city": "Bayt Wazi", "lon": "44.2247222"}, {"lat": "14.9", "city": "Beit Abu-Manika", "lon": "44.3833333"}, {"lat": "14.4", "city": "Beit Baum", "lon": "44.3166667"}, {"lat": "14.8833333", "city": "Beit-el-Babian", "lon": "44.3666667"}, {"lat": "14.4", "city": "Beit-el-Baim", "lon": "44.3166667"}, {"lat": "14.9166667", "city": "Beit-el-Gire", "lon": "44.1666667"}, {"lat": "14.7333333", "city": "Beit-el-Marehibi", "lon": "44.2666667"}, {"lat": "14.5666667", "city": "Beit-el-Mudir", "lon": "43.8833333"}, {"lat": "14.7166667", "city": "Beit Haidad", "lon": "44.2166667"}, {"lat": "14.5666667", "city": "Beit Mudir", "lon": "43.8833333"}, {"lat": "14.9666667", "city": "Beni Bada", "lon": "44.6"}, {"lat": "14.9", "city": "Beni Hudeir", "lon": "44.25"}, {"lat": "14.9166667", "city": "Beni Saaba", "lon": "44.2666667"}, {"lat": "14.4166667", "city": "Bisarif", "lon": "44.3333333"}, {"lat": "14.6541667", "city": "Bishar", "lon": "44.4883333"}, {"lat": "14.7908333", "city": "Busan", "lon": "44.4541667"}, {"lat": "14.8655556", "city": "Dabi", "lon": "43.8936111"}, {"lat": "14.6166667", "city": "Dafa", "lon": "44.05"}, {"lat": "14.8916667", "city": "Daf", "lon": "44.2666667"}, {"lat": "14.5188889", "city": "Dafinah", "lon": "44.3027778"}, {"lat": "14.505", "city": "Damar al Qarn", "lon": "44.4072222"}, {"lat": "14.55", "city": "Damar", "lon": "44.4016667"}, {"lat": "14.3522222", "city": "Dann", "lon": "43.8577778"}, {"lat": "14.4391667", "city": "Dar al Hanish", "lon": "44.4508333"}, {"lat": "14.4366667", "city": "Dar al Ushaw", "lon": "44.3316667"}, {"lat": "14.5941667", "city": "Darb", "lon": "44.3502778"}, {"lat": "14.4333333", "city": "Dawmaran", "lon": "44.2666667"}, {"lat": "14.7377778", "city": "Dawran", "lon": "44.2044444"}, {"lat": "14.5166667", "city": "Dayrah", "lon": "44.65"}, {"lat": "14.6", "city": "Dhahib", "lon": "43.9666667"}, {"lat": "14.505", "city": "Dhamar al Qarn", "lon": "44.4072222"}, {"lat": "14.55", "city": "Dhamar", "lon": "44.4016667"}, {"lat": "14.505", "city": "Dhamar Jare", "lon": "44.4072222"}, {"lat": "14.6483333", "city": "Dhi Ajj", "lon": "44.4225"}, {"lat": "14.3213889", "city": "Dhi `Ata`", "lon": "44.5366667"}, {"lat": "14.5180556", "city": "Dhi Hawlan", "lon": "44.4544444"}, {"lat": "14.4386111", "city": "Dhi Jizub", "lon": "44.4363889"}, {"lat": "14.8833333", "city": "Dhik", "lon": "44.3333333"}, {"lat": "14.6122222", "city": "Dhi Majid", "lon": "44.4194444"}, {"lat": "14.7333333", "city": "Dhi Najidh", "lon": "44.3166667"}, {"lat": "14.6286111", "city": "Dhi Sabil", "lon": "44.0841667"}, {"lat": "14.4908333", "city": "Dhi Sahr", "lon": "44.3658333"}, {"lat": "14.7377778", "city": "Dhoran", "lon": "44.2044444"}, {"lat": "14.5233333", "city": "Dhukhrah", "lon": "44.1991667"}, {"lat": "14.7677778", "city": "Dhul Madar", "lon": "43.9213889"}, {"lat": "14.7377778", "city": "Dhuran", "lon": "44.2044444"}, {"lat": "14.8833333", "city": "Dhyik", "lon": "44.3333333"}, {"lat": "14.6333333", "city": "Digisol", "lon": "44.4166667"}, {"lat": "14.75", "city": "Di Haholan", "lon": "44.4333333"}, {"lat": "14.6333333", "city": "Dijishub", "lon": "44.4166667"}, {"lat": "14.6", "city": "Dikhnava", "lon": "44.2666667"}, {"lat": "14.5333333", "city": "Dilan", "lon": "44.4166667"}, {"lat": "14.4", "city": "Dishunigran", "lon": "44.3333333"}, {"lat": "14.5166667", "city": "Diyrah", "lon": "44.65"}, {"lat": "14.7377778", "city": "Doran", "lon": "44.2044444"}, {"lat": "14.4908333", "city": "Dubah", "lon": "44.1311111"}, {"lat": "14.7897222", "city": "Dulaym", "lon": "44.0305556"}, {"lat": "14.95", "city": "Dulhama", "lon": "44.2833333"}, {"lat": "14.4333333", "city": "Dumran", "lon": "44.2666667"}, {"lat": "14.3522222", "city": "Dun", "lon": "43.8577778"}, {"lat": "14.5941667", "city": "Ed Darb", "lon": "44.3502778"}, {"lat": "14.6333333", "city": "El Aden", "lon": "44.2166667"}, {"lat": "14.5", "city": "El Alame", "lon": "44.65"}, {"lat": "14.6833333", "city": "El Arba", "lon": "44.2666667"}, {"lat": "14.6833333", "city": "El Aribe", "lon": "44.2166667"}, {"lat": "14.6666667", "city": "El Gadd", "lon": "44.2833333"}, {"lat": "14.8333333", "city": "El Game", "lon": "44.2833333"}, {"lat": "14.9166667", "city": "El Gap", "lon": "44.15"}, {"lat": "14.4666667", "city": "El Gerun", "lon": "44.1833333"}, {"lat": "14.55", "city": "El Ghirafa", "lon": "44.35"}, {"lat": "14.6333333", "city": "El Gule", "lon": "44.4666667"}, {"lat": "14.8833333", "city": "El Hagerai", "lon": "44.3666667"}, {"lat": "14.45", "city": "El Heyatfe", "lon": "44.3333333"}, {"lat": "14.5833333", "city": "El Hijre", "lon": "44.3833333"}, {"lat": "14.6", "city": "El Hisseine", "lon": "44.3833333"}, {"lat": "14.9166667", "city": "El Hudra", "lon": "44.1166667"}, {"lat": "14.4166667", "city": "El Hussein", "lon": "44.2833333"}, {"lat": "14.4", "city": "El Kitar", "lon": "44.3"}, {"lat": "14.4666667", "city": "El Merard", "lon": "44.25"}, {"lat": "14.4666667", "city": "El Wak", "lon": "43.9666667"}, {"lat": "14.6", "city": "En Nirb Ghiraa", "lon": "44.5"}, {"lat": "14.8", "city": "Esh Shuaf", "lon": "44.3833333"}, {"lat": "14.8833333", "city": "Esh Shursh", "lon": "44.2333333"}, {"lat": "14.6", "city": "Es Sifla", "lon": "44.4"}, {"lat": "14.7", "city": "Gairiat", "lon": "44.2333333"}, {"lat": "14.505", "city": "Gam Dhamar", "lon": "44.4072222"}, {"lat": "14.8666667", "city": "Garaaz", "lon": "44.3833333"}, {"lat": "14.8833333", "city": "Gauan", "lon": "44.3333333"}, {"lat": "14.4544444", "city": "Ghafir", "lon": "44.3102778"}, {"lat": "14.7211111", "city": "Gharibayn", "lon": "44.1841667"}, {"lat": "14.7108333", "city": "Ghawir", "lon": "44.1961111"}, {"lat": "14.8477778", "city": "Ghawl as Sarraq", "lon": "44.1380556"}, {"lat": "14.5166667", "city": "Goi Goan", "lon": "44.35"}, {"lat": "14.8833333", "city": "Gubatil", "lon": "44.2833333"}, {"lat": "14.5322222", "city": "Habirah", "lon": "44.0627778"}, {"lat": "14.7027778", "city": "Hadran", "lon": "44.0288889"}, {"lat": "14.6772222", "city": "Hajan", "lon": "44.1277778"}, {"lat": "14.4252778", "city": "Hakir", "lon": "44.5802778"}, {"lat": "14.8833333", "city": "Hakl", "lon": "44.1333333"}, {"lat": "14.4997222", "city": "Halah", "lon": "44.3119444"}, {"lat": "14.7166667", "city": "Halak", "lon": "44.2333333"}, {"lat": "14.4655556", "city": "Halif", "lon": "44.2419444"}, {"lat": "14.7166667", "city": "Halq", "lon": "44.2333333"}, {"lat": "14.7502778", "city": "Hamal", "lon": "43.9472222"}, {"lat": "14.6641667", "city": "Hammam `Ali", "lon": "44.1447222"}, {"lat": "14.5833333", "city": "Hammam al Lassi", "lon": "44.5"}, {"lat": "14.6641667", "city": "Hamman `Ali", "lon": "44.1447222"}, {"lat": "14.5833333", "city": "Hamman al Lassi", "lon": "44.5"}, {"lat": "14.9166667", "city": "Hamra'", "lon": "44.1666667"}, {"lat": "14.4841667", "city": "Hanid", "lon": "44.4408333"}, {"lat": "14.515", "city": "Hansar", "lon": "44.2277778"}, {"lat": "14.8833333", "city": "Haql", "lon": "44.1333333"}, {"lat": "14.6", "city": "Harabeit", "lon": "44.2833333"}, {"lat": "14.5308333", "city": "Harf as Sadah", "lon": "44.1630556"}, {"lat": "14.9", "city": "Hashran", "lon": "44.2833333"}, {"lat": "14.8333333", "city": "Hassan Beit", "lon": "44.4166667"}, {"lat": "14.95", "city": "Hassan", "lon": "44.3333333"}, {"lat": "14.5488889", "city": "Hawbah", "lon": "44.2591667"}, {"lat": "14.6772222", "city": "Hijjan", "lon": "44.1277778"}, {"lat": "14.3886111", "city": "Hijrah", "lon": "44.3163889"}, {"lat": "14.6738889", "city": "Hijrat adh Dhari", "lon": "44.2030556"}, {"lat": "14.6488889", "city": "Hijrat al Kilabah", "lon": "44.4561111"}, {"lat": "14.6213889", "city": "Hijrat al Wishah", "lon": "44.1572222"}, {"lat": "14.8197222", "city": "Hijrat as Sayh", "lon": "44.2152778"}, {"lat": "14.6108333", "city": "Hijrat Dhi Hud", "lon": "44.1552778"}, {"lat": "14.67", "city": "Hijrat Manqadhah", "lon": "44.39"}, {"lat": "14.3", "city": "Huen Sedekh", "lon": "43.7333333"}, {"lat": "14.4075", "city": "Huqayla`", "lon": "43.6147222"}, {"lat": "14.45", "city": "Husaymah", "lon": "44.7"}, {"lat": "14.4113889", "city": "Husayn `Umran", "lon": "44.4102778"}, {"lat": "14.9863889", "city": "`Idhayqah", "lon": "44.4588889"}, {"lat": "14.4666667", "city": "Ikhab", "lon": "44.2333333"}, {"lat": "14.4541667", "city": "Ja`ar", "lon": "44.2613889"}, {"lat": "14.5638889", "city": "Ja`awdar", "lon": "44.2802778"}, {"lat": "14.7133333", "city": "Jababah", "lon": "43.9083333"}, {"lat": "14.7577778", "city": "Jabal al Jamuh", "lon": "44.1130556"}, {"lat": "14.6180556", "city": "Jabal al `Uthmani", "lon": "44.2622222"}, {"lat": "14.6333333", "city": "Jaffa", "lon": "44.3166667"}, {"lat": "14.6", "city": "Jalas", "lon": "44.3666667"}, {"lat": "14.7833333", "city": "Jalb Zari", "lon": "43.8136111"}, {"lat": "14.5583333", "city": "Jarf Isbil", "lon": "44.65"}, {"lat": "14.37", "city": "Jaw`ar", "lon": "44.5466667"}, {"lat": "14.9166667", "city": "Jubel", "lon": "44.6666667"}, {"lat": "14.9166667", "city": "Jubil", "lon": "44.6666667"}, {"lat": "14.7108333", "city": "Jum`at al `Amiri", "lon": "43.9894444"}, {"lat": "14.2291667", "city": "Jum`at Bani Sawi", "lon": "43.8"}, {"lat": "14.7166667", "city": "Kaba-es-Sema", "lon": "44.0333333"}, {"lat": "14.3677778", "city": "Kabbat ash Sharif", "lon": "43.5172222"}, {"lat": "14.4872222", "city": "Khalaq", "lon": "44.2477778"}, {"lat": "14.6836111", "city": "Kharabat ash Shallal", "lon": "44.4552778"}, {"lat": "14.5769444", "city": "Kharabat Nashtan", "lon": "44.4338889"}, {"lat": "14.47", "city": "Kharbat Afik", "lon": "44.5816667"}, {"lat": "14.6991667", "city": "Khashran", "lon": "44.3011111"}, {"lat": "14.55", "city": "Khirbat Afiq", "lon": "44.5833333"}, {"lat": "14.4741667", "city": "Khirbat al Mirri", "lon": "44.1111111"}, {"lat": "14.3791667", "city": "Khubaj", "lon": "44.6519444"}, {"lat": "14.9583333", "city": "Khubayjan", "lon": "44.5"}, {"lat": "14.9416667", "city": "Khulal", "lon": "44.5583333"}, {"lat": "14.7452778", "city": "Kurabah", "lon": "44.0133333"}, {"lat": "14.5833333", "city": "Kurair", "lon": "44.3666667"}, {"lat": "14.5833333", "city": "Kurayr", "lon": "44.3666667"}, {"lat": "14.6505556", "city": "Lakamat al `Azab", "lon": "43.9483333"}, {"lat": "14.6980556", "city": "Lakamat ash Shawish", "lon": "44.2469444"}, {"lat": "14.8", "city": "Luma", "lon": "43.9"}, {"lat": "14.7947222", "city": "Ma`bar", "lon": "44.2922222"}, {"lat": "14.7947222", "city": "Maber", "lon": "44.2922222"}, {"lat": "14.6472222", "city": "Madarah", "lon": "43.9927778"}, {"lat": "14.6166667", "city": "Madari", "lon": "44.0833333"}, {"lat": "14.6363889", "city": "Madba`ah", "lon": "43.8963889"}, {"lat": "14.7427778", "city": "Madhab al `Ulya", "lon": "44.21"}, {"lat": "14.7477778", "city": "Madhab as Sufla", "lon": "44.2119444"}, {"lat": "14.6938889", "city": "Madhrah", "lon": "43.9375"}, {"lat": "14.6369444", "city": "Madina al `Abid", "lon": "43.9577778"}, {"lat": "14.6369444", "city": "Madinat Abid", "lon": "43.9577778"}, {"lat": "14.6369444", "city": "Madinat al `Abid", "lon": "43.9577778"}, {"lat": "14.6369444", "city": "Madinat ash Shirq", "lon": "43.9577778"}, {"lat": "14.7627778", "city": "Madinat Nazah", "lon": "43.8463889"}, {"lat": "14.5058333", "city": "Madwah", "lon": "44.2383333"}, {"lat": "14.7002778", "city": "Mahall al `Alul", "lon": "43.9408333"}, {"lat": "14.7930556", "city": "Mahall al `Irq", "lon": "44.1441667"}, {"lat": "14.8519444", "city": "Mahall al Jabhani", "lon": "43.9986111"}, {"lat": "14.7341667", "city": "Mahall al Qal`ah", "lon": "43.9591667"}, {"lat": "14.6294444", "city": "Mahall al `Umayri", "lon": "44.0616667"}, {"lat": "14.5838889", "city": "Mahall al Wali", "lon": "44.0377778"}, {"lat": "14.6488889", "city": "Mahall Jabal Qarad", "lon": "44.0633333"}, {"lat": "14.6022222", "city": "Mahall Madh", "lon": "44.0769444"}, {"lat": "14.4605556", "city": "Mahall Sa`id", "lon": "43.9538889"}, {"lat": "14.5808333", "city": "Mahall Subu`", "lon": "44.0772222"}, {"lat": "14.8833333", "city": "Mahdar", "lon": "44.4"}, {"lat": "14.7494444", "city": "Mahlit", "lon": "44.0258333"}, {"lat": "14.58", "city": "Malis", "lon": "44.1680556"}, {"lat": "14.6333333", "city": "Mankada", "lon": "44.3980556"}, {"lat": "14.6333333", "city": "Manqadah", "lon": "44.3980556"}, {"lat": "14.6333333", "city": "Manqada", "lon": "44.3980556"}, {"lat": "14.6333333", "city": "Manqadhah", "lon": "44.3980556"}, {"lat": "14.9833333", "city": "Manshiyah", "lon": "44.2"}, {"lat": "14.4344444", "city": "Mansibah", "lon": "44.2972222"}, {"lat": "14.7369444", "city": "Maqhayat as Sawad", "lon": "44.3805556"}, {"lat": "14.5916667", "city": "Maram", "lon": "44.6"}, {"lat": "14.5055556", "city": "Mariyah", "lon": "44.2686111"}, {"lat": "14.4936111", "city": "Marsabah", "lon": "44.3452778"}, {"lat": "14.5122222", "city": "Marwahan", "lon": "44.2530556"}, {"lat": "14.4983333", "city": "Maswarah Bayt Ziyad", "lon": "44.1136111"}, {"lat": "14.6052778", "city": "Mati`", "lon": "44.0925"}, {"lat": "14.4666667", "city": "Mauau al Mausut", "lon": "44.1666667"}, {"lat": "14.4666667", "city": "Mauau el Mausut", "lon": "44.1666667"}, {"lat": "14.3497222", "city": "Mawkal", "lon": "44.6044444"}, {"lat": "14.7241667", "city": "Mawthab", "lon": "44.0230556"}, {"lat": "14.6902778", "city": "Maywan", "lon": "44.1002778"}, {"lat": "14.6833333", "city": "Maz\u00cc\u00a7rat", "lon": "43.9166667"}, {"lat": "14.6369444", "city": "Medinat al `Abid", "lon": "43.9577778"}, {"lat": "14.9833333", "city": "Menshie", "lon": "44.2"}, {"lat": "14.8011111", "city": "Miqar", "lon": "43.9183333"}, {"lat": "14.3741667", "city": "Mishrafah", "lon": "43.5716667"}, {"lat": "14.5888889", "city": "Moayib", "lon": "44.4247222"}, {"lat": "14.3438889", "city": "Mulziq", "lon": "44.5597222"}, {"lat": "14.6333333", "city": "Munqidhah", "lon": "44.3980556"}, {"lat": "14.6541667", "city": "Nahran al Kilabah", "lon": "44.4505556"}, {"lat": "14.6", "city": "Nalua", "lon": "44.2833333"}, {"lat": "14.5044444", "city": "Nay`an", "lon": "44.2202778"}, {"lat": "14.6266667", "city": "Naylah", "lon": "43.8738889"}, {"lat": "14.9041667", "city": "Naysan", "lon": "44.55"}, {"lat": "14.6", "city": "Nik Delabiat", "lon": "44.0166667"}, {"lat": "14.5480556", "city": "Nujaym", "lon": "44.3058333"}, {"lat": "14.4736111", "city": "Numarah", "lon": "44.4316667"}, {"lat": "14.9141667", "city": "Nuwayd", "lon": "44.1905556"}, {"lat": "14.9833333", "city": "Nuweid", "lon": "44.1666667"}, {"lat": "14.65", "city": "Otma", "lon": "43.9333333"}, {"lat": "14.4", "city": "Parifa", "lon": "43.8"}, {"lat": "14.7166667", "city": "Qaba as Sama", "lon": "44.0333333"}, {"lat": "14.6833333", "city": "Qababal", "lon": "44.3166667"}, {"lat": "14.7166667", "city": "Qaba es' Sama", "lon": "44.0333333"}, {"lat": "14.6691667", "city": "Qanna`", "lon": "43.9627778"}, {"lat": "14.7680556", "city": "Qarn `Arrah", "lon": "43.9522222"}, {"lat": "14.505", "city": "Qarn Dhamar", "lon": "44.4072222"}, {"lat": "14.6919444", "city": "Qaryat al `Ansi", "lon": "44.1361111"}, {"lat": "14.9608333", "city": "Qaryat al Ghuwarah", "lon": "44.1877778"}, {"lat": "14.1458333", "city": "Qaryat al Hasib", "lon": "43.6083333"}, {"lat": "14.7", "city": "Qaryat al Qubbah", "lon": "44.25"}, {"lat": "14.9352778", "city": "Qaryat an Naqil", "lon": "44.2880556"}, {"lat": "14.4602778", "city": "Qaryat as Sayr", "lon": "44.0302778"}, {"lat": "14.3372222", "city": "Qaryat Nahiyat al Jabjab", "lon": "43.8227778"}, {"lat": "14.6933333", "city": "Qaryat `Umar al Hajj", "lon": "43.9425"}, {"lat": "14.7319444", "city": "Qaryat `Usayq", "lon": "44.1369444"}, {"lat": "14.6619444", "city": "Qubatil", "lon": "44.3194444"}, {"lat": "14.6488889", "city": "Qubbat Hathith", "lon": "44.2719444"}, {"lat": "14.8333333", "city": "Qura al A`mas", "lon": "44.6458333"}, {"lat": "14.4666667", "city": "Quram", "lon": "44.1833333"}, {"lat": "14.3886111", "city": "Qurar", "lon": "44.4069444"}, {"lat": "14.77", "city": "Quruf", "lon": "43.9436111"}, {"lat": "14.4666667", "city": "Qurum", "lon": "44.1833333"}, {"lat": "14.4666667", "city": "Qurun", "lon": "44.1833333"}, {"lat": "14.7166667", "city": "Rada", "lon": "44.5"}, {"lat": "14.7294444", "city": "Rahabah", "lon": "44.2194444"}, {"lat": "14.95", "city": "Rahah", "lon": "44.3666667"}, {"lat": "14.5827778", "city": "Rakhamah", "lon": "44.46"}, {"lat": "14.7041667", "city": "Rasabah", "lon": "44.3566667"}, {"lat": "14.6197222", "city": "Rasah", "lon": "44.4683333"}, {"lat": "14.7833333", "city": "Rawbah", "lon": "44.2166667"}, {"lat": "14.45", "city": "Rawdah", "lon": "44.0333333"}, {"lat": "15.05", "city": "Redda", "lon": "44.0666667"}, {"lat": "14.4333333", "city": "Ribat al Mazebi", "lon": "44.2666667"}, {"lat": "14.4333333", "city": "Ribat al Ma`zibi", "lon": "44.2666667"}, {"lat": "14.6561111", "city": "Ribat Bal Askari", "lon": "43.8830556"}, {"lat": "14.45", "city": "Ribat Qarz", "lon": "44.3833333"}, {"lat": "14.7166667", "city": "Rida`", "lon": "44.5"}, {"lat": "14.7191667", "city": "Rifd", "lon": "44.2105556"}, {"lat": "14.7041667", "city": "Risabah", "lon": "44.3566667"}, {"lat": "14.4333333", "city": "Robat-el-Mazebi", "lon": "44.2666667"}, {"lat": "14.2", "city": "Rubu` Bani Ghulays", "lon": "43.7041667"}, {"lat": "14.5", "city": "Rub` `Ufmah", "lon": "44.0083333"}, {"lat": "14.45", "city": "Rudha", "lon": "44.0333333"}, {"lat": "14.7597222", "city": "Sa`ah", "lon": "44.0472222"}, {"lat": "14.8", "city": "Sabalat Bani Bukhayt", "lon": "44.625"}, {"lat": "14.7166667", "city": "Sabrah", "lon": "44.1666667"}, {"lat": "14.4269444", "city": "Sabt al Karabah", "lon": "44.0613889"}, {"lat": "14.5388889", "city": "Sahban", "lon": "44.2827778"}, {"lat": "14.5833333", "city": "Sajd", "lon": "43.9333333"}, {"lat": "14.5833333", "city": "Sajid", "lon": "43.9333333"}, {"lat": "14.55", "city": "Samah al `Ulya", "lon": "44.45"}, {"lat": "14.5013889", "city": "Samah as Sufla", "lon": "44.4736111"}, {"lat": "14.4825", "city": "Samah", "lon": "44.4822222"}, {"lat": "14.5013889", "city": "Samat al Sufla", "lon": "44.4736111"}, {"lat": "14.55", "city": "Samat al `Ulya", "lon": "44.45"}, {"lat": "14.55", "city": "Same al `Ulya", "lon": "44.45"}, {"lat": "14.5013889", "city": "Same as Sufl\u00e1", "lon": "44.4736111"}, {"lat": "14.55", "city": "Same-el-Ulia", "lon": "44.45"}, {"lat": "14.5013889", "city": "Same-es-Sifla", "lon": "44.4736111"}, {"lat": "14.7816667", "city": "Samh", "lon": "44.215"}, {"lat": "14.55", "city": "Sammi al `Ulya", "lon": "44.45"}, {"lat": "14.4233333", "city": "Sanaban", "lon": "44.6625"}, {"lat": "14.585", "city": "San`ah", "lon": "44.3066667"}, {"lat": "14.8483333", "city": "Sayban", "lon": "43.9116667"}, {"lat": "14.4652778", "city": "Sayyah", "lon": "44.3808333"}, {"lat": "14.4166667", "city": "Serafa", "lon": "43.6"}, {"lat": "14.6833333", "city": "Seye", "lon": "44.35"}, {"lat": "14.6908333", "city": "Shabin", "lon": "44.0041667"}, {"lat": "14.6663889", "city": "Shahban", "lon": "44.2144444"}, {"lat": "14.7166667", "city": "Shahizah", "lon": "44.1"}, {"lat": "14.85", "city": "Shalif", "lon": "44.45"}, {"lat": "14.8608333", "city": "Shamhaz", "lon": "44.1527778"}, {"lat": "14.7791667", "city": "Shanadib", "lon": "44.325"}, {"lat": "14.7086111", "city": "Sharaf al Izar", "lon": "44.0030556"}, {"lat": "14.75", "city": "Sharaj", "lon": "44.5"}, {"lat": "14.6819444", "city": "Sharih", "lon": "44.28"}, {"lat": "14.8947222", "city": "Shattat Dhifrah", "lon": "43.9594444"}, {"lat": "14.6072222", "city": "Shawkan", "lon": "44.4805556"}, {"lat": "14.4125", "city": "Shi`b ar Rabh", "lon": "44.0808333"}, {"lat": "14.3972222", "city": "Shirah", "lon": "44.4744444"}, {"lat": "14.6166667", "city": "Shomahi", "lon": "44.35"}, {"lat": "14.6166667", "city": "Shuaina", "lon": "44.2833333"}, {"lat": "14.4166667", "city": "Shukian", "lon": "44.6666667"}, {"lat": "14.6166667", "city": "Shuwaynah", "lon": "44.2833333"}, {"lat": "14.7427778", "city": "Sibal al Hadid", "lon": "44.4963889"}, {"lat": "14.7486111", "city": "Sibyah", "lon": "44.4702778"}, {"lat": "14.5208333", "city": "Sidd Thabbah", "lon": "44.0230556"}, {"lat": "14.6066667", "city": "Sihaq", "lon": "44.2233333"}, {"lat": "15.0", "city": "Simh", "lon": "44.1833333"}, {"lat": "14.7744444", "city": "Sinyam", "lon": "43.9930556"}, {"lat": "14.6166667", "city": "Skerm", "lon": "43.95"}, {"lat": "14.5", "city": "Sud Khamis", "lon": "43.85"}, {"lat": "14.8", "city": "Sud Sabt", "lon": "43.8666667"}, {"lat": "14.6666667", "city": "Sufara", "lon": "44.4833333"}, {"lat": "14.8", "city": "Suhul", "lon": "43.8666667"}, {"lat": "14.35", "city": "Suk-ed-Duluth", "lon": "43.7166667"}, {"lat": "14.2552778", "city": "Suk-el-Akhad", "lon": "43.6491667"}, {"lat": "14.6666667", "city": "Suk-el-Etnin", "lon": "44.05"}, {"lat": "14.7833333", "city": "Suk-el-Hel", "lon": "43.8"}, {"lat": "14.5", "city": "Suk-el-Khamis", "lon": "43.85"}, {"lat": "14.8", "city": "Suk-es-Sebt", "lon": "43.8666667"}, {"lat": "14.8", "city": "Sukhol", "lon": "43.8666667"}, {"lat": "14.1333333", "city": "Sullam", "lon": "43.6333333"}, {"lat": "14.2552778", "city": "Suq al Ahad", "lon": "43.6491667"}, {"lat": "14.7833333", "city": "Suq al Hall", "lon": "43.8"}, {"lat": "14.7833333", "city": "Suq al Hel", "lon": "43.8"}, {"lat": "14.5541667", "city": "Suq al Ithnayn", "lon": "43.9108333"}, {"lat": "14.8", "city": "Suq al Jum`ah", "lon": "44.0166667"}, {"lat": "14.35", "city": "Suq al Khamis", "lon": "43.8166667"}, {"lat": "14.5841667", "city": "Suq as Sabt", "lon": "43.9766667"}, {"lat": "14.35", "city": "Suq ath Thuluth", "lon": "43.7166667"}, {"lat": "14.6666667", "city": "Suq Atnain", "lon": "44.05"}, {"lat": "14.7833333", "city": "Taiz", "lon": "44.0333333"}, {"lat": "14.615", "city": "Ta`izz al Manar", "lon": "44.0333333"}, {"lat": "14.6166667", "city": "Ta`izz", "lon": "43.9166667"}, {"lat": "14.8", "city": "Talahamah", "lon": "44.2833333"}, {"lat": "14.4", "city": "Tarifa", "lon": "43.8"}, {"lat": "14.4", "city": "Terifa", "lon": "43.8"}, {"lat": "14.9166667", "city": "Teshh", "lon": "44.2333333"}, {"lat": "14.3383333", "city": "Thabaq", "lon": "44.5102778"}, {"lat": "14.5472222", "city": "Thamar", "lon": "44.4527778"}, {"lat": "14.8", "city": "Thawbar", "lon": "44.1616667"}, {"lat": "14.7430556", "city": "Tilhamah", "lon": "44.3002778"}, {"lat": "14.6666667", "city": "Tulut", "lon": "44.0"}, {"lat": "14.4975", "city": "Ubayriq", "lon": "44.72"}, {"lat": "14.25", "city": "`Ul\u00e1", "lon": "43.7333333"}, {"lat": "14.5402778", "city": "`Umar", "lon": "44.0027778"}, {"lat": "14.4166667", "city": "`Umran", "lon": "44.4"}, {"lat": "14.65", "city": "`Utmah", "lon": "43.9333333"}, {"lat": "14.6", "city": "Vaila", "lon": "43.9333333"}, {"lat": "14.8044444", "city": "Wabrah", "lon": "43.9841667"}, {"lat": "14.7441667", "city": "Wala'", "lon": "44.0072222"}, {"lat": "14.4666667", "city": "Waq", "lon": "43.9666667"}, {"lat": "14.5833333", "city": "Waraka", "lon": "44.6"}, {"lat": "14.4086111", "city": "Wardasan", "lon": "44.345"}, {"lat": "14.8202778", "city": "Wasitah", "lon": "44.2794444"}, {"lat": "14.6", "city": "Waylah", "lon": "43.9333333"}, {"lat": "14.7402778", "city": "Waynan", "lon": "44.0916667"}, {"lat": "14.5580556", "city": "Ya`ar", "lon": "44.1958333"}, {"lat": "14.5644444", "city": "Yafa`", "lon": "44.3391667"}, {"lat": "14.9136111", "city": "Yakar", "lon": "44.3133333"}, {"lat": "14.8", "city": "Yulla", "lon": "43.8333333"}, {"lat": "14.4741667", "city": "Zabir", "lon": "44.0866667"}, {"lat": "14.8666667", "city": "Zarajah", "lon": "44.3833333"}, {"lat": "14.8666667", "city": "Zaraja", "lon": "44.3833333"}, {"lat": "14.4", "city": "Zi Alul", "lon": "44.2833333"}, {"lat": "14.3819444", "city": "Zughbah", "lon": "44.5205556"}], "03": [{"lat": "16.3333333", "city": "`Abd Allah Gharib", "lon": "52.3166667"}, {"lat": "16.6", "city": "Ad Dibin", "lon": "51.3333333"}, {"lat": "16.3", "city": "Ahul", "lon": "51.2"}, {"lat": "16.3666667", "city": "`Airub", "lon": "52.3666667"}, {"lat": "15.2333333", "city": "Ais", "lon": "51.1"}, {"lat": "15.5908333", "city": "Akhl Breigha", "lon": "50.9219444"}, {"lat": "15.5908333", "city": "Akhl Burayqah", "lon": "50.9219444"}, {"lat": "15.4097222", "city": "Akhud", "lon": "51.6552778"}, {"lat": "15.6363889", "city": "Al Buzun", "lon": "50.8916667"}, {"lat": "16.5166667", "city": "Al Fatk", "lon": "52.6833333"}, {"lat": "16.4166667", "city": "Al Faydami", "lon": "52.4333333"}, {"lat": "16.2166667", "city": "Al Ghaydah", "lon": "52.1833333"}, {"lat": "15.5013889", "city": "Al Ghayl", "lon": "50.8969444"}, {"lat": "17.95", "city": "Al Halya", "lon": "51.4833333"}, {"lat": "16.4666667", "city": "Al Jauhari", "lon": "52.4833333"}, {"lat": "16.7166667", "city": "Al Muqarqar", "lon": "51.4333333"}, {"lat": "15.7230556", "city": "Al Qawz", "lon": "50.5691667"}, {"lat": "15.7230556", "city": "Al Qoz", "lon": "50.5691667"}, {"lat": "15.2119444", "city": "Al Qumra", "lon": "51.2505556"}, {"lat": "15.2119444", "city": "Al Qumrah", "lon": "51.2505556"}, {"lat": "16.7333333", "city": "Al Qurh", "lon": "51.4833333"}, {"lat": "15.7230556", "city": "Al Quz", "lon": "50.5691667"}, {"lat": "15.6636111", "city": "Al Wadi", "lon": "52.1302778"}, {"lat": "16.2333333", "city": "Ariqim", "lon": "51.2833333"}, {"lat": "16.5833333", "city": "Ar Rabab", "lon": "51.3333333"}, {"lat": "16.4666667", "city": "Ash Shaykh al Jawhari", "lon": "52.4833333"}, {"lat": "15.3297222", "city": "`Atab", "lon": "51.4811111"}, {"lat": "16.8166667", "city": "`Ayuri", "lon": "52.0"}, {"lat": "16.4833333", "city": "Bahat", "lon": "51.3"}, {"lat": "15.7611111", "city": "Batha'", "lon": "50.5777778"}, {"lat": "16.7166667", "city": "Bil `Aruq", "lon": "51.7833333"}, {"lat": "15.7105556", "city": "Bin Qora", "lon": "50.5319444"}, {"lat": "15.6363889", "city": "Buzu", "lon": "50.8916667"}, {"lat": "15.6363889", "city": "Buzun", "lon": "50.8916667"}, {"lat": "17.1833333", "city": "Dakharaib", "lon": "52.45"}, {"lat": "16.5666667", "city": "Damghut", "lon": "52.8333333"}, {"lat": "16.5666667", "city": "Damkut", "lon": "52.8333333"}, {"lat": "16.5666667", "city": "Damqat", "lon": "52.8333333"}, {"lat": "16.5666667", "city": "Damqawt", "lon": "52.8333333"}, {"lat": "16.5666667", "city": "Damqut", "lon": "52.8333333"}, {"lat": "15.25", "city": "Darfat", "lon": "51.1833333"}, {"lat": "15.25", "city": "Darfut", "lon": "51.1833333"}, {"lat": "16.2666667", "city": "Dawhal", "lon": "51.7666667"}, {"lat": "15.2333333", "city": "Dhubeia", "lon": "51.1"}, {"lat": "18.2", "city": "Dhula`", "lon": "50.4166667"}, {"lat": "15.2333333", "city": "Dubay`ah", "lon": "51.1"}, {"lat": "16.2166667", "city": "Ghaidha", "lon": "52.1833333"}, {"lat": "15.5013889", "city": "Ghayl", "lon": "50.8969444"}, {"lat": "15.5013889", "city": "Gheil", "lon": "50.8969444"}, {"lat": "17.3", "city": "Habarut", "lon": "52.7333333"}, {"lat": "17.3", "city": "Habrut", "lon": "52.7333333"}, {"lat": "15.9847222", "city": "Hairut", "lon": "52.1422222"}, {"lat": "15.9847222", "city": "Harut", "lon": "52.1422222"}, {"lat": "15.5919444", "city": "Haswayn", "lon": "52.1022222"}, {"lat": "16.6333333", "city": "Hauf", "lon": "53.0333333"}, {"lat": "16.6333333", "city": "Hawf", "lon": "53.0333333"}, {"lat": "15.9847222", "city": "Hayrut", "lon": "52.1422222"}, {"lat": "15.9847222", "city": "Herut", "lon": "52.1422222"}, {"lat": "15.2108333", "city": "Hir al Khubria", "lon": "51.2380556"}, {"lat": "15.4333333", "city": "Hisn `Ad", "lon": "50.9666667"}, {"lat": "16.7666667", "city": "Hisn Ba Durayjah", "lon": "51.2666667"}, {"lat": "16.7666667", "city": "Hisn Bayt Qumsayt", "lon": "51.25"}, {"lat": "15.5322222", "city": "Hleime", "lon": "50.9297222"}, {"lat": "15.5322222", "city": "Hulima", "lon": "50.9297222"}, {"lat": "15.4333333", "city": "Husn `Ad", "lon": "50.9666667"}, {"lat": "15.5919444", "city": "Huswain", "lon": "52.1022222"}, {"lat": "15.7105556", "city": "Ibn Qawrah", "lon": "50.5319444"}, {"lat": "15.7105556", "city": "Ibn Qurah", "lon": "50.5319444"}, {"lat": "16.3666667", "city": "`Irub", "lon": "52.3666667"}, {"lat": "15.3297222", "city": "`Itab", "lon": "51.4811111"}, {"lat": "16.6333333", "city": "Jadhib", "lon": "52.9833333"}, {"lat": "16.6333333", "city": "Jadib", "lon": "52.9833333"}, {"lat": "16.3666667", "city": "Jarub", "lon": "52.3666667"}, {"lat": "16.4666667", "city": "Jauhari", "lon": "52.4833333"}, {"lat": "16.4666667", "city": "Jawhari", "lon": "52.4833333"}, {"lat": "16.6333333", "city": "Jodab", "lon": "52.9833333"}, {"lat": "16.6333333", "city": "Judab", "lon": "52.9833333"}, {"lat": "15.65", "city": "Kadifut", "lon": "52.2"}, {"lat": "15.65", "city": "Khadifut", "lon": "52.2"}, {"lat": "15.6333333", "city": "Khaisat", "lon": "52.2166667"}, {"lat": "15.8666667", "city": "Khalfut", "lon": "52.1666667"}, {"lat": "15.6333333", "city": "Khaysayah", "lon": "52.1"}, {"lat": "15.6333333", "city": "Khaysayb", "lon": "52.2166667"}, {"lat": "15.6333333", "city": "Khaysayt", "lon": "52.2166667"}, {"lat": "16.75", "city": "Kidyut", "lon": "51.45"}, {"lat": "16.7166667", "city": "Kudaywah", "lon": "51.4666667"}, {"lat": "15.3833333", "city": "Liban", "lon": "51.55"}, {"lat": "15.6666667", "city": "Majwah", "lon": "50.6333333"}, {"lat": "15.6875", "city": "Maqrah", "lon": "50.6502778"}, {"lat": "15.6875", "city": "Maqrat", "lon": "50.6502778"}, {"lat": "15.75", "city": "Marakhai", "lon": "50.3833333"}, {"lat": "15.75", "city": "Marakhayy", "lon": "50.3833333"}, {"lat": "16.3166667", "city": "Mar`ayt", "lon": "51.25"}, {"lat": "16.2833333", "city": "Mar`isah", "lon": "51.25"}, {"lat": "15.6666667", "city": "Markha", "lon": "50.8333333"}, {"lat": "16.7166667", "city": "Min`ar", "lon": "51.3"}, {"lat": "16.3166667", "city": "Mreid", "lon": "51.25"}, {"lat": "17.8166667", "city": "Mudad", "lon": "51.0833333"}, {"lat": "16.1833333", "city": "Muhayfif", "lon": "52.2166667"}, {"lat": "16.1833333", "city": "Muhayifif", "lon": "52.2166667"}, {"lat": "15.65", "city": "Muraga", "lon": "50.8666667"}, {"lat": "16.3166667", "city": "Murait", "lon": "51.25"}, {"lat": "16.3166667", "city": "Murayt", "lon": "51.25"}, {"lat": "15.8238889", "city": "Nishtawn", "lon": "52.1841667"}, {"lat": "15.8238889", "city": "Nishtun", "lon": "52.1841667"}, {"lat": "15.73", "city": "N'muraigh", "lon": "50.5094444"}, {"lat": "16.75", "city": "Qabr Salih", "lon": "51.2833333"}, {"lat": "15.4311111", "city": "Qalana", "lon": "50.9338889"}, {"lat": "15.9141667", "city": "Qasawa", "lon": "51.0733333"}, {"lat": "15.8833333", "city": "Qaw", "lon": "51.0333333"}, {"lat": "15.4333333", "city": "Qiln", "lon": "50.9666667"}, {"lat": "15.4227778", "city": "Qishn", "lon": "51.6813889"}, {"lat": "16.6833333", "city": "Raydat `Ibnut", "lon": "51.6166667"}, {"lat": "17.2", "city": "Sadd Bakanasid", "lon": "52.3833333"}, {"lat": "15.2105556", "city": "Saihut", "lon": "51.2455556"}, {"lat": "15.3333333", "city": "Samarma", "lon": "51.0166667"}, {"lat": "17.8333333", "city": "Sanaw", "lon": "51.0833333"}, {"lat": "15.5338889", "city": "Saqr", "lon": "51.9427778"}, {"lat": "16.8666667", "city": "Sarif", "lon": "51.8166667"}, {"lat": "15.2105556", "city": "Sayhut", "lon": "51.2455556"}, {"lat": "15.3333333", "city": "Semarma", "lon": "51.0166667"}, {"lat": "15.1666667", "city": "Sharkhat", "lon": "51.0166667"}, {"lat": "17.7", "city": "Shihan", "lon": "52.45"}, {"lat": "15.4486111", "city": "Suq", "lon": "51.7341667"}, {"lat": "15.9372222", "city": "Tabut", "lon": "52.1383333"}, {"lat": "15.1166667", "city": "Tamnan", "lon": "50.7833333"}, {"lat": "15.1333333", "city": "Tamnum", "lon": "50.8166667"}, {"lat": "15.1333333", "city": "Tanum", "lon": "50.8166667"}, {"lat": "15.1333333", "city": "Thamnun", "lon": "50.8166667"}, {"lat": "16.7333333", "city": "`Uqaynah", "lon": "51.75"}, {"lat": "16.3666667", "city": "Yerub", "lon": "52.3666667"}, {"lat": "16.3666667", "city": "Yirub", "lon": "52.3666667"}], "13": [{"lat": "14.3325", "city": "Abu Hajirah", "lon": "44.1072222"}, {"lat": "13.8416667", "city": "`Adan al Ashluh", "lon": "44.225"}, {"lat": "13.9", "city": "Adarib", "lon": "44.4333333"}, {"lat": "13.9", "city": "Ad Dahana", "lon": "44.1833333"}, {"lat": "13.7666667", "city": "Ad Dahan", "lon": "44.3166667"}, {"lat": "13.9", "city": "Ad Dahanah", "lon": "44.1833333"}, {"lat": "13.7666667", "city": "Ad Dahhan", "lon": "44.3166667"}, {"lat": "14.05", "city": "Ad Dahra", "lon": "44.45"}, {"lat": "14.05", "city": "Ad Dahrah", "lon": "44.45"}, {"lat": "14.2919444", "city": "Ad Damim", "lon": "44.1966667"}, {"lat": "13.8833333", "city": "Ad Dar", "lon": "44.2166667"}, {"lat": "14.15", "city": "Ad Day`ah", "lon": "44.2166667"}, {"lat": "14.2333333", "city": "Ad Dharrah", "lon": "44.5833333"}, {"lat": "14.35", "city": "Ad Dobi", "lon": "44.3333333"}, {"lat": "14.0166667", "city": "Ad Dokber", "lon": "44.4333333"}, {"lat": "14.2569444", "city": "Ad Dubr", "lon": "44.2502778"}, {"lat": "14.0833333", "city": "Ad Dur", "lon": "44.2166667"}, {"lat": "14.4441667", "city": "Adhan", "lon": "44.2052778"}, {"lat": "14.2333333", "city": "Adh Dharrah", "lon": "44.5833333"}, {"lat": "14.0333333", "city": "Adh Dhime", "lon": "44.25"}, {"lat": "13.8666667", "city": "Adin", "lon": "44.1833333"}, {"lat": "14.3475", "city": "Ahad al Mawasimah", "lon": "44.1275"}, {"lat": "14.0833333", "city": "Ahilet", "lon": "44.25"}, {"lat": "14.2011111", "city": "Ajlub", "lon": "44.5977778"}, {"lat": "13.75", "city": "Akamah", "lon": "44.2833333"}, {"lat": "13.75", "city": "Akamat", "lon": "44.2833333"}, {"lat": "13.7666667", "city": "Akan Shukef", "lon": "44.15"}, {"lat": "13.9833333", "city": "Akrai", "lon": "44.5"}, {"lat": "13.9833333", "city": "Akraie", "lon": "44.5"}, {"lat": "13.9", "city": "Al `Abr", "lon": "44.7666667"}, {"lat": "13.9166667", "city": "Al `Adharib", "lon": "44.4125"}, {"lat": "14.3833333", "city": "Al Aghiair", "lon": "44.2166667"}, {"lat": "14.2", "city": "Al Ajlub", "lon": "44.6"}, {"lat": "14.3958333", "city": "Al A`ki", "lon": "44.2455556"}, {"lat": "13.8", "city": "Al `Amin", "lon": "44.3166667"}, {"lat": "13.85", "city": "Al `Aqa'ir", "lon": "44.25"}, {"lat": "14.3", "city": "Al `Aqiyah", "lon": "44.75"}, {"lat": "13.9666667", "city": "Al Aribe", "lon": "44.4166667"}, {"lat": "14.1416667", "city": "Al `Arim", "lon": "43.935"}, {"lat": "14.1", "city": "Al Ashmah", "lon": "44.45"}, {"lat": "14.195", "city": "Al `Aydah", "lon": "43.8969444"}, {"lat": "14.2655556", "city": "Al Balad", "lon": "44.3861111"}, {"lat": "14.3077778", "city": "Al Barah", "lon": "44.1380556"}, {"lat": "14.3666667", "city": "Al Barba", "lon": "44.2833333"}, {"lat": "13.9166667", "city": "Al Bicht", "lon": "44.1833333"}, {"lat": "13.8666667", "city": "Al Fajir", "lon": "44.6"}, {"lat": "13.8833333", "city": "Al Falaq", "lon": "43.9833333"}, {"lat": "14.15", "city": "Al Fanaj al Habil", "lon": "43.85"}, {"lat": "14.0958333", "city": "Al Farab", "lon": "44.15"}, {"lat": "13.9833333", "city": "Al Fejaie", "lon": "44.4166667"}, {"lat": "14.3333333", "city": "Al Fergedi", "lon": "44.2166667"}, {"lat": "13.95", "city": "Al Ghawb", "lon": "43.7"}, {"lat": "13.85", "city": "Al Guba", "lon": "44.4166667"}, {"lat": "13.9166667", "city": "Al Haden", "lon": "44.4333333"}, {"lat": "13.8833333", "city": "Al Hadha", "lon": "44.3333333"}, {"lat": "14.0666667", "city": "Al Hadid", "lon": "44.3166667"}, {"lat": "13.9166667", "city": "Al Hadre", "lon": "44.3166667"}, {"lat": "14.0833333", "city": "Al Hakahere", "lon": "44.15"}, {"lat": "14.05", "city": "Al Hamadi", "lon": "44.275"}, {"lat": "13.8433333", "city": "Al Hamadin", "lon": "43.9438889"}, {"lat": "14.0436111", "city": "Al Haqab", "lon": "44.6736111"}, {"lat": "14.0833333", "city": "Al Haradah", "lon": "44.6833333"}, {"lat": "14.3438889", "city": "Al Harf", "lon": "44.3180556"}, {"lat": "13.9166667", "city": "Al Hasabiyan", "lon": "43.8958333"}, {"lat": "14.2941667", "city": "Al Hassah", "lon": "44.1138889"}, {"lat": "14.3280556", "city": "Al Hayadi", "lon": "44.1852778"}, {"lat": "13.8613889", "city": "Al Hayyan", "lon": "43.9819444"}, {"lat": "14.3666667", "city": "Al Haza", "lon": "44.3"}, {"lat": "14.0225", "city": "Al Hazm", "lon": "43.9980556"}, {"lat": "14.0666667", "city": "Al Hif", "lon": "44.25"}, {"lat": "13.8416667", "city": "Al Himadim", "lon": "43.95"}, {"lat": "14.3661111", "city": "Al Hiswar", "lon": "44.2127778"}, {"lat": "14.0333333", "city": "Al Hokamin", "lon": "44.2333333"}, {"lat": "14.3105556", "city": "Al Hudayf", "lon": "44.0325"}, {"lat": "14.0125", "city": "Al Hujfah", "lon": "44.1333333"}, {"lat": "14.0436111", "city": "Al Huqab", "lon": "44.6736111"}, {"lat": "13.85", "city": "Al Husayn", "lon": "44.55"}, {"lat": "14.1052778", "city": "Al Jabjab", "lon": "44.0361111"}, {"lat": "13.8833333", "city": "Al Jah", "lon": "44.25"}, {"lat": "14.2786111", "city": "Al Jarf", "lon": "44.3066667"}, {"lat": "13.8333333", "city": "Al Jawb", "lon": "44.6"}, {"lat": "14.2597222", "city": "Al Jawran", "lon": "44.5883333"}, {"lat": "14.0666667", "city": "Al Ji`ami", "lon": "44.0333333"}, {"lat": "14.1", "city": "Al Jibjab", "lon": "44.0333333"}, {"lat": "13.8333333", "city": "Al Jidis", "lon": "44.2666667"}, {"lat": "14.3761111", "city": "Al Jubah", "lon": "44.2716667"}, {"lat": "14.0833333", "city": "Al Jubayb", "lon": "44.3"}, {"lat": "13.8333333", "city": "Al Jubb", "lon": "44.6"}, {"lat": "13.8916667", "city": "Al Katami", "lon": "44.7875"}, {"lat": "14.3466667", "city": "Al Khalaqah", "lon": "44.4569444"}, {"lat": "13.95", "city": "Al Kharibah", "lon": "44.2166667"}, {"lat": "14.125", "city": "Al Khaya'il", "lon": "43.7916667"}, {"lat": "13.85", "city": "Al Khiyariyah", "lon": "44.4833333"}, {"lat": "14.2813889", "city": "Al Lakmah", "lon": "44.2744444"}, {"lat": "14.3644444", "city": "Al Mabrak", "lon": "44.2488889"}, {"lat": "14.3166667", "city": "Al Maghrabi", "lon": "44.2"}, {"lat": "14.3166667", "city": "Al Maghribi", "lon": "44.2"}, {"lat": "13.8572222", "city": "Al Maghzub", "lon": "44.6105556"}, {"lat": "14.1197222", "city": "Al Mahrum", "lon": "44.7488889"}, {"lat": "14.2333333", "city": "Al Majatah", "lon": "44.25"}, {"lat": "13.95", "city": "Al Makhadir", "lon": "44.1833333"}, {"lat": "13.95", "city": "Al Manaza", "lon": "44.1833333"}, {"lat": "14.3813889", "city": "Al Manazil", "lon": "44.1986111"}, {"lat": "14.2197222", "city": "Al Manzil", "lon": "44.3147222"}, {"lat": "14.2788889", "city": "Al Maqhayah", "lon": "44.09"}, {"lat": "13.75", "city": "Al Masani`", "lon": "44.35"}, {"lat": "13.9333333", "city": "Al Masha`ibah", "lon": "44.2166667"}, {"lat": "14.1833333", "city": "Al Mashriq", "lon": "44.05"}, {"lat": "14.2", "city": "Al Masrab", "lon": "44.7166667"}, {"lat": "14.2", "city": "Al Masrib", "lon": "44.7166667"}, {"lat": "14.2672222", "city": "Al Matur", "lon": "44.1519444"}, {"lat": "13.8547222", "city": "Al Mawsatah", "lon": "43.9644444"}, {"lat": "14.1458333", "city": "Al Ma`zabah", "lon": "44.6513889"}, {"lat": "13.85", "city": "Al Mehrate", "lon": "44.3666667"}, {"lat": "14.1166667", "city": "Al Mihrath", "lon": "44.1333333"}, {"lat": "14.0166667", "city": "Al Milala", "lon": "44.2"}, {"lat": "14.1333333", "city": "Al Mina'", "lon": "44.125"}, {"lat": "14.0", "city": "Al Mishrak", "lon": "44.15"}, {"lat": "14.0", "city": "Al Mishraq", "lon": "44.15"}, {"lat": "13.9333333", "city": "Al Musha`ibah", "lon": "44.2166667"}, {"lat": "14.2791667", "city": "Al Nazhah", "lon": "44.2458333"}, {"lat": "14.2", "city": "Al Qiyadi", "lon": "44.1666667"}, {"lat": "14.0166667", "city": "Al Rada`i", "lon": "44.9"}, {"lat": "13.8166667", "city": "Al Sayyan`", "lon": "44.1666667"}, {"lat": "13.9686111", "city": "Al `Udain", "lon": "43.9983333"}, {"lat": "13.9686111", "city": "Al `Udayn", "lon": "43.9983333"}, {"lat": "13.9833333", "city": "Alurba", "lon": "43.8666667"}, {"lat": "13.9333333", "city": "Al Usni", "lon": "44.2666667"}, {"lat": "13.9833333", "city": "Al `Uzlah", "lon": "44.2833333"}, {"lat": "14.05", "city": "Al Vakkhfud", "lon": "43.8833333"}, {"lat": "14.3175", "city": "Al Wasitah", "lon": "44.4416667"}, {"lat": "13.9", "city": "Anashmed", "lon": "44.0166667"}, {"lat": "14.1", "city": "An Nadirah", "lon": "44.4788889"}, {"lat": "13.9166667", "city": "An Nagit", "lon": "44.1666667"}, {"lat": "13.8666667", "city": "An Najd", "lon": "44.1833333"}, {"lat": "14.2802778", "city": "An Nazhah", "lon": "44.2488889"}, {"lat": "13.8666667", "city": "An Nejade", "lon": "44.1833333"}, {"lat": "13.9666667", "city": "`Aqabah", "lon": "44.1166667"}, {"lat": "14.2847222", "city": "`Arab", "lon": "44.3525"}, {"lat": "14.1666667", "city": "Arad", "lon": "44.2833333"}, {"lat": "13.95", "city": "Araf", "lon": "44.35"}, {"lat": "14.2866667", "city": "Aram", "lon": "44.5541667"}, {"lat": "14.3", "city": "`Aras", "lon": "44.3666667"}, {"lat": "13.8666667", "city": "Arasi", "lon": "44.4333333"}, {"lat": "13.9666667", "city": "`Arasi", "lon": "44.15"}, {"lat": "14.3666667", "city": "Arba et Qal'a", "lon": "44.2833333"}, {"lat": "14.35", "city": "Aribe as Suq", "lon": "44.3"}, {"lat": "14.35", "city": "Aribe-es-Suk", "lon": "44.3"}, {"lat": "13.8666667", "city": "Arisi", "lon": "44.4333333"}, {"lat": "14.3080556", "city": "Ar Ra`adi", "lon": "44.1872222"}, {"lat": "14.0177778", "city": "Ar Rada`i", "lon": "44.3952778"}, {"lat": "14.2186111", "city": "Ar Radmah", "lon": "44.5858333"}, {"lat": "14.3336111", "city": "Ar Rakab", "lon": "44.1611111"}, {"lat": "13.9547222", "city": "Ar Ramadi", "lon": "43.7825"}, {"lat": "14.3894444", "city": "Ar Rawdah", "lon": "44.1108333"}, {"lat": "13.9833333", "city": "Ar Robaal", "lon": "44.4166667"}, {"lat": "14.3005556", "city": "Ash Sha`abi", "lon": "44.2391667"}, {"lat": "14.3233333", "city": "Ash Shalalah", "lon": "44.4669444"}, {"lat": "14.3641667", "city": "Ash Shaqb", "lon": "44.4775"}, {"lat": "14.36", "city": "Ash Sharafah", "lon": "44.3755556"}, {"lat": "14.0833333", "city": "Ash Sharaf", "lon": "44.1833333"}, {"lat": "13.8113889", "city": "Ash Sharqi", "lon": "43.9652778"}, {"lat": "14.2733333", "city": "Ash Shasrah", "lon": "44.1236111"}, {"lat": "13.8166667", "city": "Ash Shawqat", "lon": "44.35"}, {"lat": "14.3572222", "city": "Ash Shikami", "lon": "44.1808333"}, {"lat": "14.0166667", "city": "`Asiq", "lon": "44.1333333"}, {"lat": "14.2538889", "city": "As Sabal", "lon": "44.1355556"}, {"lat": "13.9", "city": "As Sada", "lon": "44.7666667"}, {"lat": "14.1213889", "city": "As Saddah", "lon": "44.42"}, {"lat": "13.85", "city": "As Sahhar", "lon": "44.3666667"}, {"lat": "14.3091667", "city": "As Sari", "lon": "44.3277778"}, {"lat": "13.8", "city": "As Sarraf", "lon": "44.1666667"}, {"lat": "13.8166667", "city": "As Sayamin", "lon": "44.1666667"}, {"lat": "13.8166667", "city": "As Sayani", "lon": "44.1666667"}, {"lat": "13.8166667", "city": "As Sayyani", "lon": "44.1666667"}, {"lat": "14.3461111", "city": "As Simlal", "lon": "44.3544444"}, {"lat": "14.285", "city": "As Sirm", "lon": "44.5830556"}, {"lat": "13.8833333", "city": "As Suba", "lon": "44.3833333"}, {"lat": "13.84", "city": "As Subayra", "lon": "44.5875"}, {"lat": "14.4025", "city": "As Suwayda'", "lon": "44.1791667"}, {"lat": "13.9027778", "city": "Ath Thulth", "lon": "43.8097222"}, {"lat": "13.9655556", "city": "Atta", "lon": "44.7638889"}, {"lat": "14.3052778", "city": "At Talabi", "lon": "44.5272222"}, {"lat": "14.2333333", "city": "At Taluqah ad Dakhilah", "lon": "44.3"}, {"lat": "14.2333333", "city": "At Taluqah ad Dakhlah", "lon": "44.3"}, {"lat": "14.2797222", "city": "At Tinamah", "lon": "44.0083333"}, {"lat": "13.8333333", "city": "Awesh", "lon": "44.6333333"}, {"lat": "13.9555556", "city": "`Azab", "lon": "44.5919444"}, {"lat": "14.0", "city": "Az\u00cc\u00a7 Z\u00cc\u00a7ahirah", "lon": "44.7833333"}, {"lat": "13.9522222", "city": "Az\u00cc\u00a7 Z\u00cc\u00a7uhrah", "lon": "43.7116667"}, {"lat": "14.2002778", "city": "Az Zani`ah", "lon": "43.9130556"}, {"lat": "14.0833333", "city": "Az Zirah", "lon": "44.2333333"}, {"lat": "13.9666667", "city": "Baadan", "lon": "43.75"}, {"lat": "13.9666667", "city": "Ba`adin", "lon": "43.75"}, {"lat": "13.9666667", "city": "Ba`dan", "lon": "43.75"}, {"lat": "13.9833333", "city": "Baha", "lon": "44.5166667"}, {"lat": "13.95", "city": "Balasan", "lon": "44.3833333"}, {"lat": "13.9833333", "city": "Bana Fadl", "lon": "44.5166667"}, {"lat": "14.2563889", "city": "Bani Sayf al A`la", "lon": "44.1875"}, {"lat": "14.3008333", "city": "Ba Suwayd", "lon": "44.2625"}, {"lat": "13.8166667", "city": "Batar", "lon": "44.5666667"}, {"lat": "13.8166667", "city": "Battar", "lon": "44.5666667"}, {"lat": "14.3222222", "city": "Bayhan", "lon": "44.2480556"}, {"lat": "14.0333333", "city": "Bayt Abu Bajil", "lon": "44.3333333"}, {"lat": "14.0333333", "city": "Bayt Abu Begil", "lon": "44.3333333"}, {"lat": "14.3130556", "city": "Bayt ad Dabyani", "lon": "44.495"}, {"lat": "14.2666667", "city": "Bayt ad Duraymi", "lon": "44.7333333"}, {"lat": "14.2805556", "city": "Bayt ad Du`us", "lon": "44.3094444"}, {"lat": "14.3166667", "city": "Bayt al `Adu", "lon": "44.1666667"}, {"lat": "14.2583333", "city": "Bayt al `Allaf", "lon": "44.1697222"}, {"lat": "14.0666667", "city": "Bayt al Hujariyah", "lon": "44.2166667"}, {"lat": "14.0333333", "city": "Bayt al Kaban", "lon": "44.2166667"}, {"lat": "14.0166667", "city": "Bayt al Wass", "lon": "44.3666667"}, {"lat": "13.9177778", "city": "Bayt an Naham", "lon": "44.5155556"}, {"lat": "13.9177778", "city": "Bayt an Nahham", "lon": "44.5155556"}, {"lat": "14.2619444", "city": "Bayt an Nuwayrah", "lon": "44.7433333"}, {"lat": "14.3166667", "city": "Bayt ar Rasas", "lon": "44.2"}, {"lat": "13.8", "city": "Bayt ash Shar`i", "lon": "44.3"}, {"lat": "13.85", "city": "Bayt ash Shawarif", "lon": "44.4333333"}, {"lat": "14.3119444", "city": "Bayt as Sifyani", "lon": "44.3630556"}, {"lat": "14.3119444", "city": "Bayt as Sufyani", "lon": "44.3630556"}, {"lat": "14.3525", "city": "Bayt as Sunbuli", "lon": "44.4325"}, {"lat": "14.255", "city": "Bayt as Suraymi", "lon": "44.7294444"}, {"lat": "14.35", "city": "Bayt `Imran", "lon": "44.4666667"}, {"lat": "14.1666667", "city": "Bayt `Izz ad Din", "lon": "44.25"}, {"lat": "14.3191667", "city": "Bayt Jubari", "lon": "44.4788889"}, {"lat": "14.15", "city": "Bayt Kerdi", "lon": "44.3"}, {"lat": "13.9833333", "city": "Bayt Shahari", "lon": "44.0166667"}, {"lat": "14.0333333", "city": "Beit Abu Begil", "lon": "44.3333333"}, {"lat": "14.3166667", "city": "Beit-el-Adu", "lon": "44.1666667"}, {"lat": "14.0666667", "city": "Beit-el-Hojerie", "lon": "44.2166667"}, {"lat": "14.0333333", "city": "Beit-el-Kaban", "lon": "44.2166667"}, {"lat": "13.85", "city": "Beit-el-Shevaref", "lon": "44.4333333"}, {"lat": "14.0166667", "city": "Beit-el-Wass", "lon": "44.3666667"}, {"lat": "14.3166667", "city": "Beit-er-Rasas", "lon": "44.2"}, {"lat": "14.1666667", "city": "Beit Izzedin", "lon": "44.25"}, {"lat": "14.15", "city": "Beit Kerdi", "lon": "44.3"}, {"lat": "13.9833333", "city": "Belassar", "lon": "44.4"}, {"lat": "14.0", "city": "Bereki", "lon": "44.4166667"}, {"lat": "14.0166667", "city": "Bidar", "lon": "44.3666667"}, {"lat": "13.8666667", "city": "Bisherak", "lon": "44.1833333"}, {"lat": "14.3666667", "city": "Dabatid", "lon": "44.2"}, {"lat": "13.7666667", "city": "Dahhan", "lon": "44.3166667"}, {"lat": "14.3008333", "city": "Dahrat Ghaliyah", "lon": "44.0211111"}, {"lat": "14.1741667", "city": "Dakhlat al Masalimih", "lon": "44.3347222"}, {"lat": "14.1741667", "city": "Dakhlat al Musalimah", "lon": "44.3347222"}, {"lat": "14.2897222", "city": "Dakhlat `Uwaydayn", "lon": "44.3425"}, {"lat": "13.9833333", "city": "Dalhas", "lon": "44.7833333"}, {"lat": "14.0833333", "city": "Dalmah", "lon": "44.05"}, {"lat": "14.3263889", "city": "Damas", "lon": "44.4302778"}, {"lat": "14.1080556", "city": "Damt", "lon": "44.7013889"}, {"lat": "14.1080556", "city": "Damth", "lon": "44.7013889"}, {"lat": "14.05", "city": "Danwah", "lon": "44.1"}, {"lat": "14.0666667", "city": "Dar al Asuaid", "lon": "44.3166667"}, {"lat": "13.8", "city": "Dar al Hayl", "lon": "44.1833333"}, {"lat": "13.8166667", "city": "Dar al Jabal", "lon": "44.1833333"}, {"lat": "13.9166667", "city": "Dar al Jayr", "lon": "44.2833333"}, {"lat": "13.8833333", "city": "Dar al Jurd", "lon": "44.2"}, {"lat": "13.95", "city": "Dar al Yusufi", "lon": "44.2333333"}, {"lat": "14.05", "city": "Dar `Ammari", "lon": "44.1666667"}, {"lat": "14.2611111", "city": "Dar ar Rumayshi", "lon": "44.24"}, {"lat": "13.95", "city": "Dar ash Sharaf", "lon": "44.1833333"}, {"lat": "13.8666667", "city": "Dar as Sufayra'", "lon": "44.7333333"}, {"lat": "13.8666667", "city": "Dar as Sufayrah", "lon": "44.7333333"}, {"lat": "13.85", "city": "Dar as Sutayrah", "lon": "44.7166667"}, {"lat": "14.0666667", "city": "Dar-el-Asuaid", "lon": "44.3166667"}, {"lat": "13.9166667", "city": "Dar el Gair", "lon": "44.2833333"}, {"lat": "13.8833333", "city": "Dar el Jird", "lon": "44.2"}, {"lat": "13.95", "city": "Dar el Yusufi", "lon": "44.2333333"}, {"lat": "14.2516667", "city": "Dar Khayran", "lon": "44.2227778"}, {"lat": "14.05", "city": "Darmiyah", "lon": "44.2833333"}, {"lat": "14.1666667", "city": "Dar Sayyid", "lon": "44.4333333"}, {"lat": "14.1666667", "city": "Dar Seyyid", "lon": "44.4333333"}, {"lat": "13.85", "city": "Dar Tarna", "lon": "44.7166667"}, {"lat": "13.85", "city": "Dar Tarnah", "lon": "44.7166667"}, {"lat": "13.85", "city": "Dar Zira", "lon": "44.7166667"}, {"lat": "13.85", "city": "Dar Zirah", "lon": "44.7166667"}, {"lat": "13.85", "city": "Derebe", "lon": "44.5166667"}, {"lat": "14.05", "city": "Dermie", "lon": "44.2833333"}, {"lat": "14.1166667", "city": "Dhara", "lon": "44.2666667"}, {"lat": "14.2844444", "city": "Dharw", "lon": "44.4855556"}, {"lat": "13.9333333", "city": "Dhi `Abam", "lon": "44.0666667"}, {"lat": "14.2652778", "city": "Dhi Ashra`", "lon": "44.5372222"}, {"lat": "13.85", "city": "Dhi as Sufal", "lon": "44.1166667"}, {"lat": "13.85", "city": "Dhi es-Sifal", "lon": "44.1166667"}, {"lat": "14.2652778", "city": "Dhi Ishra`", "lon": "44.5372222"}, {"lat": "14.2291667", "city": "Dhi Lihyah", "lon": "44.4916667"}, {"lat": "14.2672222", "city": "Dhi Mushammir", "lon": "44.2547222"}, {"lat": "13.8", "city": "Dhi Shiraq", "lon": "44.15"}, {"lat": "13.85", "city": "Dhi Sifal", "lon": "44.1166667"}, {"lat": "13.85", "city": "Dhi Sufal", "lon": "44.1166667"}, {"lat": "14.2622222", "city": "Dhumran", "lon": "44.3163889"}, {"lat": "13.8805556", "city": "Dhu Nahabah", "lon": "43.895"}, {"lat": "13.91", "city": "Dihassah", "lon": "43.8986111"}, {"lat": "13.8041667", "city": "Dimnat Nakhlan", "lon": "44.1666667"}, {"lat": "14.3188889", "city": "Dira Khawdan", "lon": "44.2180556"}, {"lat": "14.3833333", "city": "Dissain", "lon": "44.2333333"}, {"lat": "14.0666667", "city": "Dogara", "lon": "44.3333333"}, {"lat": "13.8", "city": "Doufeva", "lon": "44.1666667"}, {"lat": "13.8", "city": "Dufesor", "lon": "44.1666667"}, {"lat": "13.85", "city": "Dumene", "lon": "44.3666667"}, {"lat": "13.9", "city": "Dusurat", "lon": "44.2"}, {"lat": "13.8833333", "city": "Ed Dar", "lon": "44.2166667"}, {"lat": "14.35", "city": "Ed Dobi", "lon": "44.3333333"}, {"lat": "14.0166667", "city": "Ed Dokber", "lon": "44.4333333"}, {"lat": "14.0833333", "city": "Ed Dor", "lon": "44.2166667"}, {"lat": "14.0333333", "city": "Edh Dhime", "lon": "44.25"}, {"lat": "14.1833333", "city": "Ejuan", "lon": "44.35"}, {"lat": "14.3833333", "city": "El Aghiair", "lon": "44.2166667"}, {"lat": "13.9666667", "city": "El Aribe", "lon": "44.4166667"}, {"lat": "14.3666667", "city": "El Barba", "lon": "44.2833333"}, {"lat": "13.9166667", "city": "El Bicht", "lon": "44.1833333"}, {"lat": "13.8833333", "city": "El Falak", "lon": "43.9833333"}, {"lat": "13.8833333", "city": "El Faluc", "lon": "43.9833333"}, {"lat": "13.9833333", "city": "El Fejaie", "lon": "44.4166667"}, {"lat": "14.3333333", "city": "El Fergedi", "lon": "44.2166667"}, {"lat": "13.85", "city": "El Guba", "lon": "44.4166667"}, {"lat": "13.9166667", "city": "El Haden", "lon": "44.4333333"}, {"lat": "13.8833333", "city": "El Hadha", "lon": "44.3333333"}, {"lat": "14.0666667", "city": "El Hadid", "lon": "44.3166667"}, {"lat": "13.9166667", "city": "El Hadre", "lon": "44.3166667"}, {"lat": "14.0833333", "city": "El Hakahere", "lon": "44.15"}, {"lat": "14.3666667", "city": "El Haza", "lon": "44.3"}, {"lat": "14.0666667", "city": "El Hif", "lon": "44.25"}, {"lat": "14.0333333", "city": "El Hokamin", "lon": "44.2333333"}, {"lat": "13.85", "city": "El Husen", "lon": "44.55"}, {"lat": "14.0833333", "city": "El Jebeib", "lon": "44.3"}, {"lat": "13.8333333", "city": "El Jub", "lon": "44.6"}, {"lat": "13.95", "city": "El-Makhadir", "lon": "44.1833333"}, {"lat": "13.95", "city": "El Manaza", "lon": "44.1833333"}, {"lat": "13.85", "city": "El Mehrate", "lon": "44.3666667"}, {"lat": "14.0166667", "city": "El Milala", "lon": "44.2"}, {"lat": "14.0", "city": "El Mishrak", "lon": "44.15"}, {"lat": "13.8666667", "city": "El Nejade", "lon": "44.1833333"}, {"lat": "13.9686111", "city": "El-`Udein", "lon": "43.9983333"}, {"lat": "13.9333333", "city": "El Usni", "lon": "44.2666667"}, {"lat": "14.05", "city": "El Vakhfud", "lon": "43.8833333"}, {"lat": "13.9166667", "city": "En Nagit", "lon": "44.1666667"}, {"lat": "13.9833333", "city": "Er Robaal", "lon": "44.4166667"}, {"lat": "13.8833333", "city": "Es Suba", "lon": "44.3833333"}, {"lat": "14.0833333", "city": "Ez Zira", "lon": "44.2333333"}, {"lat": "13.9833333", "city": "Fadan", "lon": "44.75"}, {"lat": "13.95", "city": "Gharb", "lon": "44.5666667"}, {"lat": "14.2833333", "city": "Habab", "lon": "44.5"}, {"lat": "13.8333333", "city": "Habil `Awash", "lon": "44.6333333"}, {"lat": "13.8333333", "city": "Habil Duwar", "lon": "44.65"}, {"lat": "13.8333333", "city": "Habil Rahah", "lon": "44.6333333"}, {"lat": "13.8333333", "city": "Habil `Uwaysh", "lon": "44.6333333"}, {"lat": "14.225", "city": "Haddat Ghulays", "lon": "44.4"}, {"lat": "14.25", "city": "Hadiyah", "lon": "44.2333333"}, {"lat": "14.0936111", "city": "Hammam Damt", "lon": "44.6719444"}, {"lat": "14.05", "city": "Hammam", "lon": "44.7"}, {"lat": "14.05", "city": "Hamman", "lon": "44.7"}, {"lat": "14.1666667", "city": "Hammat Lahab", "lon": "44.6833333"}, {"lat": "14.25", "city": "Hamra'", "lon": "44.4333333"}, {"lat": "14.385", "city": "Hamrasah", "lon": "44.0502778"}, {"lat": "14.1477778", "city": "Haql al Farid", "lon": "44.7338889"}, {"lat": "14.0833333", "city": "Harada", "lon": "44.6833333"}, {"lat": "14.25", "city": "Haryan", "lon": "44.1333333"}, {"lat": "14.3366667", "city": "Hataq", "lon": "44.4147222"}, {"lat": "14.35", "city": "Heit Imran", "lon": "44.4666667"}, {"lat": "14.3505556", "city": "Hijrat `Abidah", "lon": "44.3147222"}, {"lat": "14.25", "city": "Hillah", "lon": "44.3833333"}, {"lat": "13.9", "city": "Hisn al `Alam", "lon": "44.7166667"}, {"lat": "13.9", "city": "Hisn am `Alam", "lon": "44.7166667"}, {"lat": "14.445", "city": "Hisn an Naqib", "lon": "44.1444444"}, {"lat": "13.9", "city": "Hisn Sahhar", "lon": "44.4"}, {"lat": "14.1166667", "city": "Hubaysh", "lon": "44.0666667"}, {"lat": "13.8669444", "city": "Human", "lon": "44.6355556"}, {"lat": "13.8666667", "city": "Humar", "lon": "44.7"}, {"lat": "13.9666667", "city": "Ibb", "lon": "44.1833333"}, {"lat": "14.2666667", "city": "Idzan", "lon": "44.3166667"}, {"lat": "14.0333333", "city": "Jabubah", "lon": "44.9333333"}, {"lat": "14.0333333", "city": "Jabuba", "lon": "44.9333333"}, {"lat": "13.95", "city": "Jaha", "lon": "44.45"}, {"lat": "14.15", "city": "Jami` ad Dahnah", "lon": "44.0833333"}, {"lat": "14.0666667", "city": "Jeboib", "lon": "44.3"}, {"lat": "13.9166667", "city": "Jiblah", "lon": "44.15"}, {"lat": "13.9166667", "city": "Jibla", "lon": "44.15"}, {"lat": "13.9166667", "city": "Jible", "lon": "44.15"}, {"lat": "13.9166667", "city": "Jilah", "lon": "44.15"}, {"lat": "13.8666667", "city": "Jirhan", "lon": "44.5166667"}, {"lat": "14.1833333", "city": "Jirnir", "lon": "44.2833333"}, {"lat": "13.9333333", "city": "Jumumi", "lon": "44.2166667"}, {"lat": "13.7666667", "city": "Jurbat Fuwa", "lon": "44.35"}, {"lat": "14.2644444", "city": "Jurf al Hammam", "lon": "44.4708333"}, {"lat": "13.9", "city": "Kabbi", "lon": "44.8"}, {"lat": "13.75", "city": "Kashe", "lon": "44.2666667"}, {"lat": "13.8558333", "city": "Ka`taba", "lon": "44.7063889"}, {"lat": "13.8558333", "city": "Kataba", "lon": "44.7063889"}, {"lat": "13.95", "city": "Kemade", "lon": "44.2166667"}, {"lat": "14.05", "city": "Khaban", "lon": "44.35"}, {"lat": "14.05", "city": "Khabban", "lon": "44.35"}, {"lat": "14.26", "city": "Kharabat `Aras", "lon": "44.3861111"}, {"lat": "14.1916667", "city": "Kharabat Bayt al `Ashwal", "lon": "44.4"}, {"lat": "14.2922222", "city": "Khaw", "lon": "44.42"}, {"lat": "14.1644444", "city": "Khaylah", "lon": "44.425"}, {"lat": "14.2", "city": "Kitab", "lon": "44.3"}, {"lat": "14.1", "city": "Kodina", "lon": "44.2333333"}, {"lat": "13.9666667", "city": "Kodma", "lon": "44.45"}, {"lat": "13.75", "city": "Kramie", "lon": "44.2833333"}, {"lat": "14.2333333", "city": "Kuman", "lon": "44.05"}, {"lat": "13.8666667", "city": "Kurdah", "lon": "44.7"}, {"lat": "13.8666667", "city": "Kurda", "lon": "44.7"}, {"lat": "14.3", "city": "Lokhaimi", "lon": "44.15"}, {"lat": "14.3", "city": "Lukhaymi", "lon": "44.15"}, {"lat": "13.9166667", "city": "Maavesh", "lon": "44.2833333"}, {"lat": "14.2333333", "city": "Ma`bar", "lon": "44.2166667"}, {"lat": "14.25", "city": "Mabe", "lon": "44.3333333"}, {"lat": "14.0916667", "city": "Madar", "lon": "44.4416667"}, {"lat": "13.9833333", "city": "Madinah", "lon": "44.05"}, {"lat": "14.2666667", "city": "Madir", "lon": "44.75"}, {"lat": "14.4197222", "city": "Mahdin", "lon": "44.1327778"}, {"lat": "14.3411111", "city": "Mahfad Khawdan", "lon": "44.2022222"}, {"lat": "14.0166667", "city": "Mahsan", "lon": "44.1833333"}, {"lat": "13.9", "city": "Makadem", "lon": "44.1666667"}, {"lat": "14.1227778", "city": "Makhadar", "lon": "44.1980556"}, {"lat": "14.1", "city": "Malhamah", "lon": "44.2166667"}, {"lat": "14.3113889", "city": "Manham", "lon": "44.1627778"}, {"lat": "14.2172222", "city": "Mankath", "lon": "44.3719444"}, {"lat": "14.2833333", "city": "Manwar", "lon": "44.1"}, {"lat": "13.9916667", "city": "Manzil ash Sharaf", "lon": "44.4208333"}, {"lat": "13.9833333", "city": "Manzil Dreibe", "lon": "44.2"}, {"lat": "13.9833333", "city": "Manzil Dribi", "lon": "44.2"}, {"lat": "13.9333333", "city": "Manzil Duraybah", "lon": "44.1833333"}, {"lat": "14.2333333", "city": "Manzil Nasmarah", "lon": "44.2333333"}, {"lat": "14.0", "city": "Manzil Roye", "lon": "44.1833333"}, {"lat": "14.3333333", "city": "Manzil Sumarah", "lon": "44.2"}, {"lat": "14.3333333", "city": "Manzil Sumara", "lon": "44.2"}, {"lat": "13.9666667", "city": "Mararah", "lon": "44.3333333"}, {"lat": "13.9666667", "city": "Marara", "lon": "44.3333333"}, {"lat": "14.2922222", "city": "Maris", "lon": "44.4611111"}, {"lat": "13.85", "city": "Marit", "lon": "44.1833333"}, {"lat": "13.9947222", "city": "Marjamah", "lon": "43.8544444"}, {"lat": "13.8572222", "city": "Markhazah", "lon": "44.6105556"}, {"lat": "13.8572222", "city": "Markhaza", "lon": "44.6105556"}, {"lat": "13.8833333", "city": "Marwi al Kabir", "lon": "44.8"}, {"lat": "13.8833333", "city": "Marwi", "lon": "44.8"}, {"lat": "14.1458333", "city": "Masaba", "lon": "44.6513889"}, {"lat": "14.3686111", "city": "Mashra`ah", "lon": "44.1597222"}, {"lat": "14.3605556", "city": "Mashrafah", "lon": "44.1052778"}, {"lat": "13.9666667", "city": "Masna`ah", "lon": "44.4"}, {"lat": "14.2333333", "city": "Mawah", "lon": "44.4"}, {"lat": "14.2630556", "city": "Mawir", "lon": "44.4252778"}, {"lat": "13.8833333", "city": "Mawsa`ah", "lon": "44.75"}, {"lat": "14.2", "city": "Ma`yanah", "lon": "44.0958333"}, {"lat": "14.1458333", "city": "Ma`zabah", "lon": "44.6513889"}, {"lat": "13.7666667", "city": "Mazabe", "lon": "44.35"}, {"lat": "14.2705556", "city": "Mazij", "lon": "44.4994444"}, {"lat": "13.9833333", "city": "Medina", "lon": "44.05"}, {"lat": "14.0166667", "city": "Mefkare", "lon": "44.3333333"}, {"lat": "14.1227778", "city": "Mekhader", "lon": "44.1980556"}, {"lat": "14.1", "city": "Melhame", "lon": "44.2166667"}, {"lat": "13.9833333", "city": "Menzil Dreibe", "lon": "44.2"}, {"lat": "14.0", "city": "Menzil Roye", "lon": "44.1833333"}, {"lat": "14.3333333", "city": "Menzil Sumara", "lon": "44.2"}, {"lat": "14.2833333", "city": "Meriun", "lon": "44.3333333"}, {"lat": "14.05", "city": "Meshel", "lon": "44.3333333"}, {"lat": "14.2166667", "city": "Meshen", "lon": "44.3"}, {"lat": "14.3", "city": "Meshirk", "lon": "44.05"}, {"lat": "14.0333333", "city": "Mesuara", "lon": "44.3666667"}, {"lat": "13.95", "city": "Mikhadir", "lon": "44.1833333"}, {"lat": "14.2591667", "city": "Milyan", "lon": "44.4516667"}, {"lat": "14.0333333", "city": "Miswarah", "lon": "44.3666667"}, {"lat": "13.9", "city": "Mohajene Ali", "lon": "44.4666667"}, {"lat": "13.8788889", "city": "Mudhaykharah", "lon": "43.9641667"}, {"lat": "13.8788889", "city": "Mudhaykhirah", "lon": "43.9641667"}, {"lat": "14.0", "city": "Murarer", "lon": "44.3333333"}, {"lat": "13.8833333", "city": "Nadue", "lon": "44.4333333"}, {"lat": "14.3666667", "city": "Najd al Aslaq", "lon": "44.3833333"}, {"lat": "14.2711111", "city": "Najd al `Azab", "lon": "44.3477778"}, {"lat": "14.3244444", "city": "Najd al Fasih", "lon": "44.0519444"}, {"lat": "13.8666667", "city": "Najd al Jama`i", "lon": "44.3666667"}, {"lat": "13.9166667", "city": "Najd al Juma`i", "lon": "44.3166667"}, {"lat": "13.9166667", "city": "Najd al Juma`iy", "lon": "44.3166667"}, {"lat": "14.2905556", "city": "Najd ash Shamari", "lon": "44.155"}, {"lat": "14.1666667", "city": "Nawbah", "lon": "44.2166667"}, {"lat": "14.1666667", "city": "Nawbat Hajar", "lon": "44.2166667"}, {"lat": "13.8666667", "city": "Nawbat Mokairinat", "lon": "44.35"}, {"lat": "14.1", "city": "Nazere", "lon": "44.25"}, {"lat": "14.0666667", "city": "Nebel", "lon": "44.2333333"}, {"lat": "13.8666667", "city": "Nejel Jemaie", "lon": "44.3666667"}, {"lat": "14.2166667", "city": "Nobel al Haidan", "lon": "44.3166667"}, {"lat": "14.2166667", "city": "Nobel-el-Haidan", "lon": "44.3166667"}, {"lat": "13.8666667", "city": "Nobet Mokairinat", "lon": "44.35"}, {"lat": "14.1666667", "city": "Nubah", "lon": "44.2166667"}, {"lat": "14.1666667", "city": "Nubat Hajar", "lon": "44.2166667"}, {"lat": "13.8666667", "city": "Nubayjah", "lon": "44.5833333"}, {"lat": "13.8666667", "city": "Nubeja", "lon": "44.5833333"}, {"lat": "14.3161111", "city": "Numarah", "lon": "44.4866667"}, {"lat": "14.2333333", "city": "Nuqatat ash Shihad", "lon": "44.0833333"}, {"lat": "14.2333333", "city": "Nuqtat ash Shihad", "lon": "44.0833333"}, {"lat": "14.0", "city": "Okabe", "lon": "44.1166667"}, {"lat": "14.0333333", "city": "Oste", "lon": "44.0333333"}, {"lat": "14.0166667", "city": "Qamalah", "lon": "44.2166667"}, {"lat": "14.1102778", "city": "Qaryat al `Ard", "lon": "44.1"}, {"lat": "13.9280556", "city": "Qaryat al Ghawl", "lon": "43.7808333"}, {"lat": "13.9166667", "city": "Qaryatayn", "lon": "44.2666667"}, {"lat": "13.8558333", "city": "Qa`tabah", "lon": "44.7063889"}, {"lat": "13.8558333", "city": "Qa`taba", "lon": "44.7063889"}, {"lat": "13.8922222", "city": "Qatami", "lon": "44.7947222"}, {"lat": "14.3352778", "city": "Qu`ayqi`an", "lon": "44.3705556"}, {"lat": "14.3066667", "city": "Rababah", "lon": "44.0758333"}, {"lat": "13.9833333", "city": "Rafai", "lon": "44.4166667"}, {"lat": "13.9333333", "city": "Rahabal", "lon": "44.45"}, {"lat": "14.1", "city": "Rakban", "lon": "44.2833333"}, {"lat": "14.1", "city": "Rakwan as Sufla", "lon": "44.3166667"}, {"lat": "14.1", "city": "Rakwan-es-Sufla", "lon": "44.3166667"}, {"lat": "14.0125", "city": "Rawhan", "lon": "44.4166667"}, {"lat": "14.2644444", "city": "Rayd al Madarin", "lon": "44.1866667"}, {"lat": "14.2", "city": "Regi", "lon": "44.1"}, {"lat": "14.1666667", "city": "Rekab", "lon": "44.25"}, {"lat": "13.8666667", "city": "Reshan", "lon": "44.7166667"}, {"lat": "14.0333333", "city": "Ribat al Harari", "lon": "44.7333333"}, {"lat": "14.2055556", "city": "Ribat al Qal`ah", "lon": "44.3425"}, {"lat": "14.3455556", "city": "Ribat ar Rumayshi", "lon": "44.3288889"}, {"lat": "14.2544444", "city": "Ribat ash Sha`ri", "lon": "44.2891667"}, {"lat": "14.2825", "city": "Ribat as Sa`idi", "lon": "44.2208333"}, {"lat": "14.3", "city": "Ribat", "lon": "44.25"}, {"lat": "14.3736111", "city": "Ribat `Umran", "lon": "44.4244444"}, {"lat": "13.9666667", "city": "Rida'", "lon": "44.0333333"}, {"lat": "14.2288889", "city": "Rihab", "lon": "44.1805556"}, {"lat": "14.1666667", "city": "Rikab", "lon": "44.25"}, {"lat": "14.2041667", "city": "Rubat al Qal`ah", "lon": "44.3416667"}, {"lat": "14.1433333", "city": "Rubu` al Huraymi", "lon": "43.8933333"}, {"lat": "13.8833333", "city": "Sa`adah", "lon": "44.7666667"}, {"lat": "13.8833333", "city": "Sa`ada", "lon": "44.7666667"}, {"lat": "13.8833333", "city": "Sa`adat", "lon": "44.7666667"}, {"lat": "14.2", "city": "Sabahah", "lon": "44.1166667"}, {"lat": "13.9", "city": "Sada", "lon": "44.7666667"}, {"lat": "14.1213889", "city": "Sadda", "lon": "44.42"}, {"lat": "14.0666667", "city": "Sadr Hubaysh", "lon": "44.0833333"}, {"lat": "13.85", "city": "Safijaah", "lon": "43.9666667"}, {"lat": "14.15", "city": "Safwan", "lon": "44.5666667"}, {"lat": "14.05", "city": "Saharate", "lon": "44.35"}, {"lat": "13.9819444", "city": "Sahlah", "lon": "43.8455556"}, {"lat": "14.1666667", "city": "Salami", "lon": "44.2833333"}, {"lat": "13.9666667", "city": "Salulah", "lon": "44.4"}, {"lat": "13.9666667", "city": "Salula", "lon": "44.4"}, {"lat": "14.2855556", "city": "Sanafan", "lon": "44.4522222"}, {"lat": "13.9833333", "city": "Sanahi", "lon": "44.3833333"}, {"lat": "14.2916667", "city": "Sansan", "lon": "44.3194444"}, {"lat": "13.9166667", "city": "Sarawah", "lon": "44.1333333"}, {"lat": "14.2652778", "city": "Sarhah", "lon": "44.2822222"}, {"lat": "13.9166667", "city": "Sarwah", "lon": "44.1333333"}, {"lat": "14.1213889", "city": "Sauda", "lon": "44.42"}, {"lat": "14.1666667", "city": "Selami", "lon": "44.2833333"}, {"lat": "14.1666667", "city": "Sera", "lon": "43.85"}, {"lat": "13.8833333", "city": "Seyani", "lon": "44.1833333"}, {"lat": "14.3444444", "city": "Sha`ban", "lon": "44.2838889"}, {"lat": "13.8580556", "city": "Shahab", "lon": "44.6708333"}, {"lat": "13.8580556", "city": "Shakhab", "lon": "44.6708333"}, {"lat": "13.9833333", "city": "Shamahi", "lon": "44.2166667"}, {"lat": "13.9166667", "city": "Sharqi", "lon": "44.5833333"}, {"lat": "14.0333333", "city": "Shehabi", "lon": "44.3666667"}, {"lat": "14.0166667", "city": "Shehan", "lon": "44.0166667"}, {"lat": "13.9166667", "city": "Sherghi", "lon": "44.5833333"}, {"lat": "14.4211111", "city": "Shi`b Qaradan", "lon": "44.1608333"}, {"lat": "14.0333333", "city": "Shihabi", "lon": "44.3666667"}, {"lat": "14.25", "city": "Shumaili", "lon": "44.3"}, {"lat": "14.25", "city": "Shumayli", "lon": "44.3"}, {"lat": "14.1088889", "city": "Shurayh", "lon": "44.6188889"}, {"lat": "13.8666667", "city": "Shu`ur", "lon": "44.5666667"}, {"lat": "14.1666667", "city": "Sirah", "lon": "43.85"}, {"lat": "13.9333333", "city": "Sizouat", "lon": "44.2833333"}, {"lat": "14.2166667", "city": "Soba", "lon": "44.5666667"}, {"lat": "14.2166667", "city": "Sobe", "lon": "44.5666667"}, {"lat": "14.0833333", "city": "Soedid", "lon": "44.2666667"}, {"lat": "13.8833333", "city": "Soya", "lon": "44.3666667"}, {"lat": "13.84", "city": "Subayrah", "lon": "44.5875"}, {"lat": "13.9666667", "city": "Such en Nachib", "lon": "44.4"}, {"lat": "14.3063889", "city": "Suhammar", "lon": "44.2916667"}, {"lat": "13.85", "city": "Suhban", "lon": "44.1666667"}, {"lat": "14.45", "city": "Suk-el-Ashnein", "lon": "44.1333333"}, {"lat": "14.0833333", "city": "Suk-el-Khamis", "lon": "44.2833333"}, {"lat": "13.9", "city": "Suk el Talut", "lon": "44.2666667"}, {"lat": "14.1666667", "city": "Suk-el-Zaptie", "lon": "44.1333333"}, {"lat": "13.9666667", "city": "Suk-en-Nakih", "lon": "44.4"}, {"lat": "13.7666667", "city": "Suk", "lon": "44.3"}, {"lat": "13.85", "city": "Sulaymani", "lon": "44.5"}, {"lat": "13.85", "city": "Sulaymaniyah", "lon": "44.5"}, {"lat": "13.8666667", "city": "Sulayyah", "lon": "44.4666667"}, {"lat": "13.85", "city": "Suleimanie", "lon": "44.5"}, {"lat": "14.3333333", "city": "Sumarah", "lon": "44.2"}, {"lat": "14.3333333", "city": "Sumura", "lon": "44.2"}, {"lat": "14.45", "city": "Suq al Ithnayn", "lon": "44.1333333"}, {"lat": "14.0833333", "city": "Suq al Khamis", "lon": "44.2833333"}, {"lat": "14.1666667", "city": "Suq al Zaptie", "lon": "44.1333333"}, {"lat": "13.9666667", "city": "Suq an Naqib", "lon": "44.4"}, {"lat": "14.2591667", "city": "Suq ar Rubu`", "lon": "44.0827778"}, {"lat": "14.45", "city": "Suq Ashnayn", "lon": "44.1333333"}, {"lat": "14.45", "city": "Suq Ashnein", "lon": "44.1333333"}, {"lat": "13.9", "city": "Suq ath Thuluth", "lon": "44.2666667"}, {"lat": "13.9", "city": "Suq at Talut", "lon": "44.2666667"}, {"lat": "13.7666667", "city": "Suq", "lon": "44.3"}, {"lat": "14.33", "city": "Talabah", "lon": "44.2597222"}, {"lat": "14.4222222", "city": "Tanbah", "lon": "44.2094444"}, {"lat": "14.0333333", "city": "Tari", "lon": "43.8333333"}, {"lat": "13.8833333", "city": "Tirhab", "lon": "44.7666667"}, {"lat": "13.7833333", "city": "Turbat al Ashur", "lon": "44.3333333"}, {"lat": "13.7833333", "city": "Turbat-el-Ashur", "lon": "44.3333333"}, {"lat": "14.0", "city": "Turiada", "lon": "44.3666667"}, {"lat": "14.0833333", "city": "Turmanah", "lon": "44.2166667"}, {"lat": "14.0833333", "city": "Turmana", "lon": "44.2166667"}, {"lat": "13.8833333", "city": "Ubalah", "lon": "44.45"}, {"lat": "13.8833333", "city": "Ubala", "lon": "44.45"}, {"lat": "13.9686111", "city": "Udain", "lon": "43.9983333"}, {"lat": "13.9686111", "city": "`Udayn", "lon": "43.9983333"}, {"lat": "13.9666667", "city": "Uhafat", "lon": "43.7833333"}, {"lat": "13.9666667", "city": "Uharjat", "lon": "43.7833333"}, {"lat": "14.0", "city": "`Uqal", "lon": "44.1"}, {"lat": "13.8833333", "city": "Usaifa", "lon": "44.4333333"}, {"lat": "14.05", "city": "Usni al Hadad", "lon": "44.2666667"}, {"lat": "14.3333333", "city": "Usni Bedaa", "lon": "44.2833333"}, {"lat": "14.05", "city": "Usni-el-Hadad", "lon": "44.2666667"}, {"lat": "14.15", "city": "Usni Rekab", "lon": "44.2833333"}, {"lat": "13.9", "city": "Usni Sahar", "lon": "44.4"}, {"lat": "14.1833333", "city": "Usni Yesir", "lon": "44.2666667"}, {"lat": "13.8333333", "city": "`Uwaysh", "lon": "44.6333333"}, {"lat": "13.95", "city": "`Uzab", "lon": "44.5666667"}, {"lat": "13.9833333", "city": "Uzla Duais", "lon": "44.3"}, {"lat": "14.2972222", "city": "Yarim", "lon": "44.3802778"}, {"lat": "14.2972222", "city": "Yerim", "lon": "44.3802778"}, {"lat": "13.9", "city": "Yoban", "lon": "44.4666667"}, {"lat": "14.1", "city": "Zalmat Hubaysh", "lon": "44.0916667"}, {"lat": "13.75", "city": "Zerab", "lon": "44.2666667"}, {"lat": "13.75", "city": "Zirab", "lon": "44.2666667"}, {"lat": "13.75", "city": "Zira", "lon": "44.2666667"}, {"lat": "14.25", "city": "Zitamar", "lon": "44.3666667"}, {"lat": "14.2166667", "city": "Zufar", "lon": "44.5166667"}, {"lat": "13.9666667", "city": "Zukar", "lon": "44.2"}], "12": [{"lat": "16.0027778", "city": "`Abs", "lon": "43.1966667"}, {"lat": "16.0833333", "city": "Ad Dabiah", "lon": "43.3333333"}, {"lat": "16.4297222", "city": "Ad Dabratayn", "lon": "43.0161111"}, {"lat": "15.545", "city": "Ad Dahr", "lon": "43.3241667"}, {"lat": "16.2833333", "city": "Ad Dayr", "lon": "43.0833333"}, {"lat": "15.7", "city": "Ad Dufayr", "lon": "43.5833333"}, {"lat": "16.0805556", "city": "Ad Duraynah al `Ulya", "lon": "43.1511111"}, {"lat": "16.0333333", "city": "`Adi", "lon": "43.75"}, {"lat": "15.7833333", "city": "`Affar", "lon": "43.6833333"}, {"lat": "16.0666667", "city": "Aflah", "lon": "43.35"}, {"lat": "16.0391667", "city": "Afsar", "lon": "43.4597222"}, {"lat": "16.05", "city": "`Afsar", "lon": "43.45"}, {"lat": "16.2666667", "city": "`Ahim", "lon": "43.3166667"}, {"lat": "16.2411111", "city": "Al `Abbaysah", "lon": "43.4522222"}, {"lat": "16.0458333", "city": "Al `Abdadilah", "lon": "43.4341667"}, {"lat": "15.6166667", "city": "Al `Amashah", "lon": "43.5166667"}, {"lat": "16.2172222", "city": "Al Aqm Nakhtan", "lon": "42.8530556"}, {"lat": "16.1527778", "city": "Al `Arid", "lon": "43.3722222"}, {"lat": "16.05", "city": "Al `Arjayn", "lon": "43.0666667"}, {"lat": "16.3666667", "city": "Al `Atnah", "lon": "43.0333333"}, {"lat": "16.3966667", "city": "Al `Awarid", "lon": "42.9897222"}, {"lat": "16.3966667", "city": "Al `Awarid Bani az Zayla'", "lon": "42.9897222"}, {"lat": "16.2166667", "city": "Al Bakrin", "lon": "43.6375"}, {"lat": "16.1166667", "city": "Al Bida`", "lon": "43.1"}, {"lat": "15.5333333", "city": "Al Drahir", "lon": "43.3166667"}, {"lat": "16.4333333", "city": "Al Fajj", "lon": "43.1"}, {"lat": "16.2691667", "city": "Al Faranitah", "lon": "43.0963889"}, {"lat": "16.3941667", "city": "Al Ghabra'", "lon": "43.7091667"}, {"lat": "16.45", "city": "Al Ghafilah", "lon": "43.0166667"}, {"lat": "15.9094444", "city": "Al Ghurzah", "lon": "43.6952778"}, {"lat": "15.5841667", "city": "Al Haddaliah", "lon": "43.3772222"}, {"lat": "15.5841667", "city": "Al Haddaliyah", "lon": "43.3772222"}, {"lat": "16.2538889", "city": "Al Hajar", "lon": "43.6797222"}, {"lat": "16.5666667", "city": "Al Hammah", "lon": "43.15"}, {"lat": "15.9333333", "city": "Al Harajah", "lon": "42.95"}, {"lat": "16.4333333", "city": "Al Hazrayn", "lon": "42.95"}, {"lat": "16.0097222", "city": "Al Jamimah", "lon": "43.5905556"}, {"lat": "15.8544444", "city": "Al Jarb", "lon": "43.1938889"}, {"lat": "16.0555556", "city": "Al Jarr", "lon": "43.0608333"}, {"lat": "16.2377778", "city": "Al Jawar", "lon": "43.7080556"}, {"lat": "16.2041667", "city": "Al Jawwah", "lon": "43.6708333"}, {"lat": "16.3638889", "city": "Al Ji`awinah", "lon": "43.3086111"}, {"lat": "16.45", "city": "Al Jima'", "lon": "43.1166667"}, {"lat": "15.9747222", "city": "Al Jubayl", "lon": "43.4644444"}, {"lat": "16.1391667", "city": "Al Kadahaah", "lon": "43.1319444"}, {"lat": "16.0166667", "city": "Al Kadhah", "lon": "43.0666667"}, {"lat": "16.35", "city": "Al Karus", "lon": "43.1166667"}, {"lat": "16.35", "city": "Al Khambah", "lon": "43.1833333"}, {"lat": "16.1508333", "city": "Al Kharab", "lon": "43.4622222"}, {"lat": "16.2", "city": "Al Kharamilah", "lon": "42.85"}, {"lat": "16.3333333", "city": "Al Khazin", "lon": "42.85"}, {"lat": "16.2861111", "city": "Al Kidf", "lon": "43.1477778"}, {"lat": "16.6002778", "city": "Al Ma'ayn", "lon": "43.1625"}, {"lat": "16.0166667", "city": "Al Madahikah", "lon": "42.85"}, {"lat": "16.0997222", "city": "Al Madakhinah", "lon": "43.2577778"}, {"lat": "16.225", "city": "Al Madan", "lon": "43.645"}, {"lat": "15.7627778", "city": "Al Madhabah", "lon": "43.6822222"}, {"lat": "15.8772222", "city": "Al Maghrabah", "lon": "43.6666667"}, {"lat": "15.9486111", "city": "Al Mahabishah", "lon": "43.4363889"}, {"lat": "15.8533333", "city": "Al Mahadah", "lon": "43.3525"}, {"lat": "15.7583333", "city": "Al Mahbashi", "lon": "43.7333333"}, {"lat": "16.05", "city": "Al Mahraf", "lon": "43.3"}, {"lat": "16.4361111", "city": "Al Majdirah", "lon": "43.1230556"}, {"lat": "16.2413889", "city": "Al Makhabi", "lon": "43.2019444"}, {"lat": "16.0166667", "city": "Al Makhaliqah", "lon": "42.85"}, {"lat": "16.0458333", "city": "Al Manadhir", "lon": "43.2027778"}, {"lat": "16.05", "city": "Al Manatir", "lon": "43.1166667"}, {"lat": "15.9166667", "city": "Al Maqa`itah", "lon": "43.0166667"}, {"lat": "15.9166667", "city": "Al Maqaqi", "lon": "43.1"}, {"lat": "15.9333333", "city": "Al Marari", "lon": "43.5333333"}, {"lat": "16.2486111", "city": "Al Marwi as Sufah", "lon": "43.3647222"}, {"lat": "16.1833333", "city": "Al Masahilah", "lon": "43.2166667"}, {"lat": "16.2", "city": "Al Ma`sar", "lon": "43.1666667"}, {"lat": "16.2925", "city": "Al Masharifah", "lon": "43.0988889"}, {"lat": "16.0544444", "city": "Al Mashat", "lon": "43.2427778"}, {"lat": "16.3166667", "city": "Al Mashayibah", "lon": "42.8666667"}, {"lat": "16.295", "city": "Al Mashhad", "lon": "43.6891667"}, {"lat": "15.7458333", "city": "Al Mash`ib", "lon": "43.665"}, {"lat": "15.7086111", "city": "Al Masn\u00e1", "lon": "43.4191667"}, {"lat": "16.35", "city": "Al Mastabah al Gharbiyah", "lon": "43.25"}, {"lat": "16.35", "city": "Al Mastabat al Gharbiyah", "lon": "43.25"}, {"lat": "16.3833333", "city": "Al Matariayah", "lon": "42.9833333"}, {"lat": "16.0311111", "city": "Al Matayin", "lon": "43.2122222"}, {"lat": "16.1038889", "city": "Al Matka", "lon": "43.1858333"}, {"lat": "15.9113889", "city": "Al Mawahibah", "lon": "43.2666667"}, {"lat": "16.0333333", "city": "Al Miftah", "lon": "43.4833333"}, {"lat": "16.225", "city": "Al Mihrab", "lon": "43.7083333"}, {"lat": "15.9441667", "city": "Al Miqshab", "lon": "43.2980556"}, {"lat": "16.03", "city": "Al Misbar", "lon": "43.195"}, {"lat": "15.8666667", "city": "Al Mishaf", "lon": "43.0833333"}, {"lat": "16.5361111", "city": "Al Mitraq", "lon": "43.2811111"}, {"lat": "16.2072222", "city": "Al Mi`zab", "lon": "43.61"}, {"lat": "16.0911111", "city": "Al Mudayyirah", "lon": "43.3522222"}, {"lat": "16.3463889", "city": "Al Mukhazin", "lon": "42.8875"}, {"lat": "16.2333333", "city": "Al Murayyi`ah", "lon": "43.0333333"}, {"lat": "16.1666667", "city": "Al Qabi`i", "lon": "43.7208333"}, {"lat": "16.3180556", "city": "Al Qaflah", "lon": "43.77"}, {"lat": "16.05", "city": "`Alqamah", "lon": "43.3833333"}, {"lat": "16.15", "city": "Alqamah an Nu`man", "lon": "43.3666667"}, {"lat": "16.15", "city": "`Alqamat an Nu`man", "lon": "43.3666667"}, {"lat": "16.05", "city": "Al Qambur", "lon": "43.15"}, {"lat": "15.7", "city": "Al Qararah", "lon": "43.5166667"}, {"lat": "16.2902778", "city": "Al Qarn", "lon": "43.1391667"}, {"lat": "16.3413889", "city": "Al Qasayriyah", "lon": "43.1125"}, {"lat": "16.3180556", "city": "Al Qiflah", "lon": "43.77"}, {"lat": "16.3533333", "city": "Al Qiss", "lon": "42.9922222"}, {"lat": "15.9333333", "city": "Al Quflah", "lon": "43.1333333"}, {"lat": "16.0666667", "city": "Al Qufl", "lon": "43.4"}, {"lat": "16.0669444", "city": "Al Quru`", "lon": "43.4108333"}, {"lat": "16.2333333", "city": "Al Tanabikah", "lon": "42.8333333"}, {"lat": "15.7591667", "city": "Al `Ubal", "lon": "43.5502778"}, {"lat": "16.4166667", "city": "Al `Usaylah", "lon": "43.0333333"}, {"lat": "15.85", "city": "Al Warith", "lon": "43.1666667"}, {"lat": "15.9572222", "city": "Al Wu`liyah", "lon": "43.4661111"}, {"lat": "16.6313889", "city": "Al Wuqaysh", "lon": "43.2405556"}, {"lat": "16.1166667", "city": "An Nu`man", "lon": "43.3333333"}, {"lat": "16.15", "city": "`Aqm al Mahasirah", "lon": "43.0166667"}, {"lat": "16.0791667", "city": "Ar Rabu'", "lon": "43.1391667"}, {"lat": "16.3191667", "city": "Ar Rabu`", "lon": "43.3980556"}, {"lat": "16.0263889", "city": "Ar Risa' Nawsan", "lon": "43.4788889"}, {"lat": "16.0833333", "city": "Ar Rubu`", "lon": "43.05"}, {"lat": "15.62", "city": "Ash Sha`adirah", "lon": "43.5205556"}, {"lat": "16.3333333", "city": "Ash Sha`bah", "lon": "43.1666667"}, {"lat": "16.2333333", "city": "Ash Shabikah", "lon": "42.8333333"}, {"lat": "15.62", "city": "Ash Shafadirah", "lon": "43.5205556"}, {"lat": "15.62", "city": "Ash Shaghadirah", "lon": "43.5205556"}, {"lat": "15.8705556", "city": "Ash Shahil", "lon": "43.4052778"}, {"lat": "16.2566667", "city": "Ash Sharafiyah", "lon": "43.0602778"}, {"lat": "16.4627778", "city": "Ash Sharifiyah", "lon": "43.0516667"}, {"lat": "16.1833333", "city": "Ash Sharqi", "lon": "43.0666667"}, {"lat": "16.3833333", "city": "Ash Shi`ab", "lon": "43.1"}, {"lat": "16.3452778", "city": "Ash Shi`b", "lon": "42.9797222"}, {"lat": "16.4666667", "city": "Ash Shutah", "lon": "43.1833333"}, {"lat": "15.8972222", "city": "Ash Shu`ur", "lon": "43.3775"}, {"lat": "16.6333333", "city": "Ash Shuwayhah", "lon": "43.25"}, {"lat": "16.0833333", "city": "Aslam an Nashiri", "lon": "43.45"}, {"lat": "16.0575", "city": "Aslam", "lon": "43.3266667"}, {"lat": "16.3666667", "city": "As Sablah", "lon": "43.6333333"}, {"lat": "15.7666667", "city": "As Safi", "lon": "43.7333333"}, {"lat": "15.7833333", "city": "As Sud", "lon": "43.7"}, {"lat": "16.3005556", "city": "As Sukaybat", "lon": "43.7122222"}, {"lat": "16.0166667", "city": "Ath Thaluth", "lon": "43.2333333"}, {"lat": "15.9113889", "city": "At Tabshumah", "lon": "43.2666667"}, {"lat": "16.1", "city": "`Attad", "lon": "43.7166667"}, {"lat": "16.0036111", "city": "At Talahiyah", "lon": "43.7480556"}, {"lat": "16.0166667", "city": "At Tarayn", "lon": "43.2333333"}, {"lat": "16.2333333", "city": "At Tawf", "lon": "43.6416667"}, {"lat": "15.6002778", "city": "At Tur", "lon": "43.3955556"}, {"lat": "15.7641667", "city": "Az\u00cc\u00a7 Z\u00cc\u00a7afir", "lon": "43.5969444"}, {"lat": "15.5333333", "city": "Az\u00cc\u00a7 Z\u00cc\u00a7ahir", "lon": "43.3166667"}, {"lat": "16.05", "city": "Az Zayla`iah", "lon": "42.9333333"}, {"lat": "15.9", "city": "Az Zayla`iyah", "lon": "43.1333333"}, {"lat": "16.0886111", "city": "Baghtah", "lon": "43.0155556"}, {"lat": "15.9333333", "city": "Bahrah", "lon": "43.0833333"}, {"lat": "15.8333333", "city": "Bait Mazar", "lon": "43.1833333"}, {"lat": "16.1", "city": "Bani Ahmad", "lon": "43.6833333"}, {"lat": "16.2333333", "city": "Bani al A`ma'", "lon": "43.2166667"}, {"lat": "15.6333333", "city": "Bani al `Asari", "lon": "43.5916667"},