{"ZM": {"02": [{"lat": "-13.4166667", "city": "Balanbeen", "lon": "28.7666667"}, {"lat": "-13.4166667", "city": "Balnabeen", "lon": "28.7666667"}, {"lat": "-12.3666667", "city": "Bancroft", "lon": "27.8333333"}, {"lat": "-12.8333333", "city": "Bangabanga", "lon": "28.6666667"}, {"lat": "-12.9", "city": "Belleview", "lon": "28.6333333"}, {"lat": "-12.9", "city": "Belview", "lon": "28.6333333"}, {"lat": "-13.0666667", "city": "Bingwe", "lon": "27.9166667"}, {"lat": "-12.7833333", "city": "Buchi and Kamitondo", "lon": "28.2166667"}, {"lat": "-13.1", "city": "Busonge", "lon": "27.7"}, {"lat": "-12.5166667", "city": "Butondo", "lon": "28.2166667"}, {"lat": "-13.0333333", "city": "Bwana Mkubwa", "lon": "28.7"}, {"lat": "-13.1666667", "city": "Chalubingu", "lon": "28.6"}, {"lat": "-13.2666667", "city": "Chamakondi", "lon": "28.7"}, {"lat": "-13.2666667", "city": "Chamankondi", "lon": "28.7"}, {"lat": "-12.65", "city": "Chambezi", "lon": "28.0833333"}, {"lat": "-12.65", "city": "Chambishi", "lon": "28.0833333"}, {"lat": "-12.5833333", "city": "Chamuela", "lon": "27.6333333"}, {"lat": "-12.5833333", "city": "Chamwela", "lon": "27.6333333"}, {"lat": "-13.1166667", "city": "Chansuleni", "lon": "27.9166667"}, {"lat": "-12.9333333", "city": "Chatiala", "lon": "28.7"}, {"lat": "-13.3333333", "city": "Chekorwa", "lon": "28.4666667"}, {"lat": "-12.8166667", "city": "Chemankata", "lon": "27.7333333"}, {"lat": "-13.0333333", "city": "Chembe", "lon": "27.7333333"}, {"lat": "-13.0333333", "city": "Cheya", "lon": "27.75"}, {"lat": "-12.85", "city": "Cheyelele", "lon": "27.35"}, {"lat": "-13.2", "city": "Chiaba", "lon": "28.6666667"}, {"lat": "-12.85", "city": "Chibuluma", "lon": "28.1333333"}, {"lat": "-12.8333333", "city": "Chibungu", "lon": "28.6666667"}, {"lat": "-12.9333333", "city": "Chief Nkana", "lon": "28.0333333"}, {"lat": "-12.9333333", "city": "Chief Nkana's Court", "lon": "28.0333333"}, {"lat": "-12.9333333", "city": "Chifubu", "lon": "28.6166667"}, {"lat": "-12.9166667", "city": "Chikiamoni", "lon": "28.7"}, {"lat": "-12.8833333", "city": "Chikombi", "lon": "28.6666667"}, {"lat": "-12.6666667", "city": "Chikosheni", "lon": "27.5333333"}, {"lat": "-13.2333333", "city": "Chikoti", "lon": "28.6333333"}, {"lat": "-13.1333333", "city": "Chikululu", "lon": "28.7666667"}, {"lat": "-12.8833333", "city": "Chikumbi", "lon": "28.6666667"}, {"lat": "-12.3666667", "city": "Chilabombwe", "lon": "27.8333333"}, {"lat": "-13.1833333", "city": "Chilantali", "lon": "28.6"}, {"lat": "-12.3666667", "city": "Chiliabombwe", "lon": "27.8333333"}, {"lat": "-12.3666667", "city": "Chiliadomewe", "lon": "27.8333333"}, {"lat": "-12.3666667", "city": "Chililabombwe", "lon": "27.8333333"}, {"lat": "-12.2666667", "city": "Chilimina", "lon": "27.6"}, {"lat": "-13.3", "city": "Chilobia", "lon": "28.8333333"}, {"lat": "-13.2166667", "city": "Chilosha", "lon": "28.6"}, {"lat": "-12.3333333", "city": "Chilumbulwa", "lon": "27.1333333"}, {"lat": "-12.8166667", "city": "Chimankata", "lon": "27.7333333"}, {"lat": "-13.2166667", "city": "Chimbala", "lon": "28.6"}, {"lat": "-12.9833333", "city": "Chimbalanga", "lon": "28.7666667"}, {"lat": "-13.2166667", "city": "Chimbala Sepa", "lon": "28.6"}, {"lat": "-12.9166667", "city": "Chimiamoni", "lon": "28.7"}, {"lat": "-12.4333333", "city": "Chimoto", "lon": "27.8333333"}, {"lat": "-12.9166667", "city": "Chimyamauni", "lon": "28.7"}, {"lat": "-13.0166667", "city": "Chinama", "lon": "28.7833333"}, {"lat": "-12.5333333", "city": "Chingola", "lon": "27.85"}, {"lat": "-13.5166667", "city": "Chingula", "lon": "28.0166667"}, {"lat": "-13.5166667", "city": "Chingulo", "lon": "28.0166667"}, {"lat": "-12.8166667", "city": "Chinka", "lon": "27.05"}, {"lat": "-12.8166667", "city": "Chinke", "lon": "27.05"}, {"lat": "-12.35", "city": "Chintimba", "lon": "27.9333333"}, {"lat": "-12.9833333", "city": "Chipembere", "lon": "28.7333333"}, {"lat": "-13.2166667", "city": "Chipeteni", "lon": "28.5333333"}, {"lat": "-12.2666667", "city": "Chiramina", "lon": "27.6"}, {"lat": "-12.35", "city": "Chirumburwa", "lon": "27.15"}, {"lat": "-12.7833333", "city": "Chisampala", "lon": "27.3"}, {"lat": "-12.7833333", "city": "Chisampara", "lon": "27.3"}, {"lat": "-13.2166667", "city": "Chisapwa", "lon": "28.3833333"}, {"lat": "-12.9666667", "city": "Chisawakona", "lon": "28.5666667"}, {"lat": "-12.3833333", "city": "Chitanda", "lon": "27.95"}, {"lat": "-13.5", "city": "Chitongobesa", "lon": "28.45"}, {"lat": "-12.95", "city": "Chitundu", "lon": "28.7166667"}, {"lat": "-13.0", "city": "Chiwala", "lon": "28.7333333"}, {"lat": "-12.55", "city": "Chiwempala", "lon": "27.8333333"}, {"lat": "-13.2", "city": "Chiyaba", "lon": "28.6666667"}, {"lat": "-13.2166667", "city": "Chondwe", "lon": "28.75"}, {"lat": "-13.4666667", "city": "Chuba", "lon": "28.8166667"}, {"lat": "-13.0666667", "city": "Fisenge", "lon": "28.4666667"}, {"lat": "-13.0666667", "city": "Fisonge Township", "lon": "28.4666667"}, {"lat": "-13.2", "city": "Fiwale", "lon": "28.7166667"}, {"lat": "-13.8333333", "city": "Fubera", "lon": "28.6666667"}, {"lat": "-12.8833333", "city": "Fundi", "lon": "28.6666667"}, {"lat": "-12.7333333", "city": "Garneton", "lon": "28.1833333"}, {"lat": "-13.3666667", "city": "Ibenga", "lon": "28.4333333"}, {"lat": "-12.7333333", "city": "Itimpi", "lon": "28.1833333"}, {"lat": "-12.9166667", "city": "Jeke Mabenga", "lon": "27.6333333"}, {"lat": "-12.85", "city": "Jimboma", "lon": "27.0666667"}, {"lat": "-13.0166667", "city": "Kabange", "lon": "27.3833333"}, {"lat": "-12.8833333", "city": "Kabangula", "lon": "28.6833333"}, {"lat": "-12.9166667", "city": "Kabende", "lon": "28.7"}, {"lat": "-13.25", "city": "Kabunda-Bwina", "lon": "28.35"}, {"lat": "-13.2166667", "city": "Kabunda Shichubo", "lon": "28.6"}, {"lat": "-13.2833333", "city": "Kachega", "lon": "28.3666667"}, {"lat": "-13.2333333", "city": "Kafukanya", "lon": "28.45"}, {"lat": "-13.2666667", "city": "Kafulafuta", "lon": "28.35"}, {"lat": "-13.0166667", "city": "Kahende", "lon": "27.9166667"}, {"lat": "-12.4833333", "city": "Kakosa West", "lon": "27.8166667"}, {"lat": "-12.9", "city": "Kalabaila", "lon": "27.35"}, {"lat": "-12.8333333", "city": "Kalabwe", "lon": "27.3666667"}, {"lat": "-13.1333333", "city": "Kalaswa", "lon": "27.95"}, {"lat": "-13.0666667", "city": "Kaleshi", "lon": "27.45"}, {"lat": "-12.8333333", "city": "Kalibwe", "lon": "27.3333333"}, {"lat": "-12.8333333", "city": "Kalibwi", "lon": "27.3333333"}, {"lat": "-13.2", "city": "Kalimba", "lon": "28.6333333"}, {"lat": "-13.45", "city": "Kalimpata", "lon": "28.6166667"}, {"lat": "-12.4", "city": "Kaluba", "lon": "27.6666667"}, {"lat": "-12.8333333", "city": "Kalulshi", "lon": "28.0833333"}, {"lat": "-12.8333333", "city": "Kalulushi", "lon": "28.0833333"}, {"lat": "-12.8666667", "city": "Kalwe", "lon": "28.6833333"}, {"lat": "-13.2333333", "city": "Kalyanabulwani", "lon": "28.4166667"}, {"lat": "-13.1", "city": "Kambowa Farm", "lon": "28.8"}, {"lat": "-13.1", "city": "Kambowa", "lon": "28.8"}, {"lat": "-13.25", "city": "Kamfwa", "lon": "28.3833333"}, {"lat": "-13.2", "city": "Kamufwika", "lon": "28.6666667"}, {"lat": "-12.9833333", "city": "Kamwendo", "lon": "28.6"}, {"lat": "-13.8", "city": "Kangonde", "lon": "27.4"}, {"lat": "-13.8", "city": "Kangondi", "lon": "27.4"}, {"lat": "-12.6", "city": "Kansuswa", "lon": "28.2166667"}, {"lat": "-12.9166667", "city": "Kanyanje", "lon": "28.65"}, {"lat": "-13.2166667", "city": "Kapapula", "lon": "28.5666667"}, {"lat": "-13.2166667", "city": "Kapaputa", "lon": "28.5666667"}, {"lat": "-12.9833333", "city": "Kapiri", "lon": "28.7666667"}, {"lat": "-12.9166667", "city": "Kaponda", "lon": "28.7"}, {"lat": "-12.8333333", "city": "Karabwe", "lon": "27.3666667"}, {"lat": "-12.8333333", "city": "Karobwe", "lon": "27.3666667"}, {"lat": "-13.1666667", "city": "Kasabua", "lon": "28.5833333"}, {"lat": "-13.1666667", "city": "Kasamwa", "lon": "28.5833333"}, {"lat": "-13.7", "city": "Kashitu", "lon": "28.6666667"}, {"lat": "-12.5833333", "city": "Kasompe", "lon": "27.9"}, {"lat": "-13.3166667", "city": "Kasunu", "lon": "28.7333333"}, {"lat": "-12.8666667", "city": "Katanga", "lon": "28.65"}, {"lat": "-13.6", "city": "Katanino", "lon": "28.7166667"}, {"lat": "-13.6", "city": "Katanoni", "lon": "28.7166667"}, {"lat": "-12.8666667", "city": "Katata", "lon": "27.05"}, {"lat": "-13.2166667", "city": "Katelele", "lon": "28.45"}, {"lat": "-13.1333333", "city": "Katola", "lon": "27.7666667"}, {"lat": "-12.8666667", "city": "Katota", "lon": "27.05"}, {"lat": "-12.9", "city": "Kayebaila", "lon": "27.35"}, {"lat": "-13.2333333", "city": "Kayola", "lon": "28.5"}, {"lat": "-12.4333333", "city": "Kimoto", "lon": "27.8333333"}, {"lat": "-12.8166667", "city": "Kitwe", "lon": "28.2"}, {"lat": "-12.8166667", "city": "Kitwe Nkana", "lon": "28.2"}, {"lat": "-12.4", "city": "Koluba", "lon": "27.6666667"}, {"lat": "-13.4833333", "city": "Kombi", "lon": "28.65"}, {"lat": "-12.3", "city": "Konkola", "lon": "27.7666667"}, {"lat": "-12.6666667", "city": "Korsheni", "lon": "27.5333333"}, {"lat": "-12.8166667", "city": "Kumbwe", "lon": "27.45"}, {"lat": "-12.8166667", "city": "Kumbwi", "lon": "27.45"}, {"lat": "-13.5", "city": "Lesa", "lon": "28.1666667"}, {"lat": "-13.5", "city": "Leza", "lon": "28.1666667"}, {"lat": "-12.85", "city": "Limboma", "lon": "27.0666667"}, {"lat": "-13.15", "city": "Limbusha", "lon": "28.5833333"}, {"lat": "-12.3333333", "city": "Longone", "lon": "27.6166667"}, {"lat": "-12.3333333", "city": "Longwani", "lon": "27.6166667"}, {"lat": "-13.1333333", "city": "Luanshya", "lon": "28.4"}, {"lat": "-13.1333333", "city": "Luanshyo", "lon": "28.4"}, {"lat": "-12.9666667", "city": "Lubesha", "lon": "27.65"}, {"lat": "-13.1833333", "city": "Lubuila", "lon": "27.4666667"}, {"lat": "-13.5", "city": "Lucheshi", "lon": "28.05"}, {"lat": "-13.5", "city": "Lukeshi", "lon": "28.05"}, {"lat": "-13.5", "city": "Lukoshi", "lon": "28.05"}, {"lat": "-12.8", "city": "Lukungwe", "lon": "27.7666667"}, {"lat": "-12.3", "city": "Lumata", "lon": "27.9"}, {"lat": "-13.2", "city": "Lumena", "lon": "28.7166667"}, {"lat": "-13.1166667", "city": "Lumpuma", "lon": "27.9166667"}, {"lat": "-13.2166667", "city": "Lunda", "lon": "28.55"}, {"lat": "-12.9333333", "city": "Lusalya", "lon": "28.7333333"}, {"lat": "-12.9333333", "city": "Lusaya", "lon": "28.7333333"}, {"lat": "-12.8666667", "city": "Lutele", "lon": "28.7"}, {"lat": "-13.55", "city": "Lutende", "lon": "28.2166667"}, {"lat": "-12.9333333", "city": "Lutwiika", "lon": "28.7166667"}, {"lat": "-12.9333333", "city": "Lutwiki", "lon": "28.7166667"}, {"lat": "-12.9666667", "city": "Luvesha", "lon": "27.65"}, {"lat": "-13.2333333", "city": "Lwandamina", "lon": "28.5"}, {"lat": "-13.2333333", "city": "Lwandomina", "lon": "28.5"}, {"lat": "-13.2", "city": "Lwengeshi", "lon": "28.6166667"}, {"lat": "-13.2", "city": "Lyolomena", "lon": "28.5833333"}, {"lat": "-13.2", "city": "Lyolomona", "lon": "28.5833333"}, {"lat": "-12.9166667", "city": "Mabenga", "lon": "27.05"}, {"lat": "-12.8166667", "city": "Mabomba", "lon": "27.7333333"}, {"lat": "-13.7", "city": "Machiya", "lon": "27.6"}, {"lat": "-12.9666667", "city": "Maisa", "lon": "28.7333333"}, {"lat": "-13.7", "city": "Makiya", "lon": "27.6"}, {"lat": "-13.0", "city": "Malabo", "lon": "28.6666667"}, {"lat": "-12.35", "city": "Malanye", "lon": "27.1333333"}, {"lat": "-13.4666667", "city": "Malembeka", "lon": "28.5333333"}, {"lat": "-13.4666667", "city": "Malembe", "lon": "28.5333333"}, {"lat": "-12.95", "city": "Maliafita", "lon": "27.3166667"}, {"lat": "-12.9666667", "city": "Malilo", "lon": "27.4166667"}, {"lat": "-12.85", "city": "Malisawa", "lon": "27.4166667"}, {"lat": "-13.2", "city": "Malokota", "lon": "28.5833333"}, {"lat": "-12.95", "city": "Malyafita", "lon": "27.3166667"}, {"lat": "-13.1833333", "city": "Mapeleka", "lon": "28.5833333"}, {"lat": "-13.2333333", "city": "Mapota", "lon": "28.6666667"}, {"lat": "-13.4666667", "city": "Marembika", "lon": "28.5333333"}, {"lat": "-13.2666667", "city": "Masaiti", "lon": "28.4166667"}, {"lat": "-12.85", "city": "Matisowa", "lon": "27.4166667"}, {"lat": "-12.9833333", "city": "Matutu", "lon": "28.7666667"}, {"lat": "-12.8166667", "city": "Maumba", "lon": "27.7333333"}, {"lat": "-12.9166667", "city": "Mavenga", "lon": "27.05"}, {"lat": "-12.9", "city": "Mbunda", "lon": "28.7"}, {"lat": "-13.05", "city": "Merera", "lon": "27.3166667"}, {"lat": "-13.7833333", "city": "Metamba", "lon": "27.5"}, {"lat": "-12.9166667", "city": "Mfwaya", "lon": "27.3333333"}, {"lat": "-13.5333333", "city": "Milomwe", "lon": "28.6166667"}, {"lat": "-12.7666667", "city": "Mindolo", "lon": "28.1833333"}, {"lat": "-12.8333333", "city": "Misundu", "lon": "28.6333333"}, {"lat": "-13.0833333", "city": "Mitwe", "lon": "27.7"}, {"lat": "-13.25", "city": "Mofwe", "lon": "28.3333333"}, {"lat": "-12.95", "city": "Mokola", "lon": "27.3333333"}, {"lat": "-12.95", "city": "Mokolo", "lon": "27.3333333"}, {"lat": "-12.3166667", "city": "Momba Farm", "lon": "27.8"}, {"lat": "-12.3166667", "city": "Momba", "lon": "27.8"}, {"lat": "-12.9666667", "city": "Mondaka", "lon": "28.7333333"}, {"lat": "-13.2166667", "city": "Moyana", "lon": "28.6"}, {"lat": "-13.1", "city": "Mpatamatu", "lon": "28.3333333"}, {"lat": "-13.3666667", "city": "Mpelabusi Farm", "lon": "28.8833333"}, {"lat": "-13.3666667", "city": "Mpelabusi", "lon": "28.8833333"}, {"lat": "-13.1333333", "city": "Mpemba", "lon": "27.8333333"}, {"lat": "-13.5333333", "city": "Mpongwe", "lon": "28.15"}, {"lat": "-13.2333333", "city": "Mpota", "lon": "28.6666667"}, {"lat": "-13.4833333", "city": "Mpupulwa", "lon": "28.1833333"}, {"lat": "-13.2166667", "city": "Mpupwa", "lon": "28.5166667"}, {"lat": "-13.2166667", "city": "Mpyana", "lon": "28.6"}, {"lat": "-13.0", "city": "Mtolilo", "lon": "28.7166667"}, {"lat": "-13.45", "city": "Mubanga", "lon": "28.7"}, {"lat": "-13.2333333", "city": "Muchesa", "lon": "28.6"}, {"lat": "-13.2333333", "city": "Muchesu", "lon": "28.6"}, {"lat": "-13.2", "city": "Muflandi", "lon": "28.55"}, {"lat": "-13.0833333", "city": "Mufuli", "lon": "28.2"}, {"lat": "-12.55", "city": "Mufulira", "lon": "28.2333333"}, {"lat": "-13.5833333", "city": "Mufusa", "lon": "28.6833333"}, {"lat": "-12.9166667", "city": "Mufwaya", "lon": "27.3333333"}, {"lat": "-13.1333333", "city": "Mufyene", "lon": "28.1333333"}, {"lat": "-13.1333333", "city": "Mufyeni", "lon": "28.1333333"}, {"lat": "-13.3166667", "city": "Mugoti", "lon": "28.65"}, {"lat": "-12.9", "city": "Muikuma", "lon": "27.6166667"}, {"lat": "-12.9166667", "city": "Muketi", "lon": "27.3666667"}, {"lat": "-13.1833333", "city": "Mukolwe", "lon": "28.5833333"}, {"lat": "-13.5333333", "city": "Mukopora", "lon": "28.0666667"}, {"lat": "-13.5333333", "city": "Mukukutu", "lon": "28.5333333"}, {"lat": "-13.2166667", "city": "Mukukutwa", "lon": "28.5666667"}, {"lat": "-13.0166667", "city": "Mukushi", "lon": "28.7666667"}, {"lat": "-13.0", "city": "Mulekelwa", "lon": "28.8166667"}, {"lat": "-12.9666667", "city": "Mulilo", "lon": "27.4166667"}, {"lat": "-13.2166667", "city": "Mulimba", "lon": "28.5"}, {"lat": "-13.2166667", "city": "Mumba", "lon": "28.5666667"}, {"lat": "-13.0166667", "city": "Mungoti", "lon": "28.7833333"}, {"lat": "-13.5833333", "city": "Munkumpu", "lon": "27.8166667"}, {"lat": "-12.9666667", "city": "Muntanda", "lon": "27.3166667"}, {"lat": "-12.4833333", "city": "Murundi", "lon": "28.3166667"}, {"lat": "-12.4833333", "city": "Murundu Farm", "lon": "28.3"}, {"lat": "-12.4833333", "city": "Murundu", "lon": "28.3"}, {"lat": "-12.9666667", "city": "Musakabantu", "lon": "27.6833333"}, {"lat": "-13.1833333", "city": "Muscala", "lon": "28.7166667"}, {"lat": "-12.9666667", "city": "Musekabantu", "lon": "27.6833333"}, {"lat": "-13.0", "city": "Mushamu", "lon": "28.75"}, {"lat": "-13.1833333", "city": "Mushidi", "lon": "28.6"}, {"lat": "-13.1833333", "city": "Mushili", "lon": "28.6"}, {"lat": "-12.95", "city": "Mushimba", "lon": "28.0166667"}, {"lat": "-13.1833333", "city": "Mushiri", "lon": "28.6"}, {"lat": "-13.1833333", "city": "Mushyala", "lon": "28.7166667"}, {"lat": "-13.2333333", "city": "Musonga", "lon": "28.6333333"}, {"lat": "-12.9666667", "city": "Mutanda", "lon": "27.3166667"}, {"lat": "-12.35", "city": "Mutanye", "lon": "27.1333333"}, {"lat": "-12.85", "city": "Mutasa", "lon": "27.3333333"}, {"lat": "-12.85", "city": "Mutas", "lon": "27.3333333"}, {"lat": "-12.95", "city": "Mutolilo", "lon": "28.7166667"}, {"lat": "-13.6333333", "city": "Mutwale", "lon": "28.1833333"}, {"lat": "-13.0", "city": "Mwalubu", "lon": "28.8166667"}, {"lat": "-13.1833333", "city": "Mwanakonse", "lon": "28.65"}, {"lat": "-13.0166667", "city": "Mwandelu", "lon": "27.8"}, {"lat": "-13.1", "city": "Mwelushi", "lon": "27.9333333"}, {"lat": "-13.3333333", "city": "Mwema Nyala", "lon": "28.5333333"}, {"lat": "-12.9", "city": "Mwikuma", "lon": "27.6166667"}, {"lat": "-13.2166667", "city": "Mwilye", "lon": "28.65"}, {"lat": "-12.9666667", "city": "Mwisa", "lon": "28.7333333"}, {"lat": "-12.9", "city": "Nangula", "lon": "27.05"}, {"lat": "-12.5166667", "city": "Nchanga Mine", "lon": "27.8666667"}, {"lat": "-12.5166667", "city": "Nchanga", "lon": "27.8666667"}, {"lat": "-12.8166667", "city": "Nchinke", "lon": "27.05"}, {"lat": "-12.9666667", "city": "Ndola", "lon": "28.6333333"}, {"lat": "-13.4833333", "city": "Ndubeni", "lon": "27.9833333"}, {"lat": "-12.3", "city": "Ngosa Farm", "lon": "27.4666667"}, {"lat": "-12.3", "city": "Ngosa", "lon": "27.4666667"}, {"lat": "-13.2", "city": "Ngoyi", "lon": "28.6666667"}, {"lat": "-12.9166667", "city": "Njak", "lon": "27.6333333"}, {"lat": "-13.8833333", "city": "Nkambo", "lon": "28.5166667"}, {"lat": "-12.8166667", "city": "Nkana-Kitwe", "lon": "28.2"}, {"lat": "-12.8333333", "city": "Nkana", "lon": "28.2"}, {"lat": "-13.0", "city": "Nkapato", "lon": "28.6"}, {"lat": "-13.2166667", "city": "Nkonde", "lon": "28.7333333"}, {"lat": "-13.3833333", "city": "Nkondukoyu", "lon": "28.6833333"}, {"lat": "-12.95", "city": "Nkonkola", "lon": "28.7166667"}, {"lat": "-12.95", "city": "Nkumbula", "lon": "28.7666667"}, {"lat": "-13.3", "city": "Nkumesha", "lon": "28.3833333"}, {"lat": "-13.05", "city": "Nsepe", "lon": "27.7666667"}, {"lat": "-13.4666667", "city": "Ntapwa", "lon": "28.2"}, {"lat": "-13.4166667", "city": "Nuala", "lon": "28.25"}, {"lat": "-13.5166667", "city": "Nyenyeshi", "lon": "28.6666667"}, {"lat": "-12.6", "city": "Papaloka", "lon": "27.6166667"}, {"lat": "-13.2166667", "city": "Patama", "lon": "27.3"}, {"lat": "-12.8833333", "city": "Pitila", "lon": "28.6666667"}, {"lat": "-12.6", "city": "Popaloka", "lon": "27.6166667"}, {"lat": "-13.2833333", "city": "Pukota", "lon": "28.6833333"}, {"lat": "-13.1666667", "city": "Pungula", "lon": "27.5"}, {"lat": "-13.4833333", "city": "Pupulua", "lon": "28.1833333"}, {"lat": "-13.4833333", "city": "Puputua", "lon": "28.1833333"}, {"lat": "-13.4666667", "city": "Saint Anthony's", "lon": "27.9333333"}, {"lat": "-12.9", "city": "Saint Joseph's", "lon": "28.0166667"}, {"lat": "-12.8833333", "city": "Saint Mary's", "lon": "27.3666667"}, {"lat": "-13.2333333", "city": "Saka", "lon": "28.5"}, {"lat": "-12.35", "city": "Saleni", "lon": "27.6666667"}, {"lat": "-12.35", "city": "Sareni", "lon": "27.6666667"}, {"lat": "-13.05", "city": "Sempala", "lon": "28.15"}, {"lat": "-12.7", "city": "Sensenta", "lon": "27.5666667"}, {"lat": "-12.8333333", "city": "Shamfuti", "lon": "27.45"}, {"lat": "-13.2166667", "city": "Shamuteya", "lon": "28.4333333"}, {"lat": "-12.35", "city": "Shibuchinga", "lon": "27.35"}, {"lat": "-12.8666667", "city": "Shimukunami", "lon": "27.6666667"}, {"lat": "-12.95", "city": "Shimukunvama", "lon": "27.6666667"}, {"lat": "-12.8666667", "city": "Shimukunyama", "lon": "27.6666667"}, {"lat": "-13.2166667", "city": "Shipanda", "lon": "28.6666667"}, {"lat": "-12.35", "city": "Sibuchinga", "lon": "27.35"}, {"lat": "-13.3166667", "city": "Side", "lon": "28.45"}, {"lat": "-9.0666667", "city": "Sindano", "lon": "31.0333333"}, {"lat": "-12.9666667", "city": "Songolo", "lon": "28.7333333"}, {"lat": "-12.9833333", "city": "Suse", "lon": "28.8"}, {"lat": "-13.4666667", "city": "Tapwa", "lon": "28.2"}, {"lat": "-13.0", "city": "Twapia", "lon": "28.6"}, {"lat": "-13.0333333", "city": "Venture", "lon": "28.4166667"}, {"lat": "-13.3333333", "city": "Wacha", "lon": "28.8666667"}, {"lat": "-13.5", "city": "Walamba", "lon": "28.75"}, {"lat": "-13.5", "city": "Walomba", "lon": "28.75"}, {"lat": "-13.5666667", "city": "Wanashimba", "lon": "28.6166667"}, {"lat": "-12.85", "city": "Wusikili", "lon": "28.2166667"}, {"lat": "-13.4833333", "city": "Zembeshi", "lon": "28.8833333"}], "03": [{"lat": "-17.2333333", "city": "Adonsi", "lon": "25.0333333"}, {"lat": "-15.6333333", "city": "Afumba", "lon": "24.9333333"}, {"lat": "-17.3666667", "city": "Aibelilwe", "lon": "24.8"}, {"lat": "-16.8333333", "city": "Aikelile", "lon": "24.8833333"}, {"lat": "-15.2666667", "city": "Aikondo", "lon": "22.8833333"}, {"lat": "-15.55", "city": "Ailola", "lon": "23.1"}, {"lat": "-16.7", "city": "Ajungajunga", "lon": "24.7666667"}, {"lat": "-15.6", "city": "Akaaiwa", "lon": "23.1"}, {"lat": "-15.6166667", "city": "Akabiti", "lon": "23.3666667"}, {"lat": "-17.35", "city": "Akakamba", "lon": "24.7666667"}, {"lat": "-17.4166667", "city": "Akamonwa", "lon": "24.8833333"}, {"lat": "-15.1", "city": "Akashambatwa", "lon": "22.8166667"}, {"lat": "-15.4666667", "city": "Akawi", "lon": "23.0666667"}, {"lat": "-15.4666667", "city": "Akokwa", "lon": "23.05"}, {"lat": "-17.35", "city": "Aleluba", "lon": "24.8"}, {"lat": "-15.55", "city": "Aliomba", "lon": "22.9666667"}, {"lat": "-15.35", "city": "Amatende", "lon": "22.85"}, {"lat": "-16.0833333", "city": "Ambanga", "lon": "23.4833333"}, {"lat": "-17.4833333", "city": "Ambanwa", "lon": "24.9"}, {"lat": "-14.9666667", "city": "Amoka", "lon": "22.9833333"}, {"lat": "-15.4", "city": "Amukusana", "lon": "23.3833333"}, {"lat": "-17.3833333", "city": "Amukuteile", "lon": "24.7166667"}, {"lat": "-15.85", "city": "Amwalana", "lon": "23.9333333"}, {"lat": "-15.0333333", "city": "Analilwa", "lon": "23.1166667"}, {"lat": "-15.0833333", "city": "Analiwa", "lon": "22.9333333"}, {"lat": "-15.0", "city": "Anamaa", "lon": "23.5"}, {"lat": "-15.3", "city": "Anambulu", "lon": "22.9166667"}, {"lat": "-15.1166667", "city": "Anandala", "lon": "23.3166667"}, {"lat": "-17.2666667", "city": "Anasambata", "lon": "24.6833333"}, {"lat": "-15.5666667", "city": "Anawana", "lon": "23.1833333"}, {"lat": "-17.0", "city": "Anderson Mulawa", "lon": "23.9833333"}, {"lat": "-14.85", "city": "Anduu", "lon": "23.25"}, {"lat": "-14.5", "city": "Anzeli", "lon": "25.1"}, {"lat": "-15.1833333", "city": "Aongola", "lon": "22.85"}, {"lat": "-17.3333333", "city": "Asikuli", "lon": "24.7666667"}, {"lat": "-15.6333333", "city": "Asiyenye", "lon": "23.1"}, {"lat": "-15.2833333", "city": "Atanga", "lon": "23.0333333"}, {"lat": "-15.4333333", "city": "Ausiku", "lon": "22.8"}, {"lat": "-16.1", "city": "Awabelili", "lon": "22.9"}, {"lat": "-14.9666667", "city": "Awata", "lon": "22.6833333"}, {"lat": "-14.6833333", "city": "Baimbai", "lon": "23.2"}, {"lat": "-17.4", "city": "Basebani", "lon": "24.6833333"}, {"lat": "-16.4666667", "city": "Basubila", "lon": "24.5166667"}, {"lat": "-14.4333333", "city": "Batuke", "lon": "23.2166667"}, {"lat": "-14.7666667", "city": "Batunda", "lon": "23.0333333"}, {"lat": "-14.6833333", "city": "Benda", "lon": "23.95"}, {"lat": "-14.3666667", "city": "Bichakana", "lon": "23.7"}, {"lat": "-15.0166667", "city": "Bielu", "lon": "24.0333333"}, {"lat": "-16.8833333", "city": "Biemba", "lon": "24.5666667"}, {"lat": "-14.4", "city": "Bindinda", "lon": "23.25"}, {"lat": "-15.3", "city": "Bingashano", "lon": "24.05"}, {"lat": "-14.9333333", "city": "Bisesa", "lon": "24.3"}, {"lat": "-14.1666667", "city": "Bokama", "lon": "24.9333333"}, {"lat": "-14.5666667", "city": "Boyani", "lon": "24.7"}, {"lat": "-16.85", "city": "Bukala", "lon": "24.8333333"}, {"lat": "-15.1333333", "city": "Buleya", "lon": "22.7"}, {"lat": "-15.7", "city": "Bulubi", "lon": "25.0833333"}, {"lat": "-13.95", "city": "Bungama", "lon": "24.55"}, {"lat": "-14.0", "city": "Bungana", "lon": "24.6"}, {"lat": "-14.8", "city": "Bunonge", "lon": "24.9166667"}, {"lat": "-14.1", "city": "Busonge", "lon": "24.65"}, {"lat": "-15.3666667", "city": "Butoia", "lon": "23.1166667"}, {"lat": "-15.3666667", "city": "Butoya", "lon": "23.1166667"}, {"lat": "-15.2333333", "city": "Butumbo", "lon": "23.7166667"}, {"lat": "-16.2166667", "city": "Bwambo", "lon": "25.0166667"}, {"lat": "-16.2", "city": "Bwato", "lon": "24.1"}, {"lat": "-14.8333333", "city": "Bwilo", "lon": "24.3833333"}, {"lat": "-16.45", "city": "Bwina", "lon": "24.9666667"}, {"lat": "-16.7666667", "city": "Chabenge", "lon": "24.9666667"}, {"lat": "-14.85", "city": "Chacha", "lon": "24.3833333"}, {"lat": "-14.45", "city": "Chakala", "lon": "23.6833333"}, {"lat": "-15.4", "city": "Chakama", "lon": "24.8833333"}, {"lat": "-15.3666667", "city": "Chalakano", "lon": "24.7166667"}, {"lat": "-14.9833333", "city": "Chamakalela", "lon": "24.9"}, {"lat": "-14.9166667", "city": "Chamba", "lon": "22.35"}, {"lat": "-16.4833333", "city": "Chambianguzu", "lon": "24.9666667"}, {"lat": "-15.0833333", "city": "Chambunduka", "lon": "24.4833333"}, {"lat": "-14.7333333", "city": "Chami", "lon": "23.85"}, {"lat": "-16.0666667", "city": "Chanda", "lon": "23.7"}, {"lat": "-14.4333333", "city": "Chanduka", "lon": "23.6833333"}, {"lat": "-14.7666667", "city": "Changachanga", "lon": "23.8166667"}, {"lat": "-16.75", "city": "Chanyati", "lon": "23.5333333"}, {"lat": "-14.0666667", "city": "Chapola", "lon": "23.0"}, {"lat": "-15.8666667", "city": "Chasinda", "lon": "23.65"}, {"lat": "-15.25", "city": "Chawana", "lon": "22.8166667"}, {"lat": "-14.2", "city": "Chazuwa", "lon": "22.4666667"}, {"lat": "-14.85", "city": "Chelemba", "lon": "23.8833333"}, {"lat": "-15.0", "city": "Chenyeka", "lon": "24.3833333"}, {"lat": "-16.4333333", "city": "Chiasa", "lon": "24.9333333"}, {"lat": "-14.8333333", "city": "Chibambo", "lon": "23.7166667"}, {"lat": "-14.9833333", "city": "Chibange", "lon": "24.3833333"}, {"lat": "-15.0833333", "city": "Chibende", "lon": "24.0833333"}, {"lat": "-17.05", "city": "Chibeya", "lon": "24.0"}, {"lat": "-16.5666667", "city": "Chibiya", "lon": "24.6833333"}, {"lat": "-16.75", "city": "Chibona", "lon": "23.5333333"}, {"lat": "-16.4833333", "city": "Chibonda", "lon": "24.9666667"}, {"lat": "-16.8666667", "city": "Chibosha", "lon": "24.7333333"}, {"lat": "-14.65", "city": "Chibumbu", "lon": "22.9166667"}, {"lat": "-14.45", "city": "Chibundula", "lon": "24.0"}, {"lat": "-14.6833333", "city": "Chibutu", "lon": "25.5833333"}, {"lat": "-15.1666667", "city": "Chielula", "lon": "22.55"}, {"lat": "-16.5333333", "city": "Chienga", "lon": "24.5166667"}, {"lat": "-15.6666667", "city": "Chifi", "lon": "23.5833333"}, {"lat": "-15.1666667", "city": "Chihinga", "lon": "24.5833333"}, {"lat": "-14.2666667", "city": "Chijiba", "lon": "24.9333333"}, {"lat": "-14.7833333", "city": "Chikaku", "lon": "22.7666667"}, {"lat": "-15.9333333", "city": "Chikanga", "lon": "23.6833333"}, {"lat": "-13.9833333", "city": "Chikeso", "lon": "22.2"}, {"lat": "-14.8166667", "city": "Chikinina", "lon": "23.8"}, {"lat": "-15.5833333", "city": "Chikoka", "lon": "24.75"}, {"lat": "-14.45", "city": "Chikoki", "lon": "24.0"}, {"lat": "-14.0666667", "city": "Chikolo", "lon": "23.2166667"}, {"lat": "-14.7833333", "city": "Chikololo", "lon": "24.1833333"}, {"lat": "-15.75", "city": "Chikondombolo", "lon": "23.4666667"}, {"lat": "-14.9833333", "city": "Chikote", "lon": "22.45"}, {"lat": "-15.2666667", "city": "Chikundula", "lon": "22.6"}, {"lat": "-14.7833333", "city": "Chikunga", "lon": "24.8833333"}, {"lat": "-13.9666667", "city": "Chikungulu", "lon": "22.85"}, {"lat": "-15.5833333", "city": "Chikwama", "lon": "22.9833333"}, {"lat": "-14.8833333", "city": "Chikwata", "lon": "23.8666667"}, {"lat": "-14.7166667", "city": "Chikwekwe", "lon": "24.9333333"}, {"lat": "-14.2", "city": "Chilanda", "lon": "23.3166667"}, {"lat": "-15.3", "city": "Chilemu", "lon": "22.8333333"}, {"lat": "-16.95", "city": "Chiligwa", "lon": "23.9333333"}, {"lat": "-14.1166667", "city": "Chilikama", "lon": "22.9666667"}, {"lat": "-14.05", "city": "Chilila", "lon": "23.0166667"}, {"lat": "-15.3166667", "city": "Chilonga", "lon": "22.7666667"}, {"lat": "-14.6833333", "city": "Chilongo", "lon": "23.95"}, {"lat": "-14.4", "city": "Chilunda", "lon": "23.2833333"}, {"lat": "-15.0333333", "city": "Chimanya", "lon": "22.6166667"}, {"lat": "-14.75", "city": "Chimbinga", "lon": "23.9166667"}, {"lat": "-14.4", "city": "Chimbonda", "lon": "23.2666667"}, {"lat": "-15.1666667", "city": "Chimbwende", "lon": "24.1666667"}, {"lat": "-14.7833333", "city": "Chimbweta", "lon": "23.7833333"}, {"lat": "-14.9833333", "city": "Chimika", "lon": "24.4333333"}, {"lat": "-15.0166667", "city": "Chimupi", "lon": "22.6"}, {"lat": "-14.6166667", "city": "Chimutwi", "lon": "24.6666667"}, {"lat": "-15.25", "city": "Chindamba", "lon": "22.6666667"}, {"lat": "-14.0", "city": "Chindele", "lon": "23.8833333"}, {"lat": "-16.6", "city": "Chindumbu", "lon": "24.7833333"}, {"lat": "-14.9", "city": "Chinenge", "lon": "22.6666667"}, {"lat": "-16.5833333", "city": "Chinengu", "lon": "24.6666667"}, {"lat": "-14.3166667", "city": "Chingambu", "lon": "23.25"}, {"lat": "-15.6333333", "city": "Chinganda", "lon": "22.6166667"}, {"lat": "-14.6333333", "city": "Chingangu", "lon": "24.7"}, {"lat": "-13.9833333", "city": "Chingavata", "lon": "22.2"}, {"lat": "-15.8833333", "city": "Chingolola", "lon": "24.9833333"}, {"lat": "-15.6833333", "city": "Chingumbe", "lon": "25.0166667"}, {"lat": "-13.95", "city": "Chingwali", "lon": "22.8166667"}, {"lat": "-15.6666667", "city": "Chinjamba", "lon": "24.9666667"}, {"lat": "-14.9666667", "city": "Chinjenge", "lon": "22.6166667"}, {"lat": "-14.8166667", "city": "Chinkumbe", "lon": "23.85"}, {"lat": "-15.1333333", "city": "Chinunga", "lon": "22.6333333"}, {"lat": "-14.4666667", "city": "Chinyama", "lon": "23.5833333"}, {"lat": "-14.0333333", "city": "Chinyawa", "lon": "22.9833333"}, {"lat": "-15.15", "city": "Chinyeka", "lon": "24.2333333"}, {"lat": "-14.4666667", "city": "Chinyemba", "lon": "23.7666667"}, {"lat": "-15.4333333", "city": "Chinyenge", "lon": "23.7166667"}, {"lat": "-17.2333333", "city": "Chiolola", "lon": "23.8333333"}, {"lat": "-17.2333333", "city": "Chiololo", "lon": "23.8333333"}, {"lat": "-16.5", "city": "Chiombo", "lon": "24.9666667"}, {"lat": "-13.9833333", "city": "Chiongo", "lon": "24.0166667"}, {"lat": "-14.7", "city": "Chioza", "lon": "22.7666667"}, {"lat": "-15.0666667", "city": "Chipala", "lon": "22.6333333"}, {"lat": "-14.9833333", "city": "Chipatela", "lon": "22.4333333"}, {"lat": "-14.2333333", "city": "Chipelembe", "lon": "25.0"}, {"lat": "-14.4", "city": "Chipoya", "lon": "23.6833333"}, {"lat": "-14.8333333", "city": "Chippia", "lon": "22.1833333"}, {"lat": "-14.2166667", "city": "Chipulu", "lon": "23.25"}, {"lat": "-14.2833333", "city": "Chiputa", "lon": "23.05"}, {"lat": "-14.2", "city": "Chirembe", "lon": "22.0333333"}, {"lat": "-14.7333333", "city": "Chisama", "lon": "24.2"}, {"lat": "-14.95", "city": "Chiselele", "lon": "24.4833333"}, {"lat": "-14.2666667", "city": "Chisenya", "lon": "23.1333333"}, {"lat": "-15.3333333", "city": "Chishinga", "lon": "25.25"}, {"lat": "-13.7333333", "city": "Chishita", "lon": "22.15"}, {"lat": "-14.1166667", "city": "Chisita", "lon": "22.8666667"}, {"lat": "-15.6166667", "city": "Chisonda", "lon": "23.5666667"}, {"lat": "-15.8833333", "city": "Chitachi", "lon": "23.55"}, {"lat": "-14.6166667", "city": "Chitangu", "lon": "24.4166667"}, {"lat": "-14.9666667", "city": "Chiteula", "lon": "22.65"}, {"lat": "-15.3833333", "city": "Chitoka", "lon": "22.8666667"}, {"lat": "-13.9", "city": "Chitole", "lon": "22.4666667"}, {"lat": "-14.1333333", "city": "Chitombo", "lon": "23.05"}, {"lat": "-15.5833333", "city": "Chitunta", "lon": "24.9"}, {"lat": "-15.25", "city": "Chituta", "lon": "24.6166667"}, {"lat": "-17.35", "city": "Chiulu", "lon": "24.1666667"}, {"lat": "-14.2833333", "city": "Chiunde", "lon": "24.9666667"}, {"lat": "-15.7333333", "city": "Chivueta", "lon": "23.55"}, {"lat": "-15.6", "city": "Chivweta", "lon": "23.5666667"}, {"lat": "-14.7833333", "city": "Chivweti", "lon": "24.6833333"}, {"lat": "-15.2666667", "city": "Chiwamba", "lon": "22.8166667"}, {"lat": "-14.45", "city": "Chiwano", "lon": "24.0333333"}, {"lat": "-14.55", "city": "Chiwawa", "lon": "24.2166667"}, {"lat": "-14.4166667", "city": "Chiwishi", "lon": "23.25"}, {"lat": "-15.2666667", "city": "Chiyeke", "lon": "22.6"}, {"lat": "-16.95", "city": "Chiyose", "lon": "24.9"}, {"lat": "-14.4", "city": "Chizaza", "lon": "23.2833333"}, {"lat": "-14.8666667", "city": "Chizelu", "lon": "23.9333333"}, {"lat": "-14.6", "city": "Chizhimo", "lon": "24.35"}, {"lat": "-14.0333333", "city": "Chizika", "lon": "22.9166667"}, {"lat": "-14.7", "city": "Chiziko", "lon": "23.9166667"}, {"lat": "-15.5333333", "city": "Chizimu", "lon": "24.1833333"}, {"lat": "-14.6666667", "city": "Choko Choko", "lon": "23.3"}, {"lat": "-14.2333333", "city": "Chola", "lon": "23.4333333"}, {"lat": "-17.2333333", "city": "Cholola", "lon": "23.8333333"}, {"lat": "-15.1166667", "city": "Choma", "lon": "22.5833333"}, {"lat": "-14.1333333", "city": "Chombo", "lon": "22.9833333"}, {"lat": "-14.4333333", "city": "Chotela", "lon": "23.3666667"}, {"lat": "-15.6666667", "city": "Choza", "lon": "23.5"}, {"lat": "-14.7", "city": "Chuma", "lon": "25.55"}, {"lat": "-15.25", "city": "Chumbula", "lon": "22.25"}, {"lat": "-17.4", "city": "Chuulu", "lon": "24.2333333"}, {"lat": "-14.2333333", "city": "Dandaule", "lon": "22.0333333"}, {"lat": "-15.05", "city": "Daniel Kufuna", "lon": "22.85"}, {"lat": "-14.2166667", "city": "Dezo", "lon": "23.3666667"}, {"lat": "-14.1833333", "city": "Dulu", "lon": "23.0833333"}, {"lat": "-15.05", "city": "Elisha", "lon": "24.4333333"}, {"lat": "-15.1", "city": "Elombwe", "lon": "24.15"}, {"lat": "-15.75", "city": "Felo", "lon": "22.5666667"}, {"lat": "-14.6166667", "city": "Filipi", "lon": "23.9"}, {"lat": "-14.4666667", "city": "Fufutu", "lon": "23.8333333"}, {"lat": "-14.9666667", "city": "Fulumana", "lon": "24.9"}, {"lat": "-14.4166667", "city": "Fulungwe", "lon": "23.6166667"}, {"lat": "-14.35", "city": "Fututu", "lon": "23.7166667"}, {"lat": "-14.4666667", "city": "Fwanganya", "lon": "22.0166667"}, {"lat": "-17.3166667", "city": "George", "lon": "24.7833333"}, {"lat": "-15.8333333", "city": "Gundungu", "lon": "23.85"}, {"lat": "-15.7333333", "city": "Heneya", "lon": "25.0333333"}, {"lat": "-13.9666667", "city": "Hoyoka", "lon": "24.0333333"}, {"lat": "-16.3", "city": "Ibolelo", "lon": "24.25"}, {"lat": "-14.8833333", "city": "Iboolokwa", "lon": "22.6166667"}, {"lat": "-15.1", "city": "Ibukwe", "lon": "22.9666667"}, {"lat": "-15.1166667", "city": "Ikabako", "lon": "23.3"}, {"lat": "-15.4666667", "city": "Ikakena", "lon": "23.15"}, {"lat": "-14.45", "city": "Ikandulu", "lon": "23.8166667"}, {"lat": "-14.4666667", "city": "Ikanjiwa", "lon": "23.8"}, {"lat": "-15.0833333", "city": "Ikasaya", "lon": "22.7166667"}, {"lat": "-15.0666667", "city": "Ikatulamwa", "lon": "22.9333333"}, {"lat": "-14.4666667", "city": "Ikulunga", "lon": "23.25"}, {"lat": "-16.2", "city": "Ikwe", "lon": "24.6333333"}, {"lat": "-17.3666667", "city": "Ikwinga", "lon": "24.1833333"}, {"lat": "-15.7833333", "city": "Ililonga", "lon": "23.1833333"}, {"lat": "-15.7666667", "city": "Iliombe", "lon": "23.7"}, {"lat": "-14.65", "city": "Ilopu", "lon": "23.1"}, {"lat": "-17.15", "city": "Iluando", "lon": "24.0333333"}, {"lat": "-17.15", "city": "Iluendo", "lon": "24.0333333"}, {"lat": "-15.05", "city": "Ilukala", "lon": "22.5166667"}, {"lat": "-14.6333333", "city": "Ilukena", "lon": "23.6833333"}, {"lat": "-16.1", "city": "Ilungangama", "lon": "22.5666667"}, {"lat": "-15.45", "city": "Ilungunga", "lon": "23.0333333"}, {"lat": "-15.75", "city": "Ilutake", "lon": "23.4666667"}, {"lat": "-14.9666667", "city": "Iluya", "lon": "22.9666667"}, {"lat": "-17.15", "city": "Ilwendo", "lon": "24.0333333"}, {"lat": "-15.3666667", "city": "Imaiayo", "lon": "23.7166667"}, {"lat": "-15.8333333", "city": "Imakanda", "lon": "23.8333333"}, {"lat": "-15.5833333", "city": "Imakando", "lon": "24.1833333"}, {"lat": "-15.2666667", "city": "Imakumbili", "lon": "23.4166667"}, {"lat": "-15.3", "city": "Imakumbiri", "lon": "23.0833333"}, {"lat": "-15.2333333", "city": "Imalenda", "lon": "22.7833333"}, {"lat": "-14.6166667", "city": "Imalomo", "lon": "23.25"}, {"lat": "-15.3833333", "city": "Imalyo Kuta", "lon": "23.7166667"}, {"lat": "-15.1666667", "city": "Imambo", "lon": "22.8833333"}, {"lat": "-15.3833333", "city": "Imamuna", "lon": "23.7166667"}, {"lat": "-15.4333333", "city": "Imanga", "lon": "23.0833333"}, {"lat": "-14.9", "city": "Imasiku", "lon": "23.8333333"}, {"lat": "-15.05", "city": "Imasikwana", "lon": "22.95"}, {"lat": "-16.5833333", "city": "Imatina", "lon": "23.5166667"}, {"lat": "-15.5833333", "city": "Imbowa", "lon": "22.9833333"}, {"lat": "-15.3833333", "city": "Imbubu", "lon": "22.6333333"}, {"lat": "-15.5666667", "city": "Imbutwama", "lon": "22.6333333"}, {"lat": "-14.3833333", "city": "Imbuwa", "lon": "23.2333333"}, {"lat": "-15.0666667", "city": "Imbwae", "lon": "22.9333333"}, {"lat": "-16.6833333", "city": "Imelenda", "lon": "24.2833333"}, {"lat": "-14.2", "city": "Imenda", "lon": "23.2"}, {"lat": "-17.2", "city": "Imilemo", "lon": "24.1166667"}, {"lat": "-16.6833333", "city": "Imilenda", "lon": "24.2833333"}, {"lat": "-16.0666667", "city": "Imilonga", "lon": "22.0333333"}, {"lat": "-15.7166667", "city": "Imonga", "lon": "23.15"}, {"lat": "-15.7166667", "city": "Imonga Nifale", "lon": "23.15"}, {"lat": "-15.5333333", "city": "Imukusi", "lon": "22.9666667"}, {"lat": "-15.95", "city": "Imusho", "lon": "24.0666667"}, {"lat": "-14.45", "city": "Imusunga", "lon": "23.8"}, {"lat": "-15.3166667", "city": "Imutonga", "lon": "22.9166667"}, {"lat": "-15.5833333", "city": "Imutongo", "lon": "22.9833333"}, {"lat": "-14.6333333", "city": "Imuwana", "lon": "22.8666667"}, {"lat": "-17.1833333", "city": "Imwaka", "lon": "24.8"}, {"lat": "-15.4166667", "city": "Imwangala", "lon": "23.0666667"}, {"lat": "-17.4833333", "city": "Imwiko's Kraal", "lon": "24.8833333"}, {"lat": "-14.9", "city": "Inambao", "lon": "23.0166667"}, {"lat": "-15.6333333", "city": "Indala", "lon": "23.3666667"}, {"lat": "-15.2333333", "city": "Indilonga", "lon": "22.9666667"}, {"lat": "-15.6833333", "city": "Indopu", "lon": "23.15"}, {"lat": "-15.3", "city": "Indusi", "lon": "22.7833333"}, {"lat": "-14.5333333", "city": "Ingina", "lon": "23.75"}, {"lat": "-15.9666667", "city": "Ingongolo", "lon": "23.05"}, {"lat": "-15.3833333", "city": "Ingumbwa", "lon": "23.1"}, {"lat": "-15.1333333", "city": "Inguu", "lon": "22.7333333"}, {"lat": "-15.2", "city": "Inguwe", "lon": "22.95"}, {"lat": "-17.4", "city": "Inubu", "lon": "24.8666667"}, {"lat": "-15.3166667", "city": "Inyamawina", "lon": "22.9166667"}, {"lat": "-15.25", "city": "Ishe Wambuto", "lon": "22.8833333"}, {"lat": "-16.3166667", "city": "Isibebo", "lon": "23.25"}, {"lat": "-15.2833333", "city": "Isikanda", "lon": "22.9166667"}, {"lat": "-16.3166667", "city": "Isilimwe", "lon": "23.1666667"}, {"lat": "-15.9333333", "city": "Itufa", "lon": "23.2833333"}, {"lat": "-17.0166667", "city": "Itungi", "lon": "24.0666667"}, {"lat": "-15.35", "city": "Itwi", "lon": "22.85"}, {"lat": "-16.6", "city": "Iyamba", "lon": "22.7"}, {"lat": "-15.75", "city": "Iyauluka", "lon": "23.1666667"}, {"lat": "-14.2166667", "city": "Jilowa", "lon": "24.95"}, {"lat": "-14.8166667", "city": "Jimwaya", "lon": "25.3"}, {"lat": "-14.7", "city": "Jito", "lon": "25.55"}, {"lat": "-17.2166667", "city": "Jolosi", "lon": "24.9166667"}, {"lat": "-13.9666667", "city": "Kababa", "lon": "23.1"}, {"lat": "-14.8333333", "city": "Kaba Hill", "lon": "23.6833333"}, {"lat": "-14.95", "city": "Kabaila", "lon": "24.0833333"}, {"lat": "-17.1166667", "city": "Kabale", "lon": "24.7166667"}, {"lat": "-17.1833333", "city": "Kabali", "lon": "24.6"}, {"lat": "-16.1", "city": "Kabalube", "lon": "22.8333333"}, {"lat": "-15.3333333", "city": "Kabanda", "lon": "24.6833333"}, {"lat": "-15.5166667", "city": "Kabanga", "lon": "23.1666667"}, {"lat": "-16.4333333", "city": "Kabango", "lon": "22.7666667"}, {"lat": "-13.95", "city": "Kabangu", "lon": "24.15"}, {"lat": "-13.95", "city": "Kabangu Kuta", "lon": "24.15"}, {"lat": "-14.9166667", "city": "Kabanje", "lon": "24.2666667"}, {"lat": "-16.3333333", "city": "Kabata", "lon": "25.0"}, {"lat": "-14.9666667", "city": "Kabela", "lon": "22.6"}, {"lat": "-15.9666667", "city": "Kabelamwanji", "lon": "22.1666667"}, {"lat": "-14.1166667", "city": "Kabeu", "lon": "22.8666667"}, {"lat": "-14.3166667", "city": "Kabila", "lon": "23.25"}, {"lat": "-14.7", "city": "Kabilamandi", "lon": "24.0"}, {"lat": "-14.7", "city": "Kabilamwandi", "lon": "24.0"}, {"lat": "-14.2666667", "city": "Kabimba", "lon": "24.8666667"}, {"lat": "-14.8666667", "city": "Kabiula", "lon": "24.7166667"}, {"lat": "-15.15", "city": "Kaboma", "lon": "22.75"}, {"lat": "-16.55", "city": "Kabondo", "lon": "24.95"}, {"lat": "-14.7166667", "city": "Kabota", "lon": "24.0"}, {"lat": "-15.55", "city": "Kabubi", "lon": "23.2833333"}, {"lat": "-15.4", "city": "Kabukushu", "lon": "22.8833333"}, {"lat": "-15.4333333", "city": "Kabulamakumba", "lon": "22.8833333"}, {"lat": "-14.3166667", "city": "Kabulwebulwa", "lon": "23.25"}, {"lat": "-14.25", "city": "Kabulwebulwe", "lon": "23.25"}, {"lat": "-15.3833333", "city": "Kabundula", "lon": "24.7166667"}, {"lat": "-14.7166667", "city": "Kabungo", "lon": "23.9833333"}, {"lat": "-15.2833333", "city": "Kabutu", "lon": "22.6333333"}, {"lat": "-14.1833333", "city": "Kabwebwe", "lon": "24.8833333"}, {"lat": "-15.1666667", "city": "Kachaba", "lon": "22.4166667"}, {"lat": "-14.85", "city": "Kachai", "lon": "23.75"}, {"lat": "-14.0833333", "city": "Kachaka", "lon": "23.2"}, {"lat": "-14.0", "city": "Kachakana", "lon": "22.25"}, {"lat": "-14.95", "city": "Kachamisa", "lon": "22.0166667"}, {"lat": "-14.5833333", "city": "Kachana", "lon": "24.2833333"}, {"lat": "-14.8333333", "city": "Kachanana", "lon": "22.6"}, {"lat": "-15.0", "city": "Kachapulula", "lon": "22.6"}, {"lat": "-15.3", "city": "Kachembele", "lon": "24.1333333"}, {"lat": "-14.2166667", "city": "Kachika", "lon": "23.0333333"}, {"lat": "-14.5666667", "city": "Kachoncho", "lon": "24.95"}, {"lat": "-14.7166667", "city": "Kacungu", "lon": "23.9833333"}, {"lat": "-15.75", "city": "Kaembi", "lon": "22.55"}, {"lat": "-16.9833333", "city": "Kafaya", "lon": "24.7"}, {"lat": "-13.9833333", "city": "Kafolola", "lon": "23.7833333"}, {"lat": "-13.95", "city": "Kafololo", "lon": "23.9"}, {"lat": "-14.3333333", "city": "Kafukafuka", "lon": "22.05"}, {"lat": "-16.0", "city": "Kafuko", "lon": "22.25"}, {"lat": "-14.05", "city": "Kafukufuku", "lon": "23.6166667"}, {"lat": "-15.3166667", "city": "Kafuku", "lon": "22.6666667"}, {"lat": "-15.0833333", "city": "Kafula", "lon": "24.0666667"}, {"lat": "-14.9833333", "city": "Kafumayeke", "lon": "23.2166667"}, {"lat": "-16.25", "city": "Kafumbo", "lon": "24.9"}, {"lat": "-15.3", "city": "Kafupa", "lon": "22.6833333"}, {"lat": "-15.0666667", "city": "Kahare", "lon": "25.2666667"}, {"lat": "-15.0666667", "city": "Kahari", "lon": "25.2666667"}, {"lat": "-14.0666667", "city": "Kahema", "lon": "22.8166667"}, {"lat": "-14.95", "city": "Kahemba", "lon": "25.2"}, {"lat": "-15.1166667", "city": "Kahikila", "lon": "22.2666667"}, {"lat": "-14.6", "city": "Kahilu", "lon": "23.8833333"}, {"lat": "-16.4166667", "city": "Kahole", "lon": "24.4"}, {"lat": "-15.3833333", "city": "Kahonge", "lon": "22.5833333"}, {"lat": "-15.7", "city": "Kahungi", "lon": "23.4833333"}, {"lat": "-14.9666667", "city": "Kaimba", "lon": "24.0166667"}, {"lat": "-14.0333333", "city": "Kaimbu", "lon": "22.8"}, {"lat": "-14.1333333", "city": "Kaingo", "lon": "23.1"}, {"lat": "-15.2", "city": "Kaisinu", "lon": "23.3166667"}, {"lat": "-15.9", "city": "Kaitwa", "lon": "23.15"}, {"lat": "-16.3333333", "city": "Kakadina", "lon": "22.6666667"}, {"lat": "-15.0833333", "city": "Kakanda", "lon": "22.9333333"}, {"lat": "-14.7166667", "city": "Kakashe", "lon": "24.8666667"}, {"lat": "-14.45", "city": "Kakata", "lon": "23.6166667"}, {"lat": "-15.5", "city": "Kakawana", "lon": "22.95"}, {"lat": "-16.0333333", "city": "Kakene", "lon": "23.2833333"}, {"lat": "-15.1833333", "city": "Kakenenwa", "lon": "22.85"}, {"lat": "-15.5333333", "city": "Kaketa", "lon": "22.4666667"}, {"lat": "-14.9833333", "city": "Kakeya", "lon": "22.3666667"}, {"lat": "-15.0666667", "city": "Kakinda", "lon": "24.85"}, {"lat": "-16.2166667", "city": "Kakolo", "lon": "24.2333333"}, {"lat": "-15.15", "city": "Kakolokolo", "lon": "22.75"}, {"lat": "-14.3666667", "city": "Kakoma", "lon": "23.1833333"}, {"lat": "-13.9833333", "city": "Kakompe", "lon": "24.0666667"}, {"lat": "-16.1166667", "city": "Kakondo", "lon": "24.8666667"}, {"lat": "-15.4", "city": "Kakubi", "lon": "23.3833333"}, {"lat": "-15.1", "city": "Kakula", "lon": "22.2666667"}, {"lat": "-15.6", "city": "Kakulubelwa", "lon": "23.2333333"}, {"lat": "-14.1666667", "city": "Kakulunda", "lon": "23.15"}, {"lat": "-14.1666667", "city": "Kakulunde", "lon": "23.15"}, {"lat": "-14.4833333", "city": "Kakumba", "lon": "23.8833333"}, {"lat": "-14.7333333", "city": "Kakumbi", "lon": "24.8833333"}, {"lat": "-14.45", "city": "Kakundu", "lon": "22.1"}, {"lat": "-14.9166667", "city": "Kakungu", "lon": "24.1333333"}, {"lat": "-14.4166667", "city": "Kakunyungu", "lon": "24.1666667"}, {"lat": "-14.8666667", "city": "Kakupa", "lon": "23.8833333"}, {"lat": "-15.4666667", "city": "Kakusanungu", "lon": "23.1333333"}, {"lat": "-14.7166667", "city": "Kakuya", "lon": "22.4833333"}, {"lat": "-14.8833333", "city": "Kakwa", "lon": "24.15"}, {"lat": "-15.4666667", "city": "Kakwete", "lon": "23.05"}, {"lat": "-14.9666667", "city": "Kalabo", "lon": "22.6833333"}, {"lat": "-15.0", "city": "Kalaluka", "lon": "22.7666667"}, {"lat": "-16.85", "city": "Kalamba", "lon": "25.1166667"}, {"lat": "-14.2666667", "city": "Kalangwa", "lon": "23.2"}, {"lat": "-17.4833333", "city": "Kalanja", "lon": "24.6666667"}, {"lat": "-15.5", "city": "Kalayuka", "lon": "23.1666667"}, {"lat": "-15.6166667", "city": "Kalela", "lon": "22.7"}, {"lat": "-14.4666667", "city": "Kalelema", "lon": "23.6"}, {"lat": "-14.5666667", "city": "Kalema", "lon": "24.9166667"}, {"lat": "-16.8666667", "city": "Kalemba", "lon": "25.1166667"}, {"lat": "-15.9666667", "city": "Kalembela", "lon": "22.15"}, {"lat": "-15.2166667", "city": "Kalemwa", "lon": "22.8666667"}, {"lat": "-14.3", "city": "Kalenga", "lon": "23.4166667"}, {"lat": "-14.7166667", "city": "Kalenge", "lon": "24.9166667"}, {"lat": "-14.15", "city": "Kalepa", "lon": "24.8333333"}, {"lat": "-14.1166667", "city": "Kalezhi", "lon": "22.8833333"}, {"lat": "-14.6833333", "city": "Kalezi", "lon": "24.85"}, {"lat": "-14.3", "city": "Kaliamba", "lon": "23.25"}, {"lat": "-14.9", "city": "Kalihoke", "lon": "22.4333333"}, {"lat": "-17.3833333", "city": "Kalikalika", "lon": "24.5"}, {"lat": "-14.9", "city": "Kaliki", "lon": "24.0333333"}, {"lat": "-15.7333333", "city": "Kalilakwenda", "lon": "25.05"}, {"lat": "-15.55", "city": "Kalilengi", "lon": "24.8"}, {"lat": "-15.2666667", "city": "Kalima", "lon": "23.1"}, {"lat": "-15.15", "city": "Kalimanamunwa", "lon": "24.1"}, {"lat": "-14.85", "city": "Kalimbwe", "lon": "22.2166667"}, {"lat": "-16.1", "city": "Kalimukwa", "lon": "24.1"}, {"lat": "-15.4", "city": "Kalingolombe", "lon": "22.6833333"}, {"lat": "-13.9833333", "city": "Kaliule", "lon": "23.05"}, {"lat": "-17.05", "city": "Kalobolelwa", "lon": "23.9833333"}, {"lat": "-14.9833333", "city": "Kalonga", "lon": "23.0"}, {"lat": "-16.2333333", "city": "Kalongola", "lon": "23.25"}, {"lat": "-14.8333333", "city": "Kalowa", "lon": "25.0166667"}, {"lat": "-15.05", "city": "Kaluangu", "lon": "24.45"}, {"lat": "-15.1666667", "city": "Kalubila", "lon": "24.5833333"}, {"lat": "-15.3333333", "city": "Kalufamutumwa", "lon": "23.4833333"}, {"lat": "-14.0666667", "city": "Kalukango", "lon": "23.2166667"}, {"lat": "-16.7166667", "city": "Kalukwa", "lon": "25.0333333"}, {"lat": "-17.2166667", "city": "Kalumba", "lon": "24.8666667"}, {"lat": "-16.7666667", "city": "Kalumbwa", "lon": "25.0"}, {"lat": "-14.7666667", "city": "Kalumbwe", "lon": "22.4166667"}, {"lat": "-14.7666667", "city": "Kalunda", "lon": "23.8"}, {"lat": "-17.25", "city": "Kalundu", "lon": "24.9166667"}, {"lat": "-15.0833333", "city": "Kalundula", "lon": "25.3"}, {"lat": "-14.95", "city": "Kalundumuna", "lon": "23.2333333"}, {"lat": "-14.35", "city": "Kalunga", "lon": "23.6166667"}, {"lat": "-14.4833333", "city": "Kalunjele", "lon": "23.9833333"}, {"lat": "-14.6333333", "city": "Kalupeleka", "lon": "23.9333333"}, {"lat": "-14.85", "city": "Kalupenda", "lon": "24.1"}, {"lat": "-15.4666667", "city": "Kaluwe", "lon": "23.1333333"}, {"lat": "-15.0", "city": "Kalwizhi", "lon": "22.7"}, {"lat": "-14.1333333", "city": "Kalwizi", "lon": "22.8833333"}, {"lat": "-15.15", "city": "Kalyamba", "lon": "24.35"}, {"lat": "-14.8166667", "city": "Kalyangu", "lon": "23.7166667"}, {"lat": "-14.25", "city": "Kamacha", "lon": "23.4166667"}, {"lat": "-15.1666667", "city": "Kamaka", "lon": "24.7"}, {"lat": "-15.2666667", "city": "Kama", "lon": "22.9166667"}, {"lat": "-15.95", "city": "Kamamba", "lon": "24.0333333"}, {"lat": "-15.2666667", "city": "Kamandisa", "lon": "23.0333333"}, {"lat": "-16.3166667", "city": "Kamanga", "lon": "24.8833333"}, {"lat": "-14.3666667", "city": "Kamanya", "lon": "24.6833333"}, {"lat": "-15.5833333", "city": "Kamatonga", "lon": "22.65"}, {"lat": "-14.65", "city": "Kambaulunga", "lon": "23.5"}, {"lat": "-15.5333333", "city": "Kambaye", "lon": "23.1166667"}, {"lat": "-15.0833333", "city": "Kambayo", "lon": "23.25"}, {"lat": "-14.1833333", "city": "Kambeli", "lon": "24.4833333"}, {"lat": "-16.9166667", "city": "Kambi", "lon": "24.8"}, {"lat": "-14.2333333", "city": "Kambilima", "lon": "23.25"}, {"lat": "-14.0333333", "city": "Kambimba", "lon": "24.7166667"}, {"lat": "-14.65", "city": "Kambingo", "lon": "25.4166667"}, {"lat": "-16.3333333", "city": "Kambinja", "lon": "25.0"}, {"lat": "-14.2833333", "city": "Kambita", "lon": "23.05"}, {"lat": "-17.4833333", "city": "Kambola", "lon": "24.8833333"}, {"lat": "-14.0166667", "city": "Kambole", "lon": "24.0166667"}, {"lat": "-17.4833333", "city": "Kambolo", "lon": "24.9166667"}, {"lat": "-14.8", "city": "Kambongo", "lon": "23.8166667"}, {"lat": "-14.8833333", "city": "Kambonyi", "lon": "24.7833333"}, {"lat": "-14.6833333", "city": "Kambotwe", "lon": "25.6"}, {"lat": "-16.4166667", "city": "Kamboyi", "lon": "25.1166667"}, {"lat": "-15.8333333", "city": "Kambungo", "lon": "23.8333333"}, {"lat": "-14.8666667", "city": "Kambusi", "lon": "24.7333333"}, {"lat": "-14.4", "city": "Kambuze", "lon": "23.7"}, {"lat": "-14.75", "city": "Kambwanga", "lon": "23.8666667"}, {"lat": "-14.05", "city": "Kambwata", "lon": "23.7166667"}, {"lat": "-14.0166667", "city": "Kambwembwe", "lon": "24.5833333"}, {"lat": "-14.75", "city": "Kambyasa", "lon": "23.8666667"}, {"lat": "-14.0166667", "city": "Kamenga", "lon": "22.3333333"}, {"lat": "-14.0666667", "city": "Kamesha", "lon": "23.8666667"}, {"lat": "-15.3166667", "city": "Kameya", "lon": "22.3833333"}, {"lat": "-15.3666667", "city": "Kamilatu", "lon": "22.6666667"}, {"lat": "-14.1333333", "city": "Kamilende", "lon": "23.5666667"}, {"lat": "-14.1333333", "city": "Kamilende Kuta", "lon": "23.5666667"}, {"lat": "-14.1333333", "city": "Kamilenge", "lon": "23.5666667"}, {"lat": "-16.1833333", "city": "Kamina", "lon": "25.3166667"}, {"lat": "-17.0166667", "city": "Kaminyane", "lon": "25.15"}, {"lat": "-15.4666667", "city": "Kamishele", "lon": "23.2666667"}, {"lat": "-17.0333333", "city": "Kamitondo", "lon": "24.6833333"}, {"lat": "-15.3166667", "city": "Kampende", "lon": "24.1666667"}, {"lat": "-14.5333333", "city": "Kamuka", "lon": "24.2"}, {"lat": "-14.5166667", "city": "Kamulu", "lon": "22.2666667"}, {"lat": "-15.3333333", "city": "Kamulumbi", "lon": "24.35"}, {"lat": "-15.8333333", "city": "Kamuma", "lon": "22.6833333"}, {"lat": "-14.4333333", "city": "Kamunwa", "lon": "23.5166667"}, {"lat": "-14.3666667", "city": "Kamunya", "lon": "24.6833333"}, {"lat": "-14.2333333", "city": "Kamuti", "lon": "22.0333333"}, {"lat": "-14.35", "city": "Kamuti Malilo", "lon": "23.0166667"}, {"lat": "-16.3", "city": "Kamutumwa", "lon": "23.2666667"}, {"lat": "-15.3333333", "city": "Kamwalie", "lon": "23.1833333"}, {"lat": "-14.3333333", "city": "Kamwanya", "lon": "22.75"}, {"lat": "-15.55", "city": "Kamwatamwata", "lon": "24.85"}, {"lat": "-14.9166667", "city": "Kanala", "lon": "23.9666667"}, {"lat": "-16.1333333", "city": "Kanati", "lon": "23.4333333"}, {"lat": "-15.0166667", "city": "Kanatu", "lon": "24.4"}, {"lat": "-14.55", "city": "Kandabanyama", "lon": "24.7"}, {"lat": "-15.0833333", "city": "Kanda", "lon": "22.9333333"}, {"lat": "-14.8166667", "city": "Kandala", "lon": "22.45"}, {"lat": "-15.8166667", "city": "Kandama", "lon": "23.8"}, {"lat": "-14.65", "city": "Kandendu", "lon": "23.9333333"}, {"lat": "-15.7333333", "city": "Kandepu", "lon": "23.6666667"}, {"lat": "-15.6333333", "city": "Kandepwe", "lon": "23.5833333"}, {"lat": "-15.5", "city": "Kandimbili", "lon": "24.6666667"}, {"lat": "-14.8833333", "city": "Kandindima", "lon": "25.3"}, {"lat": "-14.4666667", "city": "Kandombwe", "lon": "23.7"}, {"lat": "-14.4333333", "city": "Kandoyo", "lon": "25.0"}, {"lat": "-14.6333333", "city": "Kandumba", "lon": "22.9166667"}, {"lat": "-14.6333333", "city": "Kandumbwa", "lon": "22.9"}, {"lat": "-14.4", "city": "Kandungu", "lon": "23.3166667"}, {"lat": "-16.05", "city": "Kanenga", "lon": "23.9"}, {"lat": "-17.6", "city": "Kangabwe", "lon": "23.3833333"}, {"lat": "-15.4833333", "city": "Kanga", "lon": "22.95"}, {"lat": "-15.9333333", "city": "Kangamba", "lon": "22.0333333"}, {"lat": "-15.7", "city": "Kangambe", "lon": "22.4666667"}, {"lat": "-14.7166667", "city": "Kanganda", "lon": "22.5166667"}, {"lat": "-15.8833333", "city": "Kangania", "lon": "22.6333333"}, {"lat": "-14.4166667", "city": "Kanganyama", "lon": "23.6166667"}, {"lat": "-16.35", "city": "Kangenju", "lon": "22.2166667"}, {"lat": "-14.4333333", "city": "Kangete", "lon": "24.9833333"}, {"lat": "-15.4833333", "city": "Kangila", "lon": "23.0333333"}, {"lat": "-15.2", "city": "Kangimbu", "lon": "22.7833333"}, {"lat": "-15.6", "city": "Kangina", "lon": "23.7"}, {"lat": "-15.9166667", "city": "Kangolo", "lon": "23.0666667"}, {"lat": "-14.0333333", "city": "Kangombe-Ka-Lilomba", "lon": "23.65"}, {"lat": "-13.9833333", "city": "Kangombe-ka-Maha", "lon": "23.9166667"}, {"lat": "-14.0333333", "city": "Kangombe", "lon": "23.65"}, {"lat": "-16.75", "city": "Kangome", "lon": "22.4166667"}, {"lat": "-14.3166667", "city": "Kangongu", "lon": "23.25"}, {"lat": "-14.0333333", "city": "Kangongwe", "lon": "22.7666667"}, {"lat": "-14.5666667", "city": "Kangubu", "lon": "23.8333333"}, {"lat": "-17.1666667", "city": "Kangululu", "lon": "22.8"}, {"lat": "-15.4833333", "city": "Kangumu", "lon": "22.8666667"}, {"lat": "-13.9833333", "city": "Kangunge", "lon": "22.7666667"}, {"lat": "-16.85", "city": "Kangunungunu", "lon": "22.8666667"}, {"lat": "-15.35", "city": "Kangunya", "lon": "22.9333333"}, {"lat": "-14.0166667", "city": "Kanguya", "lon": "23.85"}, {"lat": "-14.1333333", "city": "Kangwanda", "lon": "22.8833333"}, {"lat": "-14.6166667", "city": "Kangwangu", "lon": "24.3833333"}, {"lat": "-14.4", "city": "Kanika", "lon": "23.6166667"}, {"lat": "-14.8833333", "city": "Kanjengo", "lon": "23.8666667"}, {"lat": "-16.4", "city": "Kanjengu", "lon": "22.1833333"}, {"lat": "-14.45", "city": "Kanjumbo", "lon": "23.95"}, {"lat": "-14.4833333", "city": "Kankomba", "lon": "23.7666667"}, {"lat": "-14.5166667", "city": "Kankombwe", "lon": "23.8833333"}, {"lat": "-14.85", "city": "Kankoromwena", "lon": "25.1166667"}, {"lat": "-14.4333333", "city": "Kankungwa", "lon": "25.0"}, {"lat": "-17.45", "city": "Kankuwa", "lon": "24.4333333"}, {"lat": "-14.2833333", "city": "Kankwilimba", "lon": "23.25"}, {"lat": "-13.9833333", "city": "Kanoka", "lon": "22.7666667"}, {"lat": "-14.8833333", "city": "Kanona", "lon": "24.0833333"}, {"lat": "-16.6666667", "city": "Kanono", "lon": "25.05"}, {"lat": "-15.4333333", "city": "Kansombwe", "lon": "23.4833333"}, {"lat": "-15.15", "city": "Kanuka", "lon": "22.8333333"}, {"lat": "-16.8", "city": "Kanununu", "lon": "22.95"}, {"lat": "-15.3", "city": "Kanwa", "lon": "24.2"}, {"lat": "-16.2166667", "city": "Kanyabanyama", "lon": "24.2166667"}, {"lat": "-14.65", "city": "Kanyala", "lon": "23.1"}, {"lat": "-14.55", "city": "Kanyamba", "lon": "22.7"}, {"lat": "-14.25", "city": "Kanyange", "lon": "24.85"}, {"lat": "-15.4333333", "city": "Kanyata", "lon": "23.6333333"}, {"lat": "-17.05", "city": "Kanyemba", "lon": "24.8666667"}, {"lat": "-17.2", "city": "Kanyemvu", "lon": "24.9166667"}, {"lat": "-16.9666667", "city": "Kanyeu", "lon": "24.7"}, {"lat": "-15.1", "city": "Kanyimbwa", "lon": "25.2666667"}, {"lat": "-14.7833333", "city": "Kaoma", "lon": "24.8"}, {"lat": "-17.2333333", "city": "Kaonde", "lon": "23.05"}, {"lat": "-14.9", "city": "Kaongolo", "lon": "22.6333333"}, {"lat": "-15.4666667", "city": "Kapalala", "lon": "24.1166667"}, {"lat": "-14.45", "city": "Kapalo", "lon": "23.6666667"}, {"lat": "-15.7333333", "city": "Kapalu", "lon": "23.4833333"}, {"lat": "-14.8666667", "city": "Kapanda", "lon": "22.2833333"}, {"lat": "-14.9833333", "city": "Kapandula", "lon": "25.2333333"}, {"lat": "-15.2", "city": "Kapandulula", "lon": "23.3"}, {"lat": "-15.6", "city": "Kapanga", "lon": "22.9833333"}, {"lat": "-14.15", "city": "Kapata", "lon": "24.7166667"}, {"lat": "-16.8166667", "city": "Kapatama", "lon": "25.1166667"}, {"lat": "-16.85", "city": "Kapau", "lon": "23.7333333"}, {"lat": "-14.3", "city": "Kapazhi", "lon": "23.0833333"}, {"lat": "-14.4666667", "city": "Kapeku", "lon": "23.9166667"}, {"lat": "-17.0666667", "city": "Kapelabulungu", "lon": "24.6666667"}, {"lat": "-15.8833333", "city": "Kapelengi", "lon": "23.65"}, {"lat": "-15.45", "city": "Kapelwa", "lon": "23.3833333"}, {"lat": "-14.0166667", "city": "Kapemba", "lon": "24.0166667"}, {"lat": "-14.15", "city": "Kapembe", "lon": "23.05"}, {"lat": "-15.4", "city": "Kapende", "lon": "23.6166667"}, {"lat": "-15.6166667", "city": "Kapepiso", "lon": "22.85"}, {"lat": "-15.15", "city": "Kapeshi", "lon": "24.6833333"}, {"lat": "-14.9", "city": "Kapimpa", "lon": "25.0333333"}, {"lat": "-15.4666667", "city": "Kapindula", "lon": "24.8"}, {"lat": "-16.1833333", "city": "Kapiololo", "lon": "24.25"}, {"lat": "-14.6833333", "city": "Kapishi", "lon": "23.95"}, {"lat": "-14.6166667", "city": "Kapita", "lon": "23.0666667"}, {"lat": "-14.0", "city": "Kapitango", "lon": "22.9166667"}, {"lat": "-15.25", "city": "Kapoba", "lon": "22.6666667"}, {"lat": "-14.7", "city": "Kapoko", "lon": "24.8333333"}, {"lat": "-14.4833333", "city": "Kapondola", "lon": "23.8166667"}, {"lat": "-16.1", "city": "Kaponge", "lon": "23.4333333"}, {"lat": "-13.9166667", "city": "Kaposhi", "lon": "24.1833333"}, {"lat": "-15.1333333", "city": "Kapota", "lon": "23.1833333"}, {"lat": "-15.6333333", "city": "Kapote", "lon": "24.7666667"}, {"lat": "-15.35", "city": "Kapowa", "lon": "22.7666667"}, {"lat": "-14.8166667", "city": "Kapui", "lon": "23.7666667"}, {"lat": "-15.55", "city": "Kapuka", "lon": "23.7333333"}, {"lat": "-15.3833333", "city": "Kapula", "lon": "22.8666667"}, {"lat": "-16.6666667", "city": "Kapulangu", "lon": "24.8666667"}, {"lat": "-15.3833333", "city": "Kapule Musalikata", "lon": "22.8833333"}, {"lat": "-14.2333333", "city": "Kapultete", "lon": "24.1166667"}, {"lat": "-16.4333333", "city": "Kapuma", "lon": "24.9666667"}, {"lat": "-15.3166667", "city": "Kapumbu", "lon": "22.45"}, {"lat": "-15.3833333", "city": "Kapumbula", "lon": "23.6833333"}, {"lat": "-15.4166667", "city": "Kapunda", "lon": "23.5833333"}, {"lat": "-14.5333333", "city": "Kapungu", "lon": "24.9833333"}, {"lat": "-13.7833333", "city": "Kapupa", "lon": "22.1"}, {"lat": "-14.6333333", "city": "Kapusa", "lon": "22.9666667"}, {"lat": "-15.35", "city": "Kapusu", "lon": "24.15"}, {"lat": "-15.0166667", "city": "Kaputi", "lon": "23.25"}, {"lat": "-14.2333333", "city": "Kapweletete", "lon": "24.1166667"}, {"lat": "-14.8333333", "city": "Kapwengo", "lon": "24.3833333"}, {"lat": "-14.8666667", "city": "Kapyasa", "lon": "24.9"}, {"lat": "-14.0333333", "city": "Kasabi", "lon": "22.3333333"}, {"lat": "-13.9833333", "city": "Kasaku", "lon": "24.1"}, {"lat": "-14.6166667", "city": "Kasalumuna", "lon": "23.0166667"}, {"lat": "-17.4", "city": "Kasamu", "lon": "24.7166667"}, {"lat": "-15.5166667", "city": "Kasanga", "lon": "22.95"}, {"lat": "-14.5", "city": "Kasembe", "lon": "23.5833333"}, {"lat": "-14.6333333", "city": "Kasempa", "lon": "24.35"}, {"lat": "-14.0166667", "city": "Kasenda", "lon": "22.9166667"}, {"lat": "-14.6333333", "city": "Kasenya", "lon": "24.4333333"}, {"lat": "-14.5833333", "city": "Kashadola", "lon": "24.6833333"}, {"lat": "-14.55", "city": "Kashala", "lon": "23.0666667"}, {"lat": "-14.4", "city": "Kashandi", "lon": "23.3"}, {"lat": "-15.1333333", "city": "Kashandola", "lon": "24.85"}, {"lat": "-14.5", "city": "Kashanja", "lon": "23.4333333"}, {"lat": "-17.4666667", "city": "Kasharo", "lon": "23.1666667"}, {"lat": "-14.75", "city": "Kashatoka", "lon": "23.9833333"}, {"lat": "-14.8", "city": "Kashatuka", "lon": "23.7"}, {"lat": "-15.65", "city": "Kasheba", "lon": "23.6"}, {"lat": "-13.75", "city": "Kasheke", "lon": "22.1333333"}, {"lat": "-15.3", "city": "Kashembe", "lon": "23.1666667"}, {"lat": "-14.1333333", "city": "Kashepwa", "lon": "23.5666667"}, {"lat": "-15.3", "city": "Kashimani", "lon": "22.8333333"}, {"lat": "-15.3333333", "city": "Kashimba", "lon": "22.6166667"}, {"lat": "-15.5", "city": "Kashimbi", "lon": "23.1333333"}, {"lat": "-14.45", "city": "Kashina", "lon": "24.0666667"}, {"lat": "-15.0", "city": "Kashinga", "lon": "25.2166667"}, {"lat": "-15.2", "city": "Kashingili", "lon": "24.0666667"}, {"lat": "-14.0333333", "city": "Kashitiko", "lon": "24.05"}, {"lat": "-16.9333333", "city": "Kashoka", "lon": "23.6166667"}, {"lat": "-16.9333333", "city": "Kashoke", "lon": "23.6166667"}, {"lat": "-15.0", "city": "Kashonka", "lon": "24.85"}, {"lat": "-14.15", "city": "Kashuluki", "lon": "23.55"}, {"lat": "-14.4", "city": "Kashushu", "lon": "23.25"}, {"lat": "-15.1166667", "city": "Kasikasika", "lon": "23.1833333"}, {"lat": "-14.1833333", "city": "Kasimba", "lon": "24.8833333"}, {"lat": "-14.1833333", "city": "Kasimba Kuta", "lon": "24.8833333"}, {"lat": "-15.9666667", "city": "Kasito", "lon": "23.9333333"}, {"lat": "-14.1666667", "city": "Kasoka", "lon": "23.0666667"}, {"lat": "-14.5833333", "city": "Kasonda", "lon": "24.9"}, {"lat": "-15.5666667", "city": "Kasongo", "lon": "22.6"}, {"lat": "-14.2166667", "city": "Kasowa", "lon": "23.0166667"}, {"lat": "-15.2", "city": "Kasuka", "lon": "23.1833333"}, {"lat": "-14.1", "city": "Kasuku", "lon": "24.8166667"}, {"lat": "-15.4333333", "city": "Kasumbi", "lon": "22.7666667"}, {"lat": "-14.1833333", "city": "Kasumpa", "lon": "23.4166667"}, {"lat": "-14.1333333", "city": "Kasupa", "lon": "23.0666667"}, {"lat": "-15.4", "city": "Kataba", "lon": "23.4"}, {"lat": "-15.3666667", "city": "Katako", "lon": "24.9"}, {"lat": "-16.7", "city": "Katakula", "lon": "24.7666667"}, {"lat": "-15.4166667", "city": "Katama", "lon": "23.0833333"}, {"lat": "-15.15", "city": "Katambo", "lon": "23.2166667"}, {"lat": "-14.0166667", "city": "Katampula", "lon": "23.95"}, {"lat": "-16.9", "city": "Katanamina", "lon": "24.85"}, {"lat": "-15.8833333", "city": "Katanda", "lon": "25.1833333"}, {"lat": "-16.1833333", "city": "Katanekwa", "lon": "23.35"}, {"lat": "-14.8833333", "city": "Katangali", "lon": "22.25"}, {"lat": "-14.6", "city": "Katangu", "lon": "24.2666667"}, {"lat": "-14.1666667", "city": "Katanya", "lon": "24.8"}, {"lat": "-14.9666667", "city": "Katasha", "lon": "25.25"}, {"lat": "-15.2166667", "city": "Kataya", "lon": "22.7833333"}, {"lat": "-14.7", "city": "Kateke", "lon": "24.8666667"}, {"lat": "-14.1666667", "city": "Kateleka", "lon": "24.9166667"}, {"lat": "-17.2166667", "city": "Katema", "lon": "24.65"}, {"lat": "-15.6166667", "city": "Katembo", "lon": "23.0"}, {"lat": "-14.85", "city": "Katembwano", "lon": "23.8666667"}, {"lat": "-15.45", "city": "Katenekwa", "lon": "23.6166667"}, {"lat": "-14.1", "city": "Katenga", "lon": "22.9333333"}, {"lat": "-14.8333333", "city": "Katengo", "lon": "24.2166667"}, {"lat": "-15.5166667", "city": "Katete", "lon": "22.8"}, {"lat": "-14.8833333", "city": "Katiata", "lon": "22.75"}, {"lat": "-16.0333333", "city": "Katiba", "lon": "22.1833333"}, {"lat": "-14.1", "city": "Katikumbula", "lon": "22.7666667"}, {"lat": "-17.4666667", "city": "Katima Molilo", "lon": "24.2166667"}, {"lat": "-17.4666667", "city": "Katima Mulilo", "lon": "24.2166667"}, {"lat": "-14.6", "city": "Katita", "lon": "23.6333333"}, {"lat": "-14.5666667", "city": "Katolo", "lon": "24.9333333"}, {"lat": "-15.2166667", "city": "Katonga", "lon": "22.8666667"}, {"lat": "-17.4666667", "city": "Katonga Kuta", "lon": "24.3833333"}, {"lat": "-14.5", "city": "Katongo", "lon": "23.7333333"}, {"lat": "-13.9333333", "city": "Katota", "lon": "24.15"}, {"lat": "-15.45", "city": "Katoti", "lon": "23.5166667"}, {"lat": "-14.45", "city": "Katotola", "lon": "24.0"}, {"lat": "-14.7833333", "city": "Katukula", "lon": "24.8666667"}, {"lat": "-14.4833333", "city": "Katumba", "lon": "23.8833333"}, {"lat": "-15.4833333", "city": "Katumwa", "lon": "23.15"}, {"lat": "-17.4166667", "city": "Katundu", "lon": "24.6666667"}, {"lat": "-15.45", "city": "Katungu", "lon": "22.8"}, {"lat": "-15.1666667", "city": "Katupisha", "lon": "24.6666667"}, {"lat": "-16.1833333", "city": "Katuse", "lon": "23.05"}, {"lat": "-15.2166667", "city": "Katusi", "lon": "23.05"}, {"lat": "-17.4666667", "city": "Katwala", "lon": "24.2833333"}, {"lat": "-14.0166667", "city": "Katwikambulu", "lon": "22.7166667"}, {"lat": "-15.3333333", "city": "Kaula", "lon": "22.7333333"}, {"lat": "-15.7333333", "city": "Kaulu", "lon": "23.5333333"}, {"lat": "-14.45", "city": "Kaumba", "lon": "23.6666667"}, {"lat": "-14.9", "city": "Kaunda", "lon": "25.0833333"}, {"lat": "-15.3333333", "city": "Kaundu", "lon": "22.5"}, {"lat": "-14.4", "city": "Kaundula", "lon": "23.2333333"}, {"lat": "-15.7333333", "city": "Kaunga", "lon": "23.55"}, {"lat": "-16.9666667", "city": "Kaungo", "lon": "22.6333333"}, {"lat": "-14.9", "city": "Kausha", "lon": "25.3"}, {"lat": "-14.75", "city": "Kaushenda", "lon": "24.6833333"}, {"lat": "-14.05", "city": "Kauwala", "lon": "22.9166667"}, {"lat": "-14.0166667", "city": "Kavatula", "lon": "22.2666667"}, {"lat": "-14.2833333", "city": "Kavili", "lon": "23.1"}, {"lat": "-14.9", "city": "Kavungu", "lon": "22.6833333"}, {"lat": "-14.6833333", "city": "Kawaile", "lon": "25.3333333"}, {"lat": "-15.4", "city": "Kawalelo", "lon": "23.6166667"}, {"lat": "-16.85", "city": "Kawana", "lon": "23.0333333"}, {"lat": "-14.8833333", "city": "Kawanda", "lon": "24.9"}, {"lat": "-14.4666667", "city": "Kawanga", "lon": "23.7"}, {"lat": "-14.0833333", "city": "Kawawa", "lon": "23.0833333"}, {"lat": "-14.4833333", "city": "Kawaya", "lon": "23.2333333"}, {"lat": "-13.9", "city": "Kawele", "lon": "22.6666667"}, {"lat": "-15.0833333", "city": "Kawende", "lon": "23.8833333"}, {"lat": "-14.1", "city": "Kawenya", "lon": "23.8333333"}, {"lat": "-14.9666667", "city": "Kawesha", "lon": "24.1333333"}, {"lat": "-15.1666667", "city": "Kawina", "lon": "22.95"}, {"lat": "-14.35", "city": "Kawisha", "lon": "23.6333333"}, {"lat": "-15.45", "city": "Kayala", "lon": "23.1333333"}, {"lat": "-15.0666667", "city": "Kayama", "lon": "22.3666667"}, {"lat": "-15.1333333", "city": "Kayamba", "lon": "23.3333333"}, {"lat": "-15.5833333", "city": "Kayambi", "lon": "24.85"}, {"lat": "-13.9666667", "city": "Kayambila", "lon": "23.9333333"}, {"lat": "-15.0166667", "city": "Kayanga", "lon": "22.7"}, {"lat": "-15.0166667", "city": "Kayatwa", "lon": "22.7"}, {"lat": "-14.4666667", "city": "Kayawe", "lon": "22.1166667"}, {"lat": "-16.9666667", "city": "Kayekezelo", "lon": "23.35"}, {"lat": "-14.8833333", "city": "Kayelu", "lon": "24.5666667"}, {"lat": "-16.0", "city": "Kayitwa", "lon": "23.2166667"}, {"lat": "-14.1166667", "city": "Kayoka", "lon": "22.3833333"}, {"lat": "-16.6666667", "city": "Kayo", "lon": "22.8666667"}, {"lat": "-14.9", "city": "Kayokomona", "lon": "25.3166667"}, {"lat": "-14.0", "city": "Kayola", "lon": "24.6666667"}, {"lat": "-14.15", "city": "Kayombo", "lon": "23.05"}, {"lat": "-16.2", "city": "Kayoya", "lon": "24.15"}, {"lat": "-14.55", "city": "Kayoyo", "lon": "23.2166667"}, {"lat": "-15.9833333", "city": "Kayuba", "lon": "23.8333333"}, {"lat": "-16.35", "city": "Kayumbi", "lon": "22.7166667"}, {"lat": "-16.6833333", "city": "Kayumbwa", "lon": "22.5666667"}, {"lat": "-14.3", "city": "Kayumo", "lon": "23.6"}, {"lat": "-15.9166667", "city": "Kayundu", "lon": "22.9"}, {"lat": "-15.0833333", "city": "Kayuwa", "lon": "23.1833333"}, {"lat": "-15.4666667", "city": "Kaywala", "lon": "22.6833333"}, {"lat": "-14.0333333", "city": "Kazakama", "lon": "24.0333333"}, {"lat": "-14.4833333", "city": "Kazekulu", "lon": "23.8166667"}, {"lat": "-13.9666667", "city": "Kazembe", "lon": "22.9333333"}, {"lat": "-14.65", "city": "Kazeva", "lon": "23.5"}, {"lat": "-14.5166667", "city": "Kazeze", "lon": "23.8333333"}, {"lat": "-14.2666667", "city": "Kazhila", "lon": "23.3166667"}, {"lat": "-15.6", "city": "Kazhina", "lon": "24.75"}, {"lat": "-14.0166667", "city": "Kazilakambaka", "lon": "22.8"}, {"lat": "-14.4333333", "city": "Kazungo", "lon": "23.7833333"}, {"lat": "-14.1666667", "city": "Keke", "lon": "23.0833333"}, {"lat": "-15.5", "city": "Kekelwa", "lon": "23.1"}, {"lat": "-16.2666667", "city": "Kenabanyama", "lon": "24.2833333"}, {"lat": "-16.85", "city": "Kesi", "lon": "23.0333333"}, {"lat": "-15.2833333", "city": "Keta", "lon": "22.6333333"}, {"lat": "-17.4", "city": "Khomopele", "lon": "24.95"}, {"lat": "-14.95", "city": "Kialubilo", "lon": "25.1333333"}, {"lat": "-13.9666667", "city": "Kimina", "lon": "24.05"}, {"lat": "-14.4333333", "city": "Kingama", "lon": "25.0"}, {"lat": "-15.05", "city": "Kingebe", "lon": "25.2333333"}, {"lat": "-15.0833333", "city": "Kinji", "lon": "22.25"}, {"lat": "-14.4333333", "city": "Kinya", "lon": "23.4333333"}, {"lat": "-16.9", "city": "Klemba", "lon": "25.1333333"}, {"lat": "-14.6333333", "city": "Kokana", "lon": "25.0833333"}, {"lat": "-14.6", "city": "Kokile", "lon": "23.65"}, {"lat": "-14.2333333", "city": "Kolowa", "lon": "23.7833333"}, {"lat": "-16.8833333", "city": "Koma", "lon": "24.8333333"}, {"lat": "-14.6166667", "city": "Kombelelo", "lon": "24.7"}, {"lat": "-14.6", "city": "Kombelwa", "lon": "23.2"}, {"lat": "-17.4166667", "city": "Kompeli", "lon": "24.9333333"}, {"lat": "-15.45", "city": "Konda", "lon": "23.4333333"}, {"lat": "-15.3666667", "city": "Kondu", "lon": "22.7166667"}, {"lat": "-15.6333333", "city": "Konga", "lon": "23.55"}, {"lat": "-14.3", "city": "Kongoliazala", "lon": "23.25"}, {"lat": "-14.7833333", "city": "Kongwa", "lon": "22.7833333"}, {"lat": "-15.0666667", "city": "Koyana", "lon": "23.1666667"}, {"lat": "-15.45", "city": "Kozo", "lon": "22.7666667"}, {"lat": "-14.9333333", "city": "Kuakua", "lon": "23.2166667"}, {"lat": "-14.8333333", "city": "Kubama", "lon": "25.0166667"}, {"lat": "-17.2", "city": "Kufalala", "lon": "23.0333333"}, {"lat": "-14.35", "city": "Kufanga", "lon": "23.2333333"}, {"lat": "-15.3", "city": "Kufela", "lon": "23.8666667"}, {"lat": "-15.3333333", "city": "Kufuka", "lon": "22.5833333"}, {"lat": "-16.2166667", "city": "Kufukeka", "lon": "22.3166667"}, {"lat": "-14.9666667", "city": "Kuhahoma", "lon": "22.5333333"}, {"lat": "-15.4333333", "city": "Kuketa", "lon": "22.5"}, {"lat": "-16.7166667", "city": "Kulala", "lon": "22.5"}, {"lat": "-14.9333333", "city": "Kulema", "lon": "22.1833333"}, {"lat": "-15.4", "city": "Kulimakulima", "lon": "23.4"}, {"lat": "-15.3166667", "city": "Kuloya", "lon": "22.6666667"}, {"lat": "-17.5166667", "city": "Kulubuza", "lon": "23.2"}, {"lat": "-15.2", "city": "Kulwamala", "lon": "23.4666667"}, {"lat": "-14.25", "city": "Kumbilumbilu", "lon": "23.4166667"}, {"lat": "-15.7833333", "city": "Kumina", "lon": "25.05"}, {"lat": "-14.85", "city": "Kumoyo", "lon": "22.5166667"}, {"lat": "-16.4333333", "city": "Kunamakuni", "lon": "23.3166667"}, {"lat": "-14.9666667", "city": "Kundendama", "lon": "22.6166667"}, {"lat": "-14.0333333", "city": "Kundendema", "lon": "24.05"}, {"lat": "-14.8833333", "city": "Kunga", "lon": "22.75"}, {"lat": "-14.1333333", "city": "Kungakunga", "lon": "23.5666667"}, {"lat": "-14.1333333", "city": "Kungu", "lon": "22.8833333"}, {"lat": "-14.4333333", "city": "Kunjenja", "lon": "23.6666667"}, {"lat": "-16.6", "city": "Kunyanda", "lon": "22.4166667"}, {"lat": "-14.45", "city": "Kupeleka", "lon": "23.2166667"}, {"lat": "-17.4333333", "city": "Kushando", "lon": "24.9166667"}, {"lat": "-14.95", "city": "Kutibiwa", "lon": "23.0"}, {"lat": "-15.6833333", "city": "Kutula", "lon": "22.3666667"}, {"lat": "-14.6", "city": "Kuuli", "lon": "22.8"}, {"lat": "-15.2", "city": "Kuvindekela", "lon": "23.55"}, {"lat": "-14.4833333", "city": "Kuwaya", "lon": "22.8833333"}, {"lat": "-15.65", "city": "Kuwilu", "lon": "23.0333333"}, {"lat": "-14.5333333", "city": "Kuyawa", "lon": "22.7333333"}, {"lat": "-14.65", "city": "Kuyengwa", "lon": "22.3"}, {"lat": "-14.6166667", "city": "Kuyewa", "lon": "22.2666667"}, {"lat": "-14.9666667", "city": "Kuyewana", "lon": "22.6666667"}, {"lat": "-15.7333333", "city": "Kwabila", "lon": "25.0666667"}, {"lat": "-16.2666667", "city": "Kwabinga", "lon": "22.3"}, {"lat": "-15.2666667", "city": "Kwalaela", "lon": "23.4666667"}, {"lat": "-14.7333333", "city": "Kwala", "lon": "23.4666667"}, {"lat": "-16.1333333", "city": "Kwalela", "lon": "22.3"}, {"lat": "-16.15", "city": "Kwaleyela", "lon": "23.4"}, {"lat": "-14.4833333", "city": "Kwalombota", "lon": "23.7166667"}, {"lat": "-14.6333333", "city": "Kwashimbisa", "lon": "23.05"}, {"lat": "-15.1666667", "city": "Kwatalie", "lon": "23.2166667"}, {"lat": "-16.85", "city": "Kwayo", "lon": "22.6833333"}, {"lat": "-14.8833333", "city": "Kwekisa", "lon": "23.1833333"}, {"lat": "-14.9333333", "city": "Kweleka", "lon": "23.2166667"}, {"lat": "-15.3", "city": "Kweli", "lon": "22.8333333"}, {"lat": "-16.95", "city": "Kwembula", "lon": "24.5333333"}, {"lat": "-17.4333333", "city": "Kwenani", "lon": "24.5"}, {"lat": "-16.5833333", "city": "Kwenda", "lon": "23.8166667"}, {"lat": "-14.9333333", "city": "Kwibisa", "lon": "23.0"}, {"lat": "-17.3666667", "city": "Kwoyoyisha", "lon": "24.8833333"}, {"lat": "-14.3166667", "city": "Kyema", "lon": "22.1166667"}, {"lat": "-15.0", "city": "Lamukwena", "lon": "22.95"}, {"lat": "-16.05", "city": "Lealii", "lon": "23.2"}, {"lat": "-15.2", "city": "Lealui", "lon": "23.0"}, {"lat": "-17.35", "city": "Leashimba", "lon": "24.8"}, {"lat": "-15.1833333", "city": "Leleka", "lon": "24.6"}, {"lat": "-15.7333333", "city": "Lengelengele", "lon": "23.4833333"}, {"lat": "-15.3333333", "city": "Lepai", "lon": "23.0833333"}, {"lat": "-15.1833333", "city": "Lewanika's Grave", "lon": "22.95"}, {"lat": "-14.3166667", "city": "Liafoki", "lon": "22.0166667"}, {"lat": "-15.6", "city": "Liafwika", "lon": "23.0166667"}, {"lat": "-14.7166667", "city": "Liaka", "lon": "24.0333333"}, {"lat": "-14.3", "city": "Liakangisa", "lon": "22.5833333"}, {"lat": "-15.2", "city": "Lialui", "lon": "23.0"}, {"lat": "-15.1666667", "city": "Liamana", "lon": "23.3333333"}, {"lat": "-17.4833333", "city": "Liambai", "lon": "24.75"}, {"lat": "-15.25", "city": "Liambamaita", "lon": "23.7166667"}, {"lat": "-15.4666667", "city": "Liambango", "lon": "23.6666667"}, {"lat": "-14.0333333", "city": "Liambezi", "lon": "24.0833333"}, {"lat": "-16.1666667", "city": "Liambika", "lon": "24.8666667"}, {"lat": "-14.0666667", "city": "Liambila", "lon": "23.8666667"}, {"lat": "-14.4333333", "city": "Liambombola", "lon": "23.7833333"}, {"lat": "-15.8833333", "city": "Liambulula", "lon": "24.0"}, {"lat": "-16.9333333", "city": "Liamene", "lon": "24.7"}, {"lat": "-15.5833333", "city": "Liamine", "lon": "22.9833333"}, {"lat": "-15.6666667", "city": "Liamu", "lon": "23.6166667"}, {"lat": "-15.5", "city": "Liamunga", "lon": "23.2166667"}, {"lat": "-15.6833333", "city": "Lianda", "lon": "24.8666667"}, {"lat": "-13.9833333", "city": "Liandamu", "lon": "22.9"}, {"lat": "-15.75", "city": "Liande Kuta", "lon": "23.6833333"}, {"lat": "-14.4666667", "city": "Liande", "lon": "24.1333333"}, {"lat": "-15.5833333", "city": "Lianganga", "lon": "23.5166667"}, {"lat": "-15.8", "city": "Liangati", "lon": "23.3"}, {"lat": "-15.5833333", "city": "Liangonga", "lon": "23.5166667"}, {"lat": "-15.7", "city": "Liangumuka", "lon": "23.5166667"}, {"lat": "-16.2", "city": "Lianyunga", "lon": "22.4166667"}, {"lat": "-15.2833333", "city": "Liaonga", "lon": "22.8"}, {"lat": "-14.7666667", "city": "Liapukumuka", "lon": "23.8166667"}, {"lat": "-15.5666667", "city": "Liashimba", "lon": "23.0166667"}, {"lat": "-16.4", "city": "Liavwaya", "lon": "25.0"}, {"lat": "-14.4833333", "city": "Liawawa", "lon": "23.7"}, {"lat": "-15.3833333", "city": "Liawelo", "lon": "23.2833333"}, {"lat": "-17.3833333", "city": "Libaka", "lon": "24.8333333"}, {"lat": "-14.2666667", "city": "Libanda", "lon": "23.3"}, {"lat": "-15.2833333", "city": "Libanga", "lon": "23.85"}, {"lat": "-15.3833333", "city": "Libati", "lon": "23.35"}, {"lat": "-17.1833333", "city": "Libebe", "lon": "24.7833333"}, {"lat": "-14.3666667", "city": "Libilingoma", "lon": "22.0666667"}, {"lat": "-15.2666667", "city": "Libindika", "lon": "22.8"}, {"lat": "-14.6333333", "city": "Libinga", "lon": "25.05"}, {"lat": "-14.5666667", "city": "Libingi", "lon": "23.85"}, {"lat": "-15.5666667", "city": "Liboma", "lon": "23.2166667"}, {"lat": "-14.9", "city": "Libonda", "lon": "22.2166667"}, {"lat": "-16.4166667", "city": "Libuku", "lon": "24.9333333"}, {"lat": "-14.8166667", "city": "Libumbo", "lon": "23.6833333"}, {"lat": "-14.8833333", "city": "Libumbu", "lon": "22.6166667"}, {"lat": "-15.25", "city": "Libumina", "lon": "25.2833333"}, {"lat": "-15.3166667", "city": "Libuwa", "lon": "22.75"}, {"lat": "-14.6666667", "city": "Libuya", "lon": "24.5333333"}, {"lat": "-17.2666667", "city": "Lichaha", "lon": "24.6833333"}, {"lat": "-15.4", "city": "Lichilanda", "lon": "22.8833333"}, {"lat": "-15.0", "city": "Lidiba", "lon": "25.1166667"}, {"lat": "-14.9", "city": "Liebela", "lon": "24.25"}, {"lat": "-15.1833333", "city": "Liebeti", "lon": "23.8166667"}, {"lat": "-15.2333333", "city": "Liembane", "lon": "23.7166667"}, {"lat": "-14.3", "city": "Liembani", "lon": "22.6166667"}, {"lat": "-14.45", "city": "Liendo", "lon": "23.7833333"}, {"lat": "-14.7333333", "city": "Liezi", "lon": "24.8833333"}, {"lat": "-16.6833333", "city": "Lifumbela", "lon": "24.25"}, {"lat": "-14.8833333", "city": "Lifumbo", "lon": "24.9166667"}, {"lat": "-14.5666667", "city": "Lifuna", "lon": "23.7166667"}, {"lat": "-15.6833333", "city": "Lifute", "lon": "22.4333333"}, {"lat": "-15.6833333", "city": "Lifuti", "lon": "22.4333333"}, {"lat": "-15.2166667", "city": "Lifweba", "lon": "24.6166667"}, {"lat": "-15.8", "city": "Lifwembo", "lon": "22.6833333"}, {"lat": "-14.4833333", "city": "Liganake", "lon": "23.5833333"}, {"lat": "-14.3333333", "city": "Lihampali", "lon": "23.5"}, {"lat": "-15.0833333", "city": "Lihapwa", "lon": "22.7166667"}, {"lat": "-14.0666667", "city": "Liholo", "lon": "22.3166667"}, {"lat": "-14.9", "city": "Lihuwa", "lon": "22.55"}, {"lat": "-15.3333333", "city": "Lihwe", "lon": "22.6333333"}, {"lat": "-14.1833333", "city": "Likabo", "lon": "23.6"}, {"lat": "-13.9333333", "city": "Likalaba", "lon": "23.0"}, {"lat": "-15.1666667", "city": "Lika", "lon": "23.3666667"}, {"lat": "-17.4333333", "city": "Likanda", "lon": "24.2166667"}, {"lat": "-14.4333333", "city": "Likandapula", "lon": "23.75"}, {"lat": "-15.2833333", "city": "Likando", "lon": "22.5666667"}, {"lat": "-14.8333333", "city": "Likapai", "lon": "23.0166667"}, {"lat": "-17.3666667", "city": "Likatalelo", "lon": "24.65"}, {"lat": "-15.55", "city": "Likaula", "lon": "22.8333333"}, {"lat": "-14.2166667", "city": "Likeka", "lon": "23.9"}, {"lat": "-15.4666667", "city": "Like", "lon": "22.9166667"}, {"lat": "-15.7333333", "city": "Likene", "lon": "22.9333333"}, {"lat": "-15.8", "city": "Liketoketo", "lon": "23.1666667"}, {"lat": "-14.45", "city": "Likishi", "lon": "23.9"}, {"lat": "-16.6666667", "city": "Likokoto", "lon": "24.2833333"}, {"lat": "-15.7666667", "city": "Likolambuyu", "lon": "23.1333333"}, {"lat": "-14.4833333", "city": "Likoma", "lon": "22.1333333"}, {"lat": "-15.6666667", "city": "Likombo", "lon": "23.5666667"}, {"lat": "-14.0166667", "city": "Likomeno", "lon": "23.9"}, {"lat": "-14.45", "city": "Likonde", "lon": "23.7833333"}, {"lat": "-16.0666667", "city": "Likondwama", "lon": "23.2"}, {"lat": "-14.85", "city": "Likosi", "lon": "23.85"}, {"lat": "-17.4166667", "city": "Likubangwe", "lon": "24.5833333"}, {"lat": "-14.0333333", "city": "Likubi", "lon": "22.2833333"}, {"lat": "-15.4666667", "city": "Likubula", "lon": "24.7833333"}, {"lat": "-17.15", "city": "Likubwe", "lon": "24.5166667"}, {"lat": "-16.2666667", "city": "Likuka", "lon": "22.7"}, {"lat": "-14.65", "city": "Likukela", "lon": "23.0333333"}, {"lat": "-17.3", "city": "Likuku", "lon": "24.7"}, {"lat": "-15.55", "city": "Likula", "lon": "24.7166667"}, {"lat": "-14.35", "city": "Likulunga", "lon": "23.25"}, {"lat": "-14.4", "city": "Likulunu", "lon": "23.2833333"}, {"lat": "-17.2", "city": "Likulushitu", "lon": "22.8666667"}, {"lat": "-15.4", "city": "Likumbi", "lon": "23.25"}, {"lat": "-14.05", "city": "Likumumu", "lon": "22.8"}, {"lat": "-16.7166667", "city": "Likunde", "lon": "25.0333333"}, {"lat": "-15.3833333", "city": "Likungamwa", "lon": "23.0"}, {"lat": "-14.8333333", "city": "Likungumbenje", "lon": "24.8"}, {"lat": "-15.3333333", "city": "Likunyendo", "lon": "24.2333333"}, {"lat": "-15.15", "city": "Likupe", "lon": "22.5666667"}, {"lat": "-14.7333333", "city": "Likwaka", "lon": "24.6666667"}, {"lat": "-15.25", "city": "Likwanga", "lon": "23.0"}, {"lat": "-14.1", "city": "Likwanya", "lon": "23.2"}, {"lat": "-13.9833333", "city": "Likwasi", "lon": "22.2833333"}, {"lat": "-15.65", "city": "Likwenga", "lon": "23.0166667"}, {"lat": "-15.6166667", "city": "Likwengo", "lon": "23.0"}, {"lat": "-15.1333333", "city": "Lilakamulilo", "lon": "24.5666667"}, {"lat": "-15.5", "city": "Lilaliyi", "lon": "23.8"}, {"lat": "-15.5666667", "city": "Lilamanyo", "lon": "23.5833333"}, {"lat": "-14.5166667", "city": "Lilanda", "lon": "24.2333333"}, {"lat": "-16.6333333", "city": "Lilapo", "lon": "22.5666667"}, {"lat": "-14.0833333", "city": "Lilema", "lon": "22.9"}, {"lat": "-14.7333333", "city": "Lilenge", "lon": "23.1833333"}, {"lat": "-14.4333333", "city": "Lilete", "lon": "23.6333333"}, {"lat": "-15.65", "city": "Liliachi", "lon": "23.0333333"}, {"lat": "-15.9666667", "city": "Lilo", "lon": "23.05"}, {"lat": "-13.9833333", "city": "Lilombo", "lon": "24.0666667"}, {"lat": "-15.8333333", "city": "Lilomu", "lon": "23.8333333"}, {"lat": "-14.4833333", "city": "Lilondo", "lon": "23.7"}, {"lat": "-17.3666667", "city": "Lilonga", "lon": "24.4666667"}, {"lat": "-17.35", "city": "Lilume", "lon": "24.8166667"}, {"lat": "-15.2833333", "city": "Lilundu", "lon": "23.05"}, {"lat": "-14.9", "city": "Lilungwa", "lon": "22.2666667"}, {"lat": "-15.2666667", "city": "Lilwelo", "lon": "23.0333333"}, {"lat": "-14.95", "city": "Limata", "lon": "24.8666667"}, {"lat": "-15.45", "city": "Limbali", "lon": "23.0333333"}, {"lat": "-16.3333333", "city": "Limbambala", "lon": "23.0833333"}, {"lat": "-14.9666667", "city": "Limbamba", "lon": "22.6166667"}, {"lat": "-14.7", "city": "Limbambo", "lon": "24.6166667"}, {"lat": "-14.4", "city": "Limbangala", "lon": "23.6833333"}, {"lat": "-14.3666667", "city": "Limbango", "lon": "23.3166667"}, {"lat": "-15.0166667", "city": "Limbao", "lon": "22.5333333"}, {"lat": "-14.2166667", "city": "Limbembe", "lon": "22.95"}, {"lat": "-14.2", "city": "Limbilimbili", "lon": "23.4"}, {"lat": "-15.2166667", "city": "Limbu", "lon": "22.55"}, {"lat": "-15.5333333", "city": "Limbumbu", "lon": "24.0166667"}, {"lat": "-15.2833333", "city": "Limbunda", "lon": "22.5666667"}, {"lat": "-16.8166667", "city": "Limbuti", "lon": "24.65"}, {"lat": "-14.3666667", "city": "Limbwambwa", "lon": "22.0833333"}, {"lat": "-13.9333333", "city": "Limbwembwele", "lon": "24.1333333"}, {"lat": "-15.1333333", "city": "Limbwete", "lon": "22.6"}, {"lat": "-14.0166667", "city": "Limbwi", "lon": "22.9166667"}, {"lat": "-14.9833333", "city": "Limpali", "lon": "22.5"}, {"lat": "-15.1", "city": "Limulunga", "lon": "23.15"}, {"lat": "-16.9833333", "city": "Limunwani", "lon": "23.9833333"}, {"lat": "-14.7166667", "city": "Limwanya", "lon": "22.7666667"}, {"lat": "-15.1333333", "city": "Limweta", "lon": "22.6333333"}, {"lat": "-14.8", "city": "Linanga", "lon": "23.1166667"}, {"lat": "-14.7", "city": "Lindambe", "lon": "24.5666667"}, {"lat": "-15.2833333", "city": "Lindeo", "lon": "22.5833333"}, {"lat": "-14.4833333", "city": "Lingamba", "lon": "23.7"}, {"lat": "-16.35", "city": "Linganga", "lon": "24.8833333"}, {"lat": "-15.1166667", "city": "Lingomba", "lon": "22.95"}, {"lat": "-15.1166667", "city": "Lingombe", "lon": "23.3333333"}, {"lat": "-15.2833333", "city": "Lingonsa", "lon": "22.8"}, {"lat": "-14.5166667", "city": "Lingoti", "lon": "23.85"}, {"lat": "-14.6833333", "city": "Lingulunde", "lon": "23.1"}, {"lat": "-14.55", "city": "Lingumba", "lon": "24.2"}, {"lat": "-14.15", "city": "Lingumbwanga", "lon": "23.7166667"}, {"lat": "-13.9666667", "city": "Lingunda", "lon": "23.1"}, {"lat": "-15.4166667", "city": "Lingundangunda", "lon": "23.6666667"}, {"lat": "-14.4833333", "city": "Lingwabo", "lon": "23.9666667"}, {"lat": "-16.6333333", "city": "Lingwalala", "lon": "22.8166667"}, {"lat": "-14.7333333", "city": "Lingwaya", "lon": "24.2"}, {"lat": "-16.0833333", "city": "Lingwe", "lon": "22.6333333"}, {"lat": "-14.3", "city": "Linoka", "lon": "22.5666667"}, {"lat": "-15.3333333", "city": "Linyamanapengo", "lon": "22.7666667"}, {"lat": "-16.2833333", "city": "Linyanguta", "lon": "22.4"}, {"lat": "-14.5333333", "city": "Linyela", "lon": "23.0666667"}, {"lat": "-15.9666667", "city": "Linyeno", "lon": "23.1833333"}, {"lat": "-14.5166667", "city": "Linyeta", "lon": "23.1"}, {"lat": "-15.0333333", "city": "Linyotwa", "lon": "22.5166667"}, {"lat": "-14.15", "city": "Linyunga", "lon": "24.75"}, {"lat": "-16.1", "city": "Linyungu", "lon": "22.25"}, {"lat": "-15.6666667", "city": "Linyunguta", "lon": "22.8833333"}, {"lat": "-14.8", "city": "Liobola", "lon": "24.9333333"}, {"lat": "-15.5833333", "city": "Liokwe", "lon": "23.15"}, {"lat": "-14.85", "city": "Liolola", "lon": "24.9"}, {"lat": "-17.0333333", "city": "Lioma", "lon": "22.6833333"}, {"lat": "-15.5166667", "city": "Liomba", "lon": "23.55"}, {"lat": "-14.6", "city": "Liomboko", "lon": "24.1833333"}, {"lat": "-14.9833333", "city": "Liomokela", "lon": "22.45"}, {"lat": "-15.7", "city": "Liongumuka", "lon": "23.5333333"}, {"lat": "-15.4", "city": "Lipaa", "lon": "23.25"}, {"lat": "-15.4166667", "city": "Lipabuka", "lon": "23.6166667"}, {"lat": "-14.0666667", "city": "Lipalana", "lon": "23.2"}, {"lat": "-15.1666667", "city": "Lipalile", "lon": "22.9333333"}, {"lat": "-13.95", "city": "Lipanda", "lon": "24.4333333"}, {"lat": "-15.4833333", "city": "Lipanga", "lon": "22.35"}, {"lat": "-15.15", "city": "Lipatoki", "lon": "23.3833333"}, {"lat": "-15.2833333", "city": "Lipela", "lon": "23.9"}, {"lat": "-14.0833333", "city": "Lipemba", "lon": "22.9333333"}, {"lat": "-14.4666667", "city": "Lipepo", "lon": "23.5833333"}, {"lat": "-15.1666667", "city": "Lipimili", "lon": "22.95"}, {"lat": "-14.5666667", "city": "Lipoba", "lon": "23.7666667"}, {"lat": "-14.4666667", "city": "Lipobo", "lon": "23.8166667"}, {"lat": "-14.8333333", "city": "Lipoke", "lon": "22.1166667"}, {"lat": "-15.2", "city": "Lipolelo", "lon": "23.8166667"}, {"lat": "-14.35", "city": "Lipota", "lon": "23.6166667"}, {"lat": "-14.2", "city": "Lipula", "lon": "23.3833333"}, {"lat": "-15.25", "city": "Lipu", "lon": "22.9333333"}, {"lat": "-14.4833333", "city": "Lipumbu", "lon": "23.7166667"}, {"lat": "-17.25", "city": "Lipumpu", "lon": "24.65"}, {"lat": "-14.85", "city": "Lipwa", "lon": "22.2666667"}, {"lat": "-14.7666667", "city": "Lisakwa", "lon": "23.0666667"}, {"lat": "-17.0333333", "city": "Lisapa", "lon": "24.6833333"}, {"lat": "-15.6166667", "city": "Liseka", "lon": "23.5666667"}, {"lat": "-14.6166667", "city": "Lisele", "lon": "22.9333333"}, {"lat": "-15.3666667", "city": "Lisetele", "lon": "22.6666667"}, {"lat": "-15.65", "city": "Lishahala", "lon": "23.65"}, {"lat": "-14.1333333", "city": "Lishali", "lon": "22.8"}, {"lat": "-14.7666667", "city": "Lishemba", "lon": "23.6"}, {"lat": "-16.6", "city": "Lishibi", "lon": "24.7833333"}, {"lat": "-14.7", "city": "Lishindika", "lon": "25.3833333"}, {"lat": "-14.3", "city": "Lishipamukongwa", "lon": "23.4166667"}, {"lat": "-15.2833333", "city": "Lisho", "lon": "23.75"}, {"lat": "-14.5", "city": "Lisholo", "lon": "23.5833333"}, {"lat": "-14.9833333", "city": "Lishomwa", "lon": "22.2666667"}, {"lat": "-14.75", "city": "Lishuka", "lon": "23.4333333"}, {"lat": "-16.2333333", "city": "Lishukula", "lon": "23.5333333"}, {"lat": "-17.4666667", "city": "Lishumi", "lon": "24.2666667"}, {"lat": "-15.45", "city": "Lisima", "lon": "23.1"}, {"lat": "-15.45", "city": "Lisulo", "lon": "23.0833333"}, {"lat": "-14.9166667", "city": "Litaba", "lon": "24.2833333"}, {"lat": "-15.1833333", "city": "Litakamulilo", "lon": "24.5833333"}, {"lat": "-15.1833333", "city": "Litambo", "lon": "23.1833333"}, {"lat": "-16.3333333", "city": "Litaumbi", "lon": "23.2"}, {"lat": "-15.95", "city": "Litawa", "lon": "23.1833333"}, {"lat": "-15.1666667", "city": "Litebele", "lon": "22.95"}, {"lat": "-14.8833333", "city": "Litengu", "lon": "23.85"}, {"lat": "-14.9", "city": "Litetele", "lon": "23.5166667"}, {"lat": "-15.6666667", "city": "Litia", "lon": "23.75"}, {"lat": "-16.1", "city": "Litianyana", "lon": "22.95"}, {"lat": "-14.0166667", "city": "Litiba", "lon": "23.3333333"}, {"lat": "-15.7833333", "city": "Litofe", "lon": "23.1833333"}, {"lat": "-14.3", "city": "Litolilo", "lon": "23.3666667"}, {"lat": "-15.5166667", "city": "Litoma", "lon": "23.0"}, {"lat": "-14.1333333", "city": "Litondo", "lon": "23.0833333"}, {"lat": "-14.45", "city": "Litonga", "lon": "22.15"}, {"lat": "-14.7", "city": "Litongi", "lon": "25.1"}, {"lat": "-16.2833333", "city": "Litongo", "lon": "23.7666667"}, {"lat": "-15.5833333", "city": "Litoya", "lon": "25.3333333"}, {"lat": "-15.4333333", "city": "Litulilo", "lon": "22.65"}, {"lat": "-15.45", "city": "Litumbu", "lon": "23.25"}, {"lat": "-16.2", "city": "Litunda", "lon": "22.0166667"}, {"lat": "-15.5666667", "city": "Litungi", "lon": "23.8333333"}, {"lat": "-15.1666667", "city": "Litutila", "lon": "23.25"}, {"lat": "-14.8166667", "city": "Liuha", "lon": "24.7166667"}, {"lat": "-14.7666667", "city": "Liula", "lon": "23.9166667"}, {"lat": "-15.5833333", "city": "Liuma", "lon": "23.5666667"}, {"lat": "-15.9", "city": "Liume", "lon": "22.65"}, {"lat": "-15.6166667", "city": "Liumi", "lon": "22.4833333"}, {"lat": "-15.3833333", "city": "Liunga", "lon": "23.2"}, {"lat": "-15.0333333", "city": "Livumina", "lon": "25.1833333"}, {"lat": "-17.4666667", "city": "Livune", "lon": "24.7666667"}, {"lat": "-15.0166667", "city": "Liwakala", "lon": "23.25"}, {"lat": "-16.7166667", "city": "Liwale", "lon": "25.0333333"}, {"lat": "-14.6666667", "city": "Liwanga", "lon": "23.1833333"}, {"lat": "-14.6", "city": "Liwema", "lon": "23.5166667"}, {"lat": "-14.55", "city": "Liwena Kamuti", "lon": "22.1833333"}, {"lat": "-14.1833333", "city": "Liwende", "lon": "22.45"}, {"lat": "-15.2166667", "city": "Liwilu", "lon": "22.4"}, {"lat": "-17.2", "city": "Liyamine", "lon": "24.85"}, {"lat": "-15.2166667", "city": "Liyaneno", "lon": "22.9666667"}, {"lat": "-14.75", "city": "Liyembani", "lon": "23.75"}, {"lat": "-15.3333333", "city": "Liyeo", "lon": "23.1833333"}, {"lat": "-14.7", "city": "Liyimba", "lon": "22.4833333"}, {"lat": "-15.6666667", "city": "Liyuma", "lon": "23.6"}, {"lat": "-15.55", "city": "Liyunyi Kuta", "lon": "24.8666667"}, {"lat": "-14.7", "city": "Lizeuzeu", "lon": "24.2166667"}, {"lat": "-15.4166667", "city": "Lizulo Kozo", "lon": "22.75"}, {"lat": "-15.75", "city": "Loanga", "lon": "23.2"}, {"lat": "-17.3333333", "city": "Loanja", "lon": "24.8"}, {"lat": "-16.9666667", "city": "Loazamba Kuta", "lon": "24.7"}, {"lat": "-16.9666667", "city": "Loazamba", "lon": "24.7"}, {"lat": "-14.6666667", "city": "Locha", "lon": "24.8333333"}, {"lat": "-14.7833333", "city": "Loloma", "lon": "24.95"}, {"lat": "-14.6", "city": "Lombelombe", "lon": "25.4166667"}, {"lat": "-14.3833333", "city": "Lonbwe", "lon": "22.1333333"}, {"lat": "-15.4333333", "city": "Losenda", "lon": "23.6833333"}, {"lat": "-14.4833333", "city": "Lowa Kanoti Kuta", "lon": "23.5"}, {"lat": "-14.4833333", "city": "Lowa-Kanoti", "lon": "23.5"}, {"lat": "-14.4833333", "city": "Lowa", "lon": "23.5"}, {"lat": "-14.45", "city": "Lowa Nkumbo", "lon": "23.45"}, {"lat": "-15.4166667", "city": "Luampa Kuta", "lon": "24.7333333"}, {"lat": "-15.05", "city": "Luampa", "lon": "24.4166667"}, {"lat": "-14.35", "city": "Luanchuma", "lon": "23.3"}, {"lat": "-15.55", "city": "Luanda", "lon": "23.1"}, {"lat": "-14.15", "city": "Luange", "lon": "24.75"}, {"lat": "-15.2833333", "city": "Luangula", "lon": "23.8666667"}, {"lat": "-17.3333333", "city": "Luanja", "lon": "24.8"}, {"lat": "-15.2166667", "city": "Luatembo", "lon": "23.8"}, {"lat": "-16.9666667", "city": "Luazamba", "lon": "24.7"}, {"lat": "-15.2", "city": "Lubasi", "lon": "23.5"}, {"lat": "-14.7833333", "city": "Lubesha", "lon": "25.1333333"}, {"lat": "-14.7666667", "city": "Lubinda", "lon": "22.4166667"}, {"lat": "-17.4666667", "city": "Lubinda Supi", "lon": "24.4166667"}, {"lat": "-15.0333333", "city": "Lubindatanga", "lon": "23.4166667"}, {"lat": "-14.8166667", "city": "Lubonga", "lon": "23.3333333"}, {"lat": "-15.4", "city": "Luboshe", "lon": "23.0333333"}, {"lat": "-16.3", "city": "Lucanana", "lon": "22.4666667"}, {"lat": "-16.0833333", "city": "Luchanana", "lon": "23.4333333"}, {"lat": "-17.0166667", "city": "Luchele", "lon": "23.05"}, {"lat": "-16.7666667", "city": "Luchipe", "lon": "22.6666667"}, {"lat": "-14.6833333", "city": "Luete", "lon": "22.75"}, {"lat": "-14.1666667", "city": "Lufunda", "lon": "23.5"}, {"lat": "-15.4333333", "city": "Lufunga", "lon": "24.95"}, {"lat": "-14.7833333", "city": "Lufwendo", "lon": "22.8"}, {"lat": "-14.7833333", "city": "Luhila", "lon": "23.9333333"}, {"lat": "-15.9166667", "city": "Lui", "lon": "23.4666667"}, {"lat": "-15.4166667", "city": "Lukalanya", "lon": "23.0666667"}, {"lat": "-14.4166667", "city": "Lukama", "lon": "22.0166667"}, {"lat": "-15.1333333", "city": "Lukangu", "lon": "23.6833333"}, {"lat": "-14.8333333", "city": "Lukata", "lon": "25.0333333"}, {"lat": "-14.55", "city": "Lukau", "lon": "23.3333333"}, {"lat": "-14.35", "city": "Lukesha", "lon": "23.1833333"}, {"lat": "-14.8166667", "city": "Lukisho", "lon": "25.0666667"}, {"lat": "-16.7", "city": "Lukomeno", "lon": "24.9666667"}, {"lat": "-15.3833333", "city": "Lukona", "lon": "22.8833333"}, {"lat": "-15.4", "city": "Lukonga", "lon": "23.3833333"}, {"lat": "-17.3", "city": "Lukuku", "lon": "24.7"}, {"lat": "-15.3666667", "city": "Lukulo", "lon": "23.4666667"}, {"lat": "-14.3833333", "city": "Lukulu", "lon": "23.25"}, {"lat": "-15.7333333", "city": "Lukungu", "lon": "23.0333333"}, {"lat": "-14.8333333", "city": "Lukuwa", "lon": "22.1833333"}, {"lat": "-14.95", "city": "Lukwate", "lon": "24.3333333"}, {"lat": "-15.45", "city": "Lulambo", "lon": "22.9666667"}, {"lat": "-14.15", "city": "Lulembwana", "lon": "22.9"}, {"lat": "-16.6166667", "city": "Lulenga", "lon": "23.1833333"}, {"lat": "-16.55", "city": "Lulia", "lon": "22.7833333"}, {"lat": "-15.25", "city": "Lumai", "lon": "24.5666667"}, {"lat": "-16.7833333", "city": "Lumangato", "lon": "22.75"}, {"lat": "-14.5833333", "city": "Lumango", "lon": "23.7333333"}, {"lat": "-14.6666667", "city": "Lumano", "lon": "23.9333333"}, {"lat": "-15.2166667", "city": "Lumbango", "lon": "22.9666667"}, {"lat": "-15.3166667", "city": "Lumbo", "lon": "22.9166667"}, {"lat": "-15.55", "city": "Lumbundu", "lon": "22.5166667"}, {"lat": "-14.9833333", "city": "Luminga", "lon": "22.4833333"}, {"lat": "-15.6333333", "city": "Lumino", "lon": "22.3666667"}, {"lat": "-15.3333333", "city": "Lumono", "lon": "24.3166667"}, {"lat": "-15.3333333", "city": "Lumuni", "lon": "24.2166667"}, {"lat": "-15.6666667", "city": "Lundoka", "lon": "25.05"}, {"lat": "-14.55", "city": "Lunela", "lon": "23.7333333"}, {"lat": "-15.1666667", "city": "Lunenge", "lon": "22.75"}, {"lat": "-14.6333333", "city": "Lungenda", "lon": "25.0333333"}, {"lat": "-14.4166667", "city": "Lungundi", "lon": "22.15"}, {"lat": "-15.5666667", "city": "Lungwangwa", "lon": "23.85"}, {"lat": "-16.9833333", "city": "Lunyangu", "lon": "23.9666667"}, {"lat": "-15.55", "city": "Lupale", "lon": "24.5833333"}, {"lat": "-15.3833333", "city": "Luponga", "lon": "24.0833333"}, {"lat": "-16.8", "city": "Lupuka", "lon": "22.4666667"}, {"lat": "-14.7166667", "city": "Lupula", "lon": "23.9833333"}, {"lat": "-14.1666667", "city": "Luputa", "lon": "24.9166667"}, {"lat": "-14.8666667", "city": "Lusenge", "lon": "22.5"}, {"lat": "-16.6", "city": "Lusibi", "lon": "24.9666667"}, {"lat": "-14.6333333", "city": "Lusimo", "lon": "22.2833333"}, {"lat": "-14.45", "city": "Lusiyu", "lon": "23.6"}, {"lat": "-17.2166667", "city": "Lusu", "lon": "24.1"}, {"lat": "-16.6833333", "city": "Lutala", "lon": "22.35"}, {"lat": "-15.4833333", "city": "Lutambo", "lon": "23.65"}, {"lat": "-17.4333333", "city": "Lutangu", "lon": "24.5333333"}, {"lat": "-13.9833333", "city": "Lutesa", "lon": "23.1"}, {"lat": "-14.55", "city": "Luteta", "lon": "24.9666667"}, {"lat": "-17.3166667", "city": "Lutombi", "lon": "24.7666667"}, {"lat": "-17.4", "city": "Lutombi Mwala", "lon": "24.7166667"}, {"lat": "-15.1666667", "city": "Lutwi", "lon": "22.6"}, {"lat": "-15.15", "city": "Luumba", "lon": "22.3166667"}, {"lat": "-16.95", "city": "Luvuna", "lon": "24.7"}, {"lat": "-16.4666667", "city": "Luwaya", "lon": "24.9666667"}, {"lat": "-14.5833333", "city": "Luyanga", "lon": "23.7"}, {"lat": "-16.7166667", "city": "Luyobe", "lon": "23.2166667"}, {"lat": "-15.8666667", "city": "Luzongo", "lon": "23.2166667"}, {"lat": "-14.0333333", "city": "Lwaisha", "lon": "24.7"}, {"lat": "-14.85", "city": "Lwambo", "lon": "22.2333333"}, {"lat": "-15.1166667", "city": "Lwanda", "lon": "22.7166667"}, {"lat": "-15.15", "city": "Lwandamo", "lon": "22.5666667"}, {"lat": "-14.9666667", "city": "Lwaneka", "lon": "22.9833333"}, {"lat": "-15.6666667", "city": "Lwaya", "lon": "23.0166667"}, {"lat": "-14.9333333", "city": "Lyaika", "lon": "24.3166667"}, {"lat": "-15.8333333", "city": "Lyamba", "lon": "23.3"}, {"lat": "-15.4666667", "city": "Lyambango", "lon": "23.6666667"}, {"lat": "-15.75", "city": "Lyamu", "lon": "23.6333333"}, {"lat": "-15.0", "city": "Lyamupu", "lon": "22.6833333"}, {"lat": "-15.2333333", "city": "Lyanjenta", "lon": "23.5666667"}, {"lat": "-14.9166667", "city": "Lyulumuna", "lon": "22.2666667"}, {"lat": "-15.2833333", "city": "Maako", "lon": "23.8666667"}, {"lat": "-15.9166667", "city": "Mabebo", "lon": "23.3"}, {"lat": "-16.3666667", "city": "Mabenga Kuta", "lon": "25.0"}, {"lat": "-16.3166667", "city": "Mabenga", "lon": "25.0"}, {"lat": "-16.2666667", "city": "Mabeta", "lon": "24.2666667"}, {"lat": "-14.7833333", "city": "Mabili Kuta", "lon": "23.1"}, {"lat": "-14.7833333", "city": "Mabili", "lon": "23.1"}, {"lat": "-15.9", "city": "Mabiri", "lon": "22.0"}, {"lat": "-14.5", "city": "Mabombwe", "lon": "23.7"}, {"lat": "-16.9666667", "city": "Mabote", "lon": "24.5333333"}, {"lat": "-15.3833333", "city": "Mabua", "lon": "22.3333333"}, {"lat": "-16.7666667", "city": "Mabuku", "lon": "25.05"},