{"ZW": {"03": [{"lat": "-17.3666667", "city": "Amandas", "lon": "30.95"}, {"lat": "-17.3666667", "city": "Bauhinia", "lon": "31.0333333"}, {"lat": "-17.2963889", "city": "Bindura", "lon": "31.3297222"}, {"lat": "-17.2963889", "city": "Bindura Town", "lon": "31.3297222"}, {"lat": "-17.0163889", "city": "Bradley Institute", "lon": "31.4591667"}, {"lat": "-17.3833333", "city": "Brawlands", "lon": "31.0333333"}, {"lat": "-16.8", "city": "Centenary", "lon": "31.1166667"}, {"lat": "-16.25", "city": "Chimbango", "lon": "31.5166667"}, {"lat": "-16.2", "city": "Chipimfwe", "lon": "31.5833333"}, {"lat": "-17.3833333", "city": "Concession", "lon": "30.95"}, {"lat": "-17.3166667", "city": "Craigengower", "lon": "31.0333333"}, {"lat": "-16.7833333", "city": "Darwin", "lon": "31.5833333"}, {"lat": "-17.0333333", "city": "Dawsons", "lon": "30.85"}, {"lat": "-16.7833333", "city": "Fura", "lon": "31.5833333"}, {"lat": "-17.3605556", "city": "Glendale", "lon": "31.0597222"}, {"lat": "-17.595", "city": "Guwa", "lon": "31.4077778"}, {"lat": "-17.3666667", "city": "Hamilton", "lon": "31.1"}, {"lat": "-17.0333333", "city": "Handsworth", "lon": "30.8666667"}, {"lat": "-17.2333333", "city": "Howard Institute", "lon": "31.0"}, {"lat": "-17.1255556", "city": "Kanukamwe School", "lon": "31.0030556"}, {"lat": "-15.7", "city": "Kanyemba", "lon": "30.3166667"}, {"lat": "-16.5", "city": "Kazangarare", "lon": "29.9333333"}, {"lat": "-17.2963889", "city": "Kimberley Reefs", "lon": "31.3297222"}, {"lat": "-17.2833333", "city": "Limbeck", "lon": "31.05"}, {"lat": "-16.9166667", "city": "Madziwa", "lon": "31.5333333"}, {"lat": "-16.7166667", "city": "Mafuto", "lon": "32.7666667"}, {"lat": "-17.2666667", "city": "Mari Phumbi", "lon": "31.0666667"}, {"lat": "-16.2333333", "city": "Marongwe", "lon": "31.5333333"}, {"lat": "-17.5975", "city": "Mashambahaka School", "lon": "31.3563889"}, {"lat": "-16.9333333", "city": "Mgadzi", "lon": "31.7166667"}, {"lat": "-17.3666667", "city": "Mhanda", "lon": "30.95"}, {"lat": "-16.7833333", "city": "Mount Darwin", "lon": "31.5833333"}, {"lat": "-16.7833333", "city": "Mount Fura", "lon": "31.5833333"}, {"lat": "-17.1333333", "city": "Msonedi", "lon": "30.9"}, {"lat": "-17.1333333", "city": "Msonneddi", "lon": "30.9"}, {"lat": "-16.95", "city": "Mtepatepa", "lon": "31.3333333"}, {"lat": "-17.2666667", "city": "Muri Pumbi", "lon": "31.0666667"}, {"lat": "-17.1333333", "city": "Muswewenhede", "lon": "30.9"}, {"lat": "-16.95", "city": "Mutepatepa", "lon": "31.3333333"}, {"lat": "-17.0333333", "city": "Mvurwi", "lon": "30.85"}, {"lat": "-17.2547222", "city": "Nyamwanga", "lon": "31.5202778"}, {"lat": "-16.7333333", "city": "Nykasikana", "lon": "31.7833333"}, {"lat": "-17.33", "city": "Poorte River", "lon": "31.4955556"}, {"lat": "-17.3333333", "city": "Protea", "lon": "31.0333333"}, {"lat": "-17.135", "city": "Rosa", "lon": "31.0441667"}, {"lat": "-17.3155556", "city": "Shamva", "lon": "31.5705556"}, {"lat": "-17.3155556", "city": "Tsambvi", "lon": "31.5705556"}, {"lat": "-17.3155556", "city": "Tsamvi", "lon": "31.5705556"}, {"lat": "-17.0333333", "city": "Umvukwes", "lon": "30.85"}, {"lat": "-17.2833333", "city": "Verona", "lon": "31.0666667"}, {"lat": "-17.2666667", "city": "Villa Franca", "lon": "31.05"}], "00": [{"lat": "-17.4166667", "city": "Bikeni Nyemba", "lon": "28.4333333"}, {"lat": "-17.6166667", "city": "Binga", "lon": "27.3333333"}, {"lat": "-18.45", "city": "Blue Gum", "lon": "29.45"}, {"lat": "-16.8166667", "city": "Bumi Hills", "lon": "28.35"}, {"lat": "-17.55", "city": "Chereya", "lon": "28.6"}, {"lat": "-17.55", "city": "Chief Chereya's Village", "lon": "28.6"}, {"lat": "-18.1166667", "city": "Chief Dabola", "lon": "27.45"}, {"lat": "-17.0833333", "city": "Chief Nebiris Village", "lon": "28.4"}, {"lat": "-18.0166667", "city": "Chief Saba", "lon": "27.1333333"}, {"lat": "-18.15", "city": "Chief Sai", "lon": "28.3833333"}, {"lat": "-17.1833333", "city": "Chief Simupas Village", "lon": "28.0666667"}, {"lat": "-17.4833333", "city": "Chief Sinampande", "lon": "27.95"}, {"lat": "-17.15", "city": "Chief Sinangatenkes Village", "lon": "28.1166667"}, {"lat": "-17.5333333", "city": "Chief Sinasenkwe", "lon": "27.9"}, {"lat": "-18.0", "city": "Chief Sinsalis Village", "lon": "27.5666667"}, {"lat": "-16.0333333", "city": "Chirunda", "lon": "28.85"}, {"lat": "-16.0333333", "city": "Chirundo", "lon": "28.85"}, {"lat": "-16.0333333", "city": "Chirundu", "lon": "28.85"}, {"lat": "-16.0333333", "city": "Chirundu Township", "lon": "28.85"}, {"lat": "-16.95", "city": "Chiwakanyama", "lon": "29.3"}, {"lat": "-18.1166667", "city": "Dabolas", "lon": "27.45"}, {"lat": "-18.45", "city": "Empress Mine Township", "lon": "29.45"}, {"lat": "-18.2166667", "city": "Gokwe", "lon": "28.9333333"}, {"lat": "-17.85", "city": "Goredema District Chief Camp", "lon": "28.9"}, {"lat": "-17.85", "city": "Gorodema", "lon": "28.9"}, {"lat": "-18.3666667", "city": "Hwange", "lon": "26.4833333"}, {"lat": "-17.6166667", "city": "Impampa", "lon": "27.7166667"}, {"lat": "-17.6166667", "city": "Impampas", "lon": "27.7166667"}, {"lat": "-17.9", "city": "James", "lon": "27.3"}, {"lat": "-18.3166667", "city": "Kamativi", "lon": "27.0666667"}, {"lat": "-18.3166667", "city": "Kamitivi", "lon": "27.0666667"}, {"lat": "-17.1333333", "city": "Kanyonga Camp", "lon": "29.2"}, {"lat": "-17.1", "city": "Kapoka", "lon": "28.4"}, {"lat": "-16.5166667", "city": "Kariba", "lon": "28.8"}, {"lat": "-17.9666667", "city": "Kariyangwe", "lon": "27.5"}, {"lat": "-18.3", "city": "Kenyandavu Camp", "lon": "27.9833333"}, {"lat": "-18.3", "city": "Kenyandavu", "lon": "27.9833333"}, {"lat": "-17.1333333", "city": "Kenyungu", "lon": "29.2"}, {"lat": "-18.0666667", "city": "Lusulu", "lon": "27.8333333"}, {"lat": "-18.0666667", "city": "Lusulu Settlement", "lon": "27.8333333"}, {"lat": "-17.3333333", "city": "Machihiri", "lon": "28.9333333"}, {"lat": "-16.85", "city": "Magunge", "lon": "29.4166667"}, {"lat": "-16.3", "city": "Makuti", "lon": "29.25"}, {"lat": "-17.0666667", "city": "Mashami", "lon": "28.8"}, {"lat": "-17.4833333", "city": "Matinka", "lon": "27.9833333"}, {"lat": "-18.4166667", "city": "Mbungu Settlement", "lon": "28.0166667"}, {"lat": "-16.9", "city": "Mrazor", "lon": "29.4166667"}, {"lat": "-17.0833333", "city": "Nbira District Chief Camp", "lon": "28.4"}, {"lat": "-17.0833333", "city": "Nbira", "lon": "28.4"}, {"lat": "-17.6833333", "city": "Nembudzia", "lon": "29.0166667"}, {"lat": "-17.6833333", "city": "Nembudziya", "lon": "29.0166667"}, {"lat": "-17.45", "city": "Nenyuka", "lon": "28.2666667"}, {"lat": "-17.45", "city": "Nenyunka", "lon": "28.2666667"}, {"lat": "-16.0333333", "city": "Otto Beit Bridge", "lon": "28.85"}, {"lat": "-18.2166667", "city": "Pashu", "lon": "27.4"}, {"lat": "-18.2166667", "city": "Pashus", "lon": "27.4"}, {"lat": "-18.0166667", "city": "Saba", "lon": "27.1333333"}, {"lat": "-18.4833333", "city": "Salagushle", "lon": "29.4166667"}, {"lat": "-18.0166667", "city": "Sava", "lon": "27.1333333"}, {"lat": "-17.4666667", "city": "Siabuwa", "lon": "28.05"}, {"lat": "-17.4833333", "city": "Simchembo", "lon": "27.8833333"}, {"lat": "-18.5833333", "city": "Sinamatella Camp", "lon": "26.3166667"}, {"lat": "-18.5833333", "city": "Sinamatila Camp", "lon": "26.3166667"}, {"lat": "-17.9333333", "city": "Victoria Falls", "lon": "25.8333333"}, {"lat": "-18.3666667", "city": "Wange", "lon": "26.4833333"}, {"lat": "-18.3666667", "city": "Wankie", "lon": "26.4833333"}, {"lat": "-18.2166667", "city": "Zikamanas Village", "lon": "27.95"}, {"lat": "-18.2166667", "city": "Ziyakamanas", "lon": "27.95"}], "06": [{"lat": "-20.2086111", "city": "100 Acre Lots", "lon": "28.7213889"}, {"lat": "-21.05", "city": "Antelope", "lon": "28.45"}, {"lat": "-21.05", "city": "Antelope Mine", "lon": "28.45"}, {"lat": "-20.9833333", "city": "Antenior", "lon": "29.0333333"}, {"lat": "-20.1613889", "city": "Ascot", "lon": "28.61"}, {"lat": "-20.0705556", "city": "Badminton Block", "lon": "28.3"}, {"lat": "-20.1", "city": "Balule", "lon": "27.95"}, {"lat": "-19.3833333", "city": "Bangamakuni", "lon": "27.6333333"}, {"lat": "-19.3833333", "city": "Bangamukumi", "lon": "27.6333333"}, {"lat": "-19.3166667", "city": "Banke", "lon": "27.3666667"}, {"lat": "-20.1288889", "city": "Barbour Fields", "lon": "28.57"}, {"lat": "-20.1916667", "city": "Barham Green", "lon": "28.5683333"}, {"lat": "-19.1166667", "city": "Bayi Bayi", "lon": "27.6833333"}, {"lat": "-20.1708333", "city": "Bellevue", "lon": "28.5077778"}, {"lat": "-20.1716667", "city": "Belmont", "lon": "28.5713889"}, {"lat": "-20.1722222", "city": "Belmont East", "lon": "28.5786111"}, {"lat": "-19.45", "city": "Bemba", "lon": "27.2833333"}, {"lat": "-20.0", "city": "Bembesi", "lon": "28.9333333"}, {"lat": "-20.0", "city": "Bembezi", "lon": "28.9333333"}, {"lat": "-20.2", "city": "Bezha", "lon": "27.7666667"}, {"lat": "-19.8166667", "city": "Bizene", "lon": "27.6833333"}, {"lat": "-20.1602778", "city": "Blew Bonny", "lon": "28.3058333"}, {"lat": "-19.3166667", "city": "Bonke", "lon": "27.3666667"}, {"lat": "-19.4666667", "city": "Bonko", "lon": "27.15"}, {"lat": "-19.4666667", "city": "Bonkwe", "lon": "27.15"}, {"lat": "-19.15", "city": "Bubu", "lon": "28.6666667"}, {"lat": "-19.8", "city": "Bulale", "lon": "27.6166667"}, {"lat": "-20.15", "city": "Bulawayo", "lon": "28.5833333"}, {"lat": "-20.2175", "city": "Burnside", "lon": "28.6155556"}, {"lat": "-20.2333333", "city": "Buschtick", "lon": "28.9166667"}, {"lat": "-20.2333333", "city": "Bushtick", "lon": "28.9166667"}, {"lat": "-19.7666667", "city": "Butabubili", "lon": "27.2166667"}, {"lat": "-19.7666667", "city": "Butabulili", "lon": "27.2166667"}, {"lat": "-20.0883333", "city": "Cathleen", "lon": "28.7219444"}, {"lat": "-19.6833333", "city": "Cawunajena", "lon": "27.0166667"}, {"lat": "-20.1138889", "city": "Cement", "lon": "28.6855556"}, {"lat": "-20.1138889", "city": "Cement Siding", "lon": "28.6855556"}, {"lat": "-20.1138889", "city": "Cement Station", "lon": "28.6855556"}, {"lat": "-20.0938889", "city": "Chancit", "lon": "28.6605556"}, {"lat": "-18.7166667", "city": "Chief Mabigwa", "lon": "27.55"}, {"lat": "-18.7166667", "city": "Chief Mabikwa", "lon": "27.55"}, {"lat": "-18.7333333", "city": "Chief Madhliwa", "lon": "28.8166667"}, {"lat": "-19.35", "city": "Chief Mahlaba", "lon": "27.65"}, {"lat": "-19.5833333", "city": "Chief Mswigana", "lon": "27.4666667"}, {"lat": "-18.7833333", "city": "Chief Myinga", "lon": "28.6666667"}, {"lat": "-18.7666667", "city": "Chief Sikobokobo", "lon": "28.5"}, {"lat": "-19.5333333", "city": "Chief Siposa", "lon": "27.0833333"}, {"lat": "-19.5333333", "city": "Chief Siposo", "lon": "27.0833333"}, {"lat": "-18.8", "city": "Chief Sivalo", "lon": "28.3333333"}, {"lat": "-20.1525", "city": "City Centre", "lon": "28.5847222"}, {"lat": "-20.1525", "city": "City", "lon": "28.5847222"}, {"lat": "-20.2336111", "city": "Claremont", "lon": "28.7197222"}, {"lat": "-19.2", "city": "Connemara", "lon": "29.8166667"}, {"lat": "-19.2", "city": "Connemara Mine", "lon": "29.8166667"}, {"lat": "-20.14", "city": "Craiglee", "lon": "28.3394444"}, {"lat": "-19.4", "city": "Dabula", "lon": "28.45"}, {"lat": "-18.8166667", "city": "Dagamella", "lon": "28.65"}, {"lat": "-18.6166667", "city": "Dahlia", "lon": "27.1666667"}, {"lat": "-20.1058333", "city": "Delmore", "lon": "28.6605556"}, {"lat": "-18.6166667", "city": "Dete", "lon": "26.8666667"}, {"lat": "-18.6166667", "city": "Dett", "lon": "26.8666667"}, {"lat": "-20.2405556", "city": "Dewsbury", "lon": "28.3827778"}, {"lat": "-19.5166667", "city": "Dhlakapiya", "lon": "27.4833333"}, {"lat": "-19.5", "city": "Dhlamini", "lon": "27.4"}, {"lat": "-19.65", "city": "Dingandawo", "lon": "27.0833333"}, {"lat": "-19.65", "city": "Dingindawa", "lon": "27.0833333"}, {"lat": "-19.7166667", "city": "Dombo", "lon": "27.7666667"}, {"lat": "-20.1855556", "city": "Donnington", "lon": "28.5591667"}, {"lat": "-20.24", "city": "Douglasdale", "lon": "28.6419444"}, {"lat": "-20.1833333", "city": "Dunkirk", "lon": "28.4166667"}, {"lat": "-19.4833333", "city": "Eastnor", "lon": "28.5666667"}, {"lat": "-20.1163889", "city": "East Queens Park", "lon": "28.6152778"}, {"lat": "-19.5666667", "city": "Ebabeni", "lon": "27.1333333"}, {"lat": "-19.8166667", "city": "Ebizeni", "lon": "27.6833333"}, {"lat": "-19.3666667", "city": "Egagwini", "lon": "27.05"}, {"lat": "-19.6166667", "city": "Egomeni", "lon": "27.0333333"}, {"lat": "-19.85", "city": "Ehampeni", "lon": "27.7166667"}, {"lat": "-18.8166667", "city": "Elandshoek", "lon": "27.1666667"}, {"lat": "-19.4666667", "city": "Elangeni", "lon": "27.0333333"}, {"lat": "-20.22", "city": "Eloana", "lon": "28.5786111"}, {"lat": "-20.1138889", "city": "Emakhandeni", "lon": "28.5277778"}, {"lat": "-19.3833333", "city": "Emanaleni", "lon": "27.0166667"}, {"lat": "-19.4333333", "city": "Emangweni", "lon": "27.1333333"}, {"lat": "-19.4", "city": "Emateshaneni", "lon": "27.0666667"}, {"lat": "-19.4", "city": "Ematetshaneni", "lon": "27.0666667"}, {"lat": "-19.2333333", "city": "Emgolweni", "lon": "27.6"}, {"lat": "-19.6166667", "city": "Emgomeni", "lon": "27.0333333"}, {"lat": "-19.6666667", "city": "Emkayeni", "lon": "27.5666667"}, {"lat": "-19.7166667", "city": "Empafeni", "lon": "27.5833333"}, {"lat": "-19.5333333", "city": "Empisini", "lon": "27.1333333"}, {"lat": "-19.2333333", "city": "Emqolweni", "lon": "27.6"}, {"lat": "-19.2166667", "city": "Emvana", "lon": "27.5333333"}, {"lat": "-19.2166667", "city": "Emyana", "lon": "27.5333333"}, {"lat": "-19.85", "city": "Enhlangano", "lon": "27.8666667"}, {"lat": "-20.1202778", "city": "Enqameni", "lon": "28.5111111"}, {"lat": "-20.1041667", "city": "Enqotsheni", "lon": "28.5175"}, {"lat": "-19.7", "city": "Ensedhlwini", "lon": "27.4666667"}, {"lat": "-20.1252778", "city": "Entumbane", "lon": "28.5438889"}, {"lat": "-20.4", "city": "Esibomvu", "lon": "28.9"}, {"lat": "-20.3", "city": "Esigodini", "lon": "28.9333333"}, {"lat": "-20.4", "city": "Esimbomvu", "lon": "28.9"}, {"lat": "-19.4333333", "city": "Esinganeni", "lon": "27.4"}, {"lat": "-20.3", "city": "Essexvale", "lon": "28.9333333"}, {"lat": "-20.2127778", "city": "Eversley", "lon": "28.2630556"}, {"lat": "-19.4166667", "city": "Ezanguweni", "lon": "27.0333333"}, {"lat": "-20.0986111", "city": "Fagadola", "lon": "28.6116667"}, {"lat": "-20.2244444", "city": "Fairland", "lon": "28.7025"}, {"lat": "-20.1005556", "city": "Fairstar", "lon": "28.7061111"}, {"lat": "-20.1844444", "city": "Famona", "lon": "28.5861111"}, {"lat": "-20.3666667", "city": "Figtree", "lon": "28.3333333"}, {"lat": "-18.8833333", "city": "Filimons Village", "lon": "27.4166667"}, {"lat": "-19.6", "city": "Folosi", "lon": "27.1666667"}, {"lat": "-20.1216667", "city": "(( Forestvale ))", "lon": "28.5286111"}, {"lat": "-20.0166667", "city": "Fort Rixon", "lon": "29.2666667"}, {"lat": "-20.1994444", "city": "Fortunes Gate", "lon": "28.6319444"}, {"lat": "-20.4166667", "city": "Fort Usher", "lon": "28.6"}, {"lat": "-20.2222222", "city": "Four Winds", "lon": "28.5836111"}, {"lat": "-19.2166667", "city": "Fumabatshena", "lon": "27.5666667"}, {"lat": "-19.2166667", "city": "Fumbatshena", "lon": "27.5666667"}, {"lat": "-19.1833333", "city": "Funda", "lon": "27.6"}, {"lat": "-19.3666667", "city": "Gagwini", "lon": "27.05"}, {"lat": "-18.8", "city": "Gampagalale", "lon": "28.4666667"}, {"lat": "-19.5", "city": "Gawa", "lon": "27.7333333"}, {"lat": "-20.1", "city": "Gempo", "lon": "27.6666667"}, {"lat": "-19.4", "city": "Gibixegu", "lon": "26.9666667"}, {"lat": "-20.1638889", "city": "Glencoe", "lon": "28.6525"}, {"lat": "-20.1283333", "city": "Glengarry", "lon": "28.6311111"}, {"lat": "-20.0988889", "city": "Glenville", "lon": "28.5588889"}, {"lat": "-20.2186111", "city": "Granite Park", "lon": "28.5891667"}, {"lat": "-20.1944444", "city": "Greenhill", "lon": "28.5816667"}, {"lat": "-20.1277778", "city": "Greenspan", "lon": "28.5786111"}, {"lat": "-19.7", "city": "Gulakabili", "lon": "27.0666667"}, {"lat": "-19.7", "city": "Gulakibili", "lon": "27.0666667"}, {"lat": "-20.2222222", "city": "Gumtree", "lon": "28.7111111"}, {"lat": "-19.2833333", "city": "Gwaai", "lon": "27.65"}, {"lat": "-20.1083333", "city": "Gwabalanda", "lon": "28.4988889"}, {"lat": "-19.2833333", "city": "Gwai", "lon": "27.65"}, {"lat": "-20.9333333", "city": "Gwanda", "lon": "29.0"}, {"lat": "-19.45", "city": "Gwelo", "lon": "29.8166667"}, {"lat": "-18.6666667", "city": "Gwelutshena", "lon": "28.6833333"}, {"lat": "-19.2666667", "city": "Gwembgwa", "lon": "27.4"}, {"lat": "-19.2666667", "city": "Gwemga", "lon": "27.4"}, {"lat": "-19.45", "city": "Gweru", "lon": "29.8166667"}, {"lat": "-19.9333333", "city": "Gwesi", "lon": "27.7"}, {"lat": "-19.4333333", "city": "Gxobonolo", "lon": "27.2333333"}, {"lat": "-20.6833333", "city": "Halale", "lon": "28.4166667"}, {"lat": "-19.85", "city": "Hampeni", "lon": "27.7166667"}, {"lat": "-19.5166667", "city": "Hangapu", "lon": "27.5333333"}, {"lat": "-20.0905556", "city": "Harrisvale", "lon": "28.5822222"}, {"lat": "-20.0905556", "city": "Harrisville", "lon": "28.5822222"}, {"lat": "-20.0833333", "city": "Heany", "lon": "28.7833333"}, {"lat": "-20.0833333", "city": "Heany Junction", "lon": "28.7833333"}, {"lat": "-19.8", "city": "Hewu", "lon": "27.65"}, {"lat": "-20.1019444", "city": "Highmount", "lon": "28.5780556"}, {"lat": "-20.1877778", "city": "Hillcrest", "lon": "28.5938889"}, {"lat": "-20.19", "city": "Hillside East", "lon": "28.6205556"}, {"lat": "-20.1991667", "city": "Hillside", "lon": "28.6"}, {"lat": "-20.2147222", "city": "Hillside South", "lon": "28.5952778"}, {"lat": "-20.2063889", "city": "Hillside West", "lon": "28.5819444"}, {"lat": "-20.15", "city": "Hingwe", "lon": "27.3"}, {"lat": "-19.8333333", "city": "Hlananisas", "lon": "27.4"}, {"lat": "-19.85", "city": "Hlangano", "lon": "27.8666667"}, {"lat": "-20.1858333", "city": "Hope Valley", "lon": "28.7355556"}, {"lat": "-20.1494444", "city": "Hume Park", "lon": "28.5952778"}, {"lat": "-20.0933333", "city": "Hundred Acre Lots", "lon": "28.5861111"}, {"lat": "-19.15", "city": "Hunters Road", "lon": "29.8"}, {"lat": "-19.7666667", "city": "Hunts Road Halt", "lon": "28.7666667"}, {"lat": "-20.1127778", "city": "Hyde Park Estate", "lon": "28.4563889"}, {"lat": "-20.0777778", "city": "Hyde Park", "lon": "28.4294444"}, {"lat": "-20.1166667", "city": "Iiunkub", "lon": "27.65"}, {"lat": "-20.1794444", "city": "Ilanda", "lon": "28.6097222"}, {"lat": "-20.1166667", "city": "Ilunkubo", "lon": "27.65"}, {"lat": "-20.0327778", "city": "Imbesu Park", "lon": "28.7491667"}, {"lat": "-20.1491667", "city": "Iminyela", "lon": "28.5294444"}, {"lat": "-19.4666667", "city": "Ingwe", "lon": "27.0666667"}, {"lat": "-19.7833333", "city": "Insiza", "lon": "29.2"}, {"lat": "-19.3833333", "city": "Insukamini", "lon": "29.6"}, {"lat": "-20.0166667", "city": "Intabayezinduna", "lon": "28.85"}, {"lat": "-20.2286111", "city": "Intini", "lon": "28.6183333"}, {"lat": "-19.6833333", "city": "Inyati", "lon": "28.85"}, {"lat": "-20.1833333", "city": "Ireland", "lon": "28.2833333"}, {"lat": "-20.1", "city": "Jacaranda", "lon": "28.6383333"}, {"lat": "-19.2666667", "city": "Jakalasi", "lon": "27.6"}, {"lat": "-19.7666667", "city": "Jalume", "lon": "27.4"}, {"lat": "-19.2833333", "city": "Janisa", "lon": "27.45"}, {"lat": "-19.2833333", "city": "Janiza", "lon": "27.45"}, {"lat": "-20.9333333", "city": "Jawunda", "lon": "29.0"}, {"lat": "-19.5", "city": "Jimila", "lon": "27.7166667"}, {"lat": "-19.1", "city": "Jissi", "lon": "27.9666667"}, {"lat": "-18.9666667", "city": "Jojos Village", "lon": "27.4166667"}, {"lat": "-19.7666667", "city": "Jolume", "lon": "27.4"}, {"lat": "-19.6", "city": "Jowa", "lon": "27.5666667"}, {"lat": "-18.8666667", "city": "Kadelas Village", "lon": "27.4333333"}, {"lat": "-19.6666667", "city": "Kalane", "lon": "27.3333333"}, {"lat": "-18.9", "city": "Kalugus Village", "lon": "27.4666667"}, {"lat": "-20.0758333", "city": "Kame", "lon": "28.4066667"}, {"lat": "-20.2166667", "city": "Kandana", "lon": "27.7666667"}, {"lat": "-19.2666667", "city": "Kapane", "lon": "27.5166667"}, {"lat": "-19.85", "city": "Kayisa", "lon": "27.65"}, {"lat": "-20.1625", "city": "Kelvin East", "lon": "28.5388889"}, {"lat": "-20.1547222", "city": "Kelvin North", "lon": "28.5252778"}, {"lat": "-20.1641667", "city": "Kelvin West", "lon": "28.525"}, {"lat": "-19.4333333", "city": "Kenilworth Estates", "lon": "28.95"}, {"lat": "-20.1194444", "city": "Kenilworth", "lon": "28.5894444"}, {"lat": "-19.2833333", "city": "Keynshamburg", "lon": "29.6166667"}, {"lat": "-20.9166667", "city": "Kezi", "lon": "28.4666667"}, {"lat": "-20.0833333", "city": "Kilallo", "lon": "28.5905556"}, {"lat": "-20.1338889", "city": "Killarney", "lon": "28.6505556"}, {"lat": "-20.1008333", "city": "Kingsdale", "lon": "28.6102778"}, {"lat": "-19.3833333", "city": "Korodziba", "lon": "26.9166667"}, {"lat": "-20.15", "city": "Kumalo", "lon": "28.6166667"}, {"lat": "-20.1433333", "city": "Kumalo North", "lon": "28.6161111"}, {"lat": "-20.1988889", "city": "Lakeside", "lon": "28.62"}, {"lat": "-20.2166667", "city": "Lancaster", "lon": "29.3"}, {"lat": "-19.55", "city": "Lingombenetshankwe", "lon": "27.1666667"}, {"lat": "-20.1361111", "city": "Lobengula", "lon": "28.5172222"}, {"lat": "-20.1002778", "city": "Lobenvale", "lon": "28.5963889"}, {"lat": "-20.1872222", "city": "Lockview", "lon": "28.6677778"}, {"lat": "-19.5", "city": "Lonely Mine", "lon": "28.75"}, {"lat": "-19.2333333", "city": "Lower Gwelo", "lon": "29.25"}, {"lat": "-20.0355556", "city": "Lower Nondwene", "lon": "28.7044444"}, {"lat": "-20.1752778", "city": "Lower Rangemore", "lon": "28.4652778"}, {"lat": "-19.6333333", "city": "Lubesi", "lon": "27.1833333"}, {"lat": "-19.5", "city": "Lucu", "lon": "27.7333333"}, {"lat": "-19.5166667", "city": "Luhonja", "lon": "27.75"}, {"lat": "-19.5166667", "city": "Luhotswa", "lon": "27.75"}, {"lat": "-19.4833333", "city": "Lupando", "lon": "27.2333333"}, {"lat": "-18.9333333", "city": "Lupane", "lon": "27.7666667"}, {"lat": "-18.9333333", "city": "Lupani", "lon": "27.7666667"}, {"lat": "-19.75", "city": "Lupinde", "lon": "27.7833333"}, {"lat": "-19.75", "city": "Lupindi", "lon": "27.7833333"}, {"lat": "-19.4833333", "city": "Lupondo", "lon": "27.2333333"}, {"lat": "-19.0333333", "city": "Lutsha", "lon": "28.6"}, {"lat": "-20.1", "city": "Luveve", "lon": "28.5"}, {"lat": "-20.1", "city": "Luveve Native Village", "lon": "28.5"}, {"lat": "-19.85", "city": "Mabalanas", "lon": "27.4166667"}, {"lat": "-19.0833333", "city": "Mabaye", "lon": "28.7166667"}, {"lat": "-19.6666667", "city": "Mabele", "lon": "27.4166667"}, {"lat": "-19.6666667", "city": "Mabiriya", "lon": "27.25"}, {"lat": "-20.1425", "city": "Mabutweni", "lon": "28.5316667"}, {"lat": "-19.35", "city": "Mademauli", "lon": "27.6333333"}, {"lat": "-19.4", "city": "Madhlosi", "lon": "27.6666667"}, {"lat": "-19.75", "city": "Madona", "lon": "27.7666667"}, {"lat": "-19.85", "city": "Madubus", "lon": "27.3833333"}, {"lat": "-19.4", "city": "Mafayfa", "lon": "28.4"}, {"lat": "-19.8833333", "city": "Mafusini", "lon": "27.6166667"}, {"lat": "-19.0166667", "city": "Magazi", "lon": "28.5333333"}, {"lat": "-19.7666667", "city": "Magodi Masili", "lon": "27.3166667"}, {"lat": "-20.1369444", "city": "Magwegwe", "lon": "28.5058333"}, {"lat": "-20.1225", "city": "Magwegwe North", "lon": "28.4955556"}, {"lat": "-20.1316667", "city": "Magwegwe West", "lon": "28.4947222"}, {"lat": "-19.8", "city": "Mahanzwa", "lon": "27.8333333"}, {"lat": "-19.35", "city": "Mahlalayedwa", "lon": "27.0166667"}, {"lat": "-19.4", "city": "Mahlosi", "lon": "27.6666667"}, {"lat": "-19.3833333", "city": "Majabane", "lon": "27.4666667"}, {"lat": "-19.4333333", "city": "Majabani", "lon": "27.5"}, {"lat": "-19.2166667", "city": "Majumi", "lon": "27.7"}, {"lat": "-19.9333333", "city": "Makhaza", "lon": "27.65"}, {"lat": "-20.1419444", "city": "Makokoba", "lon": "28.5752778"}, {"lat": "-19.4666667", "city": "Mako", "lon": "27.6666667"}, {"lat": "-19.7333333", "city": "Makulugusi", "lon": "27.6"}, {"lat": "-19.7333333", "city": "Makulukusa", "lon": "27.6"}, {"lat": "-19.9333333", "city": "Makvlela", "lon": "27.2333333"}, {"lat": "-19.8333333", "city": "Malanda", "lon": "27.6333333"}, {"lat": "-19.2", "city": "Malila", "lon": "27.6666667"}, {"lat": "-20.185", "city": "Malindela", "lon": "28.6011111"}, {"lat": "-19.5166667", "city": "Malindi", "lon": "27.65"}, {"lat": "-19.3", "city": "Maloba", "lon": "27.6333333"}, {"lat": "-19.2833333", "city": "Malvulashaba", "lon": "27.3333333"}, {"lat": "-19.3666667", "city": "Manala", "lon": "26.9833333"}, {"lat": "-19.8", "city": "Mananzwa", "lon": "27.8333333"}, {"lat": "-20.0833333", "city": "Mandau", "lon": "28.2677778"}, {"lat": "-19.4166667", "city": "Manguta", "lon": "27.3333333"}, {"lat": "-19.1833333", "city": "Mangwalu", "lon": "27.6833333"}, {"lat": "-19.1833333", "city": "Mangwatu", "lon": "27.6833333"}, {"lat": "-20.7", "city": "Mangwe", "lon": "28.0666667"}, {"lat": "-19.4333333", "city": "Mangweni", "lon": "27.1333333"}, {"lat": "-19.2666667", "city": "Manjelengwa", "lon": "27.3666667"}, {"lat": "-19.4833333", "city": "Mankonekaze", "lon": "27.55"}, {"lat": "-19.4833333", "city": "Mankonekazi", "lon": "27.55"}, {"lat": "-20.2122222", "city": "Manningdale", "lon": "28.6816667"}, {"lat": "-19.4833333", "city": "Manondweni", "lon": "27.2833333"}, {"lat": "-19.4333333", "city": "Manzamahle", "lon": "27.6333333"}, {"lat": "-19.4333333", "city": "Manzemuhle", "lon": "27.6333333"}, {"lat": "-19.3666667", "city": "Mapengula", "lon": "27.4333333"}, {"lat": "-19.4166667", "city": "Mapili", "lon": "27.7166667"}, {"lat": "-19.6", "city": "Mapulubusi", "lon": "27.7666667"}, {"lat": "-20.1683333", "city": "Marlands", "lon": "28.6713889"}, {"lat": "-20.1369444", "city": "Marvel A", "lon": "28.6508333"}, {"lat": "-20.1191667", "city": "Marvel", "lon": "28.6447222"}, {"lat": "-19.35", "city": "Mashula", "lon": "27.3833333"}, {"lat": "-19.35", "city": "Mashule", "lon": "27.3833333"}, {"lat": "-19.4166667", "city": "Masilingana", "lon": "27.1666667"}, {"lat": "-19.3", "city": "Maswi", "lon": "27.5166667"}, {"lat": "-19.4333333", "city": "Matapula", "lon": "27.7"}, {"lat": "-19.4666667", "city": "Matemaganya", "lon": "27.4666667"}, {"lat": "-19.35", "city": "Matemawule", "lon": "27.6333333"}, {"lat": "-19.9666667", "city": "Matiwaza", "lon": "27.4"}, {"lat": "-20.4166667", "city": "Matobo", "lon": "28.4833333"}, {"lat": "-19.65", "city": "Matole", "lon": "27.55"}, {"lat": "-20.4166667", "city": "Matombo", "lon": "28.4833333"}, {"lat": "-20.4166667", "city": "Matopos", "lon": "28.4833333"}, {"lat": "-20.1833333", "city": "Matsheumhlope Lots", "lon": "28.6333333"}, {"lat": "-20.1930556", "city": "Matsheumhlope", "lon": "28.6361111"}, {"lat": "-20.1380556", "city": "Matshobana", "lon": "28.5525"}, {"lat": "-19.7666667", "city": "Matshwaheni", "lon": "27.6166667"}, {"lat": "-19.7666667", "city": "Matswaheni", "lon": "27.6166667"}, {"lat": "-19.4333333", "city": "Matupula", "lon": "27.7"}, {"lat": "-18.6166667", "city": "Mavele", "lon": "27.1666667"}, {"lat": "-19.7", "city": "Mazabisa", "lon": "27.65"}, {"lat": "-19.7", "city": "Mazabiza", "lon": "27.65"}, {"lat": "-19.3333333", "city": "Mazanzi", "lon": "27.6333333"}, {"lat": "-19.5", "city": "Mazhula", "lon": "28.75"}, {"lat": "-19.4666667", "city": "Mazibulala", "lon": "27.3166667"}, {"lat": "-19.4166667", "city": "Mazilingana", "lon": "27.1666667"}, {"lat": "-19.9166667", "city": "Mbamba", "lon": "27.7833333"}, {"lat": "-19.3333333", "city": "Mbanuana", "lon": "27.65"}, {"lat": "-19.3333333", "city": "Mbanyana", "lon": "27.65"}, {"lat": "-20.0", "city": "Mbembezi", "lon": "28.9333333"}, {"lat": "-19.6666667", "city": "Mbiriya", "lon": "27.25"}, {"lat": "-19.2166667", "city": "Mbiza", "lon": "27.5166667"}, {"lat": "-19.2166667", "city": "Mbizo", "lon": "27.5166667"}, {"lat": "-19.35", "city": "Mcetshwa", "lon": "27.6"}, {"lat": "-19.7666667", "city": "Mgodi Masili", "lon": "27.3166667"}, {"lat": "-20.0511111", "city": "Miasi", "lon": "28.2694444"}, {"lat": "-19.2833333", "city": "Miketwa", "lon": "27.6666667"}, {"lat": "-20.2047222", "city": "Millievale", "lon": "28.3422222"}, {"lat": "-19.2166667", "city": "Mjumi", "lon": "27.7"}, {"lat": "-19.5666667", "city": "Mkauzaan", "lon": "27.0666667"}, {"lat": "-19.6666667", "city": "Mkayeni", "lon": "27.5666667"}, {"lat": "-19.2833333", "city": "Mketwa", "lon": "27.6666667"}, {"lat": "-19.4666667", "city": "Mkoba", "lon": "29.75"}, {"lat": "-19.6333333", "city": "Mkombo", "lon": "27.7166667"}, {"lat": "-19.6333333", "city": "Mkubazi", "lon": "27.6833333"}, {"lat": "-19.4833333", "city": "Monema", "lon": "27.45"}, {"lat": "-20.0977778", "city": "Montgomery", "lon": "28.6808333"}, {"lat": "-20.2008333", "city": "Montrose", "lon": "28.5675"}, {"lat": "-20.2019444", "city": "Morningside", "lon": "28.5772222"}, {"lat": "-19.4833333", "city": "Mowonema", "lon": "27.45"}, {"lat": "-19.4833333", "city": "Moyeni", "lon": "27.6166667"}, {"lat": "-19.7166667", "city": "Mpafani", "lon": "27.5833333"}, {"lat": "-20.6166667", "city": "Mpate", "lon": "28.4"}, {"lat": "-21.2", "city": "Mphoeng", "lon": "27.85"}, {"lat": "-21.2", "city": "Mphoengs", "lon": "27.85"}, {"lat": "-21.2", "city": "Mphoweng", "lon": "27.85"}, {"lat": "-19.6666667", "city": "Mpilo", "lon": "26.9666667"}, {"lat": "-19.1333333", "city": "Mpinjwana", "lon": "27.65"}, {"lat": "-19.1333333", "city": "Mpinjwani", "lon": "27.65"}, {"lat": "-20.145", "city": "Mpopoma", "lon": "28.5408333"}, {"lat": "-20.1525", "city": "Mpopomo South", "lon": "28.5366667"}, {"lat": "-19.6", "city": "Mpulubuzi", "lon": "27.7666667"}, {"lat": "-19.5833333", "city": "Mswiganas Kraal", "lon": "27.4666667"}, {"lat": "-19.4833333", "city": "Mtampane", "lon": "27.3666667"}, {"lat": "-18.95", "city": "Mtawalos Village", "lon": "27.5166667"}, {"lat": "-19.4666667", "city": "Mtemaganyu", "lon": "27.4666667"}, {"lat": "-19.65", "city": "Mtole", "lon": "27.55"}, {"lat": "-19.3166667", "city": "Mtshayeli", "lon": "27.3333333"}, {"lat": "-19.9666667", "city": "Mtsuli", "lon": "27.4166667"}, {"lat": "-20.3666667", "city": "Mulujawane", "lon": "28.9833333"}, {"lat": "-20.3666667", "city": "Mulujawane Siding", "lon": "28.9833333"}, {"lat": "-20.3666667", "city": "Mulungwane", "lon": "28.9833333"}, {"lat": "-20.2294444", "city": "Munda", "lon": "28.6111111"}, {"lat": "-19.7833333", "city": "Mvudhlana", "lon": "27.7833333"}, {"lat": "-19.7833333", "city": "Mvundhlana", "lon": "27.7833333"}, {"lat": "-19.4833333", "city": "Mzenzi", "lon": "27.05"}, {"lat": "-19.5833333", "city": "Mzilikazi", "lon": "27.1333333"}, {"lat": "-19.5166667", "city": "Nakabindana", "lon": "27.2333333"}, {"lat": "-20.1666667", "city": "Napemando", "lon": "27.6"}, {"lat": "-19.95", "city": "Ndolwane", "lon": "27.3333333"}, {"lat": "-19.6666667", "city": "Nembe", "lon": "27.7"}, {"lat": "-20.1063889", "city": "Newmansford", "lon": "28.6058333"}, {"lat": "-20.2216667", "city": "Newton", "lon": "28.5738889"}, {"lat": "-20.2141667", "city": "Newton West", "lon": "28.5583333"}, {"lat": "-19.35", "city": "Ngiki", "lon": "28.4666667"}, {"lat": "-19.7", "city": "Ngoku", "lon": "27.5"}, {"lat": "-19.6166667", "city": "Ngoma", "lon": "27.5166667"}, {"lat": "-20.1402778", "city": "Nguboyenia", "lon": "28.5644444"}, {"lat": "-19.7", "city": "Ngulalikashi", "lon": "27.0833333"}, {"lat": "-19.4666667", "city": "Nigonenanse", "lon": "27.2"}, {"lat": "-19.55", "city": "Ningombeneshango", "lon": "27.1666667"}, {"lat": "-19.4666667", "city": "Ningombenonzi", "lon": "27.2"}, {"lat": "-19.5333333", "city": "Nintila", "lon": "27.1"}, {"lat": "-19.5333333", "city": "Nintili", "lon": "27.1"}, {"lat": "-19.4666667", "city": "Nizhou", "lon": "27.3666667"}, {"lat": "-19.4666667", "city": "Nizhowu", "lon": "27.3666667"}, {"lat": "-20.1361111", "city": "Njube", "lon": "28.5325"}, {"lat": "-19.0", "city": "Nkai", "lon": "28.9"}, {"lat": "-19.5666667", "city": "Nkanzaan", "lon": "27.0666667"}, {"lat": "-19.0", "city": "Nkayi", "lon": "28.9"}, {"lat": "-20.1975", "city": "Nketa", "lon": "28.5319444"}, {"lat": "-19.45", "city": "Nkosikazi", "lon": "27.25"}, {"lat": "-20.185", "city": "Nkulumane", "lon": "28.5169444"}, {"lat": "-19.55", "city": "Nkwichu", "lon": "27.75"}, {"lat": "-19.55", "city": "Nkwizhu", "lon": "27.75"}, {"lat": "-20.1316667", "city": "North End", "lon": "28.5911111"}, {"lat": "-20.1033333", "city": "Northgate", "lon": "28.6066667"}, {"lat": "-20.1013889", "city": "Northlea", "lon": "28.6452778"}, {"lat": "-20.0936111", "city": "North Lynne", "lon": "28.5977778"}, {"lat": "-20.0811111", "city": "North Trenance Estate", "lon": "28.5688889"}, {"lat": "-20.0811111", "city": "North Trenance", "lon": "28.5688889"}, {"lat": "-20.6", "city": "Npuma", "lon": "28.3833333"}, {"lat": "-19.3833333", "city": "Nsukumini", "lon": "29.6"}, {"lat": "-20.2277778", "city": "Ntaba Moya", "lon": "28.6380556"}, {"lat": "-20.0166667", "city": "Ntabazinduna", "lon": "28.85"}, {"lat": "-19.4", "city": "Ntakwa", "lon": "27.2833333"}, {"lat": "-19.4833333", "city": "Ntampane", "lon": "27.3666667"}, {"lat": "-19.4", "city": "Ntawha", "lon": "27.2833333"}, {"lat": "-19.3333333", "city": "Ntulula", "lon": "27.5"}, {"lat": "-19.2833333", "city": "Ntumbuwamayi", "lon": "27.6333333"}, {"lat": "-19.2833333", "city": "Ntumbuyamai", "lon": "27.6333333"}, {"lat": "-19.3", "city": "Nxabamude", "lon": "27.4166667"}, {"lat": "-19.5", "city": "Nyadzi", "lon": "27.0666667"}, {"lat": "-19.85", "city": "Nyakatha", "lon": "27.7833333"}, {"lat": "-19.8666667", "city": "Nyamandhlovu", "lon": "28.2666667"}, {"lat": "-19.8666667", "city": "Nyamandholovu", "lon": "28.2666667"}, {"lat": "-19.5", "city": "Nyanganyeni", "lon": "27.1"}, {"lat": "-19.5", "city": "Nyanganyuni", "lon": "27.1"}, {"lat": "-20.2086111", "city": "One Hundred Acre Lots", "lon": "28.7213889"}, {"lat": "-20.1033333", "city": "Orange Grove", "lon": "28.6219444"}, {"lat": "-20.1411111", "city": "Paddonhurst", "lon": "28.6"}, {"lat": "-19.0166667", "city": "Pakana", "lon": "28.55"}, {"lat": "-20.1444444", "city": "Pamula", "lon": "28.4733333"}, {"lat": "-20.1422222", "city": "Parklands", "lon": "28.6227778"}, {"lat": "-20.1458333", "city": "Parkview", "lon": "28.5947222"}, {"lat": "-19.65", "city": "Patalika", "lon": "27.05"}, {"lat": "-20.1483333", "city": "Pelandaba", "lon": "28.5211111"}, {"lat": "-19.65", "city": "Pelela", "lon": "27.15"}, {"lat": "-19.5333333", "city": "Pelendaba", "lon": "26.9166667"}, {"lat": "-19.9333333", "city": "Pembe", "lon": "27.2666667"}, {"lat": "-20.2333333", "city": "Pendennis", "lon": "28.3333333"}, {"lat": "-20.4833333", "city": "Plumtree", "lon": "27.8166667"}, {"lat": "-19.5833333", "city": "Pondo", "lon": "27.6666667"}, {"lat": "-20.1444444", "city": "Pumula African Township", "lon": "28.4733333"}, {"lat": "-20.1469444", "city": "Pumula East", "lon": "28.4922222"}, {"lat": "-20.1375", "city": "Pumula North", "lon": "28.4858333"}, {"lat": "-19.3333333", "city": "Pumula", "lon": "27.5333333"}, {"lat": "-19.2666667", "city": "Qedajaha", "lon": "27.4333333"}, {"lat": "-19.2666667", "city": "Quedajaha", "lon": "27.4333333"}, {"lat": "-20.095", "city": "Queensdale", "lon": "28.6127778"}, {"lat": "-19.8", "city": "Queens Mine", "lon": "28.75"}, {"lat": "-20.1852778", "city": "Rangemore", "lon": "28.495"}, {"lat": "-20.1627778", "city": "Raylton", "lon": "28.5686111"}, {"lat": "-19.0333333", "city": "Redcliffe", "lon": "29.7833333"}, {"lat": "-19.0333333", "city": "Redcliff", "lon": "29.7833333"}, {"lat": "-20.0875", "city": "Reigate", "lon": "28.635"}, {"lat": "-20.085", "city": "Richmond", "lon": "28.5519444"}, {"lat": "-20.1883333", "city": "Riverside Estates", "lon": "28.6516667"}, {"lat": "-20.1808333", "city": "Riverside North", "lon": "28.6491667"}, {"lat": "-20.2144444", "city": "Riverside South", "lon": "28.6525"}, {"lat": "-20.1366667", "city": "Robert Sinyoka", "lon": "28.4569444"}, {"lat": "-20.1366667", "city": "Robert Sinyoka Suburb", "lon": "28.4569444"}, {"lat": "-20.1230556", "city": "Romney Park", "lon": "28.6097222"}, {"lat": "-19.3666667", "city": "Rosmalind", "lon": "29.5666667"}, {"lat": "-20.1194444", "city": "Rowena", "lon": "28.5838889"}, {"lat": "-20.9166667", "city": "Sablevale", "lon": "28.95"}, {"lat": "-20.9166667", "city": "Sableville", "lon": "28.95"}, {"lat": "-19.6333333", "city": "Sahlupeka", "lon": "27.1"}, {"lat": "-19.55", "city": "Salankomo", "lon": "27.05"}, {"lat": "-19.6333333", "city": "Samlupeka", "lon": "27.1"}, {"lat": "-19.6833333", "city": "Sandawana", "lon": "27.3833333"}, {"lat": "-20.1111111", "city": "Sauers", "lon": "28.5969444"}, {"lat": "-20.1111111", "city": "Sauers Town", "lon": "28.5969444"}, {"lat": "-20.1111111", "city": "Sauers Township", "lon": "28.5969444"}, {"lat": "-20.1075", "city": "Sauers Town West", "lon": "28.5919444"}, {"lat": "-19.5833333", "city": "Sawmills", "lon": "28.0333333"}, {"lat": "-19.7", "city": "Sedhlwini", "lon": "27.4666667"}, {"lat": "-19.4833333", "city": "Semawuru", "lon": "27.1833333"}, {"lat": "-19.5", "city": "Senka", "lon": "29.75"}, {"lat": "-19.1833333", "city": "Sewela", "lon": "27.5166667"}, {"lat": "-20.05", "city": "Shaba", "lon": "27.7666667"}, {"lat": "-19.0", "city": "Shangani", "lon": "28.9"}, {"lat": "-20.2166667", "city": "Shawila", "lon": "27.2833333"}, {"lat": "-21.0833333", "city": "Sheleni", "lon": "27.7166667"}, {"lat": "-20.15", "city": "Shingwe", "lon": "27.3"}, {"lat": "-19.7666667", "city": "Shololezhou", "lon": "27.75"}, {"lat": "-19.35", "city": "Sibanjiba", "lon": "27.4"}, {"lat": "-19.6666667", "city": "Sibunkululu", "lon": "27.6166667"}, {"lat": "-19.45", "city": "Sigwini", "lon": "27.0666667"}, {"lat": "-19.4", "city": "Sihazela", "lon": "27.2"}, {"lat": "-19.8333333", "city": "Sikende", "lon": "27.2166667"}, {"lat": "-20.2333333", "city": "Silisi", "lon": "27.3"}, {"lat": "-18.9833333", "city": "Silobela", "lon": "29.3"}, {"lat": "-19.5666667", "city": "Silonkwe", "lon": "27.0333333"}, {"lat": "-19.4333333", "city": "Sinangeti", "lon": "27.4"}, {"lat": "-19.25", "city": "Sipongweni", "lon": "27.7166667"}, {"lat": "-19.45", "city": "Siqwini", "lon": "27.0666667"}, {"lat": "-19.9166667", "city": "Siringa", "lon": "27.3666667"}, {"lat": "-19.1666667", "city": "Sitambala", "lon": "27.5166667"}, {"lat": "-19.1666667", "city": "Sitambarara", "lon": "27.5166667"}, {"lat": "-19.1833333", "city": "Siwela", "lon": "27.5166667"}, {"lat": "-19.7333333", "city": "Siwila", "lon": "27.7166667"}, {"lat": "-19.7333333", "city": "Siwile", "lon": "27.7166667"}, {"lat": "-20.0333333", "city": "Siyangiya", "lon": "27.7666667"}, {"lat": "-20.1727778", "city": "Sizinda", "lon": "28.5427778"}, {"lat": "-19.4", "city": "Sodaka", "lon": "27.0833333"}, {"lat": "-19.5666667", "city": "Solonkwe", "lon": "27.0333333"}, {"lat": "-19.2", "city": "Somkaya", "lon": "27.6166667"}, {"lat": "-19.55", "city": "Somlata", "lon": "27.4166667"}, {"lat": "-19.55", "city": "Somlota", "lon": "27.4166667"}, {"lat": "-19.7", "city": "Somqibe", "lon": "27.6833333"}, {"lat": "-19.7", "city": "Somquibe", "lon": "27.6833333"}, {"lat": "-19.7833333", "city": "Sontamba", "lon": "27.6833333"}, {"lat": "-19.7833333", "city": "Sontambo", "lon": "27.6833333"}, {"lat": "-20.2280556", "city": "Southdale", "lon": "28.6294444"}, {"lat": "-20.1980556", "city": "Southwold", "lon": "28.5586111"}, {"lat": "-19.8333333", "city": "Spingwini", "lon": "27.7833333"}, {"lat": "-20.1591667", "city": "Steeldale", "lon": "28.56"}, {"lat": "-20.1583333", "city": "Suburbs", "lon": "28.6011111"}, {"lat": "-20.1747222", "city": "Sunninghill", "lon": "28.6627778"}, {"lat": "-20.1311111", "city": "Sunnyside", "lon": "28.6030556"}, {"lat": "-19.65", "city": "Susmani", "lon": "27.65"}, {"lat": "-19.65", "city": "Susumani", "lon": "27.65"}, {"lat": "-20.0619444", "city": "Tabas Induna", "lon": "28.7194444"}, {"lat": "-19.3166667", "city": "Tamhla", "lon": "27.6833333"}, {"lat": "-19.3166667", "city": "Tamuhle", "lon": "27.6833333"}, {"lat": "-19.6333333", "city": "Tankahokwe", "lon": "27.0666667"}, {"lat": "-19.6333333", "city": "Tankahukwe", "lon": "27.0666667"}, {"lat": "-20.1230556", "city": "Tegela", "lon": "28.6027778"}, {"lat": "-19.7", "city": "Tembile", "lon": "27.0333333"}, {"lat": "-19.7", "city": "Tembili", "lon": "27.0333333"}, {"lat": "-20.0297222", "city": "The Helenvale Block", "lon": "28.4641667"}, {"lat": "-20.0927778", "city": "The Jungle", "lon": "28.5744444"}, {"lat": "-20.1491667", "city": "The Springs", "lon": "28.7372222"}, {"lat": "-20.1472222", "city": "Thorngrove", "lon": "28.5644444"}, {"lat": "-19.2666667", "city": "Tjagacuhle", "lon": "27.55"}, {"lat": "-19.7666667", "city": "Tjolotjo", "lon": "27.75"}, {"lat": "-19.0166667", "city": "Torwood", "lon": "29.7333333"}, {"lat": "-20.0811111", "city": "Trenance", "lon": "28.5688889"}, {"lat": "-19.6666667", "city": "Tsetseri", "lon": "27.1333333"}, {"lat": "-20.1788889", "city": "Tshabalala", "lon": "28.5341667"}, {"lat": "-20.1166667", "city": "Tshabanda", "lon": "27.9"}, {"lat": "-19.25", "city": "Tshakapika", "lon": "27.6333333"}, {"lat": "-19.3166667", "city": "Tshayile", "lon": "27.3333333"}, {"lat": "-19.1666667", "city": "Tshefu Tshefu", "lon": "27.5833333"}, {"lat": "-19.5333333", "city": "Tshibizena", "lon": "27.2833333"}, {"lat": "-19.5333333", "city": "Tshibizina", "lon": "27.2833333"}, {"lat": "-19.4166667", "city": "Tshino", "lon": "27.6333333"}, {"lat": "-19.4166667", "city": "Tshinu", "lon": "27.6333333"}, {"lat": "-19.6833333", "city": "Tshitashwana", "lon": "27.4333333"}, {"lat": "-19.6833333", "city": "Tshitatshawa", "lon": "27.4333333"}, {"lat": "-19.45", "city": "Tshiyakwakiwe", "lon": "27.0166667"}, {"lat": "-19.45", "city": "Tshiyakwakwe", "lon": "27.0166667"}, {"lat": "-19.7666667", "city": "Tsholotsho", "lon": "27.75"}, {"lat": "-19.6666667", "city": "Tstetseri", "lon": "27.1333333"}, {"lat": "-19.5333333", "city": "Tulamela", "lon": "27.2166667"}, {"lat": "-19.5333333", "city": "Tulamila", "lon": "27.2166667"}, {"lat": "-19.7166667", "city": "Turk Mine", "lon": "28.8"}, {"lat": "-20.2016667", "city": "Umganine", "lon": "28.5344444"}, {"lat": "-20.2016667", "city": "Umganin", "lon": "28.5344444"}, {"lat": "-20.075", "city": "Umgusa Estate", "lon": "28.5852778"}, {"lat": "-20.075", "city": "Umgusa", "lon": "28.5852778"}, {"lat": "-20.075", "city": "Umguza Estate", "lon": "28.5852778"}, {"lat": "-20.075", "city": "Umguza", "lon": "28.5852778"}, {"lat": "-20.0519444", "city": "Umvutcha A", "lon": "28.5886111"}, {"lat": "-20.0669444", "city": "Umvutcha", "lon": "28.5813889"}, {"lat": "-20.0930556", "city": "Upper Glenville", "lon": "28.5538889"}, {"lat": "-20.1986111", "city": "Upper Rangemore", "lon": "28.4891667"}, {"lat": "-20.3833333", "city": "Usher Institute", "lon": "28.2166667"}, {"lat": "-19.1333333", "city": "Vozheka", "lon": "27.5333333"}, {"lat": "-19.1333333", "city": "Vozueka", "lon": "27.5333333"}, {"lat": "-19.2833333", "city": "Vulashaba", "lon": "27.3333333"}, {"lat": "-20.2280556", "city": "Waterford", "lon": "28.6594444"}, {"lat": "-20.0961111", "city": "Waterlea", "lon": "28.6227778"}, {"lat": "-20.2255556", "city": "Welcome", "lon": "28.2788889"}, {"lat": "-20.1675", "city": "Westgate", "lon": "28.5563889"}, {"lat": "-20.1555556", "city": "Westondale", "lon": "28.5538889"}, {"lat": "-20.1136111", "city": "West Queens Park", "lon": "28.6047222"}, {"lat": "-19.3666667", "city": "Wha Wha", "lon": "30.0166667"}, {"lat": "-20.205", "city": "Whitecairns", "lon": "28.595"}, {"lat": "-20.2069444", "city": "White Star", "lon": "28.6097222"}, {"lat": "-20.1652778", "city": "Willsgrove", "lon": "28.6794444"}, {"lat": "-20.1", "city": "Windsor Park", "lon": "28.55"}, {"lat": "-20.1708333", "city": "Woodlands", "lon": "28.6180556"}, {"lat": "-20.1063889", "city": "Woodville Park", "lon": "28.6527778"}, {"lat": "-20.1005556", "city": "Woodville South", "lon": "28.6527778"}, {"lat": "-20.08", "city": "Woodville", "lon": "28.6583333"}, {"lat": "-19.3", "city": "Xabamude", "lon": "27.4166667"}, {"lat": "-19.4833333", "city": "Xanixani", "lon": "27.4333333"}, {"lat": "-19.4833333", "city": "Xhani Xhani", "lon": "27.4333333"}, {"lat": "-19.4333333", "city": "Xoboholo", "lon": "27.2333333"}, {"lat": "-19.3", "city": "Xotjeni", "lon": "27.5333333"}, {"lat": "-19.5833333", "city": "Zabagwadi", "lon": "27.7333333"}, {"lat": "-19.4166667", "city": "Zamqaweni", "lon": "27.0333333"}, {"lat": "-19.1833333", "city": "Zandile", "lon": "27.4666667"}, {"lat": "-19.1833333", "city": "Zandi", "lon": "27.4666667"}, {"lat": "-19.4333333", "city": "Zemalapala", "lon": "27.55"}, {"lat": "-19.4333333", "city": "Zemandana", "lon": "27.5166667"}, {"lat": "-19.45", "city": "Zemanda", "lon": "27.5166667"}, {"lat": "-19.8333333", "city": "Zibalonkwe", "lon": "27.4666667"}, {"lat": "-19.6666667", "city": "Zibunkululu", "lon": "27.6166667"}, {"lat": "-19.2166667", "city": "Ziga", "lon": "27.4833333"}, {"lat": "-20.0333333", "city": "Zuzumba", "lon": "27.9333333"}], "07": [{"lat": "-20.4194444", "city": "Angus Ranch", "lon": "31.9638889"}, {"lat": "-20.8", "city": "Avoca", "lon": "29.5333333"}, {"lat": "-20.3", "city": "Babblespruit", "lon": "32.6166667"}, {"lat": "-20.45", "city": "Balabala", "lon": "29.05"}, {"lat": "-20.45", "city": "Balla Balla", "lon": "29.05"}, {"lat": "-20.2805556", "city": "Bannockburn", "lon": "29.8847222"}, {"lat": "-22.2166667", "city": "Beitbridge", "lon": "30.0"}, {"lat": "-20.4833333", "city": "Belingwe", "lon": "29.9166667"}, {"lat": "-20.3333333", "city": "Beswota", "lon": "32.5"}, {"lat": "-20.0833333", "city": "Bikita", "lon": "31.6166667"}, {"lat": "-19.9666667", "city": "Birchenough Bridge", "lon": "32.3333333"}, {"lat": "-21.15", "city": "Bivis", "lon": "31.2833333"}, {"lat": "-20.6027778", "city": "Bota", "lon": "31.3972222"}, {"lat": "-21.0166667", "city": "Buffalo Range", "lon": "31.5333333"}, {"lat": "-19.55", "city": "Cashel", "lon": "32.7833333"}, {"lat": "-22.15", "city": "Chabili", "lon": "30.6333333"}, {"lat": "-22.0166667", "city": "Chafutchi", "lon": "30.1666667"}, {"lat": "-22.1166667", "city": "Chamnanga", "lon": "30.0666667"}, {"lat": "-19.6333333", "city": "Chatsworth", "lon": "30.8333333"}, {"lat": "-20.3166667", "city": "Chibi", "lon": "30.5166667"}, {"lat": "-20.55", "city": "Chibuwe", "lon": "32.4"}, {"lat": "-20.4166667", "city": "Chichindwe", "lon": "32.1"}, {"lat": "-19.9166667", "city": "Chikomo", "lon": "30.05"}, {"lat": "-19.5833333", "city": "Chilimanzi", "lon": "30.75"}, {"lat": "-19.8", "city": "Chimanimani", "lon": "32.8666667"}, {"lat": "-20.2", "city": "Chipinga", "lon": "32.6166667"}, {"lat": "-20.2", "city": "Chipinge", "lon": "32.6166667"}, {"lat": "-22.2333333", "city": "Chipise", "lon": "30.9333333"}, {"lat": "-21.05", "city": "Chiredzi", "lon": "31.6666667"}, {"lat": "-19.5833333", "city": "Chirimuanzu", "lon": "30.75"}, {"lat": "-20.55", "city": "Chiso", "lon": "31.3166667"}, {"lat": "-20.8", "city": "Chisumbanje", "lon": "32.2333333"}, {"lat": "-20.55", "city": "Chitofa", "lon": "30.5333333"}, {"lat": "-19.6666667", "city": "Churugwi", "lon": "30.0"}, {"lat": "-20.05", "city": "Clovelly", "lon": "30.8"}, {"lat": "-21.0", "city": "Colleen Bawn", "lon": "29.2166667"}, {"lat": "-20.4333333", "city": "Craigmore", "lon": "32.4833333"}, {"lat": "-20.5666667", "city": "Croft Mine", "lon": "29.3333333"}, {"lat": "-19.7166667", "city": "Daisyfield", "lon": "29.5"}, {"lat": "-20.3166667", "city": "Dzorora", "lon": "32.7333333"}, {"lat": "-20.5333333", "city": "Emfelabuso", "lon": "29.2833333"}, {"lat": "-19.4833333", "city": "Felixburg", "lon": "30.7833333"}, {"lat": "-20.5333333", "city": "Filabusi", "lon": "29.2833333"}, {"lat": "-21.4333333", "city": "Fishan", "lon": "32.0333333"}, {"lat": "-20.0833333", "city": "Fort Victoria", "lon": "30.8333333"}, {"lat": "-20.5166667", "city": "Fred Mine", "lon": "29.3166667"}, {"lat": "-20.2372222", "city": "Fresnaye", "lon": "28.7461111"}, {"lat": "-20.0166667", "city": "Gaths Mine", "lon": "30.5166667"}, {"lat": "-20.6491667", "city": "Glass Block", "lon": "29.1513889"}, {"lat": "-19.9666667", "city": "Glencova", "lon": "31.4333333"}, {"lat": "-20.6986111", "city": "Glendevon", "lon": "31.625"}, {"lat": "-20.1666667", "city": "Glenlivet", "lon": "31.0833333"}, {"lat": "-20.15", "city": "Greystone", "lon": "29.5333333"}, {"lat": "-19.5333333", "city": "Guinea Fowl", "lon": "29.9333333"}, {"lat": "-19.65", "city": "Gutu", "lon": "31.1666667"}, {"lat": "-21.1666667", "city": "Hippo Valley", "lon": "31.55"}, {"lat": "-19.65", "city": "Hot Springs", "lon": "32.4666667"}, {"lat": "-21.7", "city": "Hwali", "lon": "29.2"}, {"lat": "-20.5666667", "city": "Ingesi", "lon": "30.4"}, {"lat": "-20.5666667", "city": "Ingezi", "lon": "30.4"}, {"lat": "-20.5163889", "city": "Irisvale Halt", "lon": "29.0555556"}, {"lat": "-20.3666667", "city": "Ivorie", "lon": "32.6"}, {"lat": "-20.4", "city": "Jerera", "lon": "31.45"}, {"lat": "-20.1666667", "city": "Junction Gate", "lon": "32.7833333"}, {"lat": "-19.5166667", "city": "Junction Tea Room", "lon": "32.55"}, {"lat": "-21.6333333", "city": "Kapateni", "lon": "32.1"}, {"lat": "-20.0327778", "city": "Kashambi", "lon": "29.8847222"}, {"lat": "-20.0833333", "city": "King Mine", "lon": "30.5333333"}, {"lat": "-20.0833333", "city": "Kings Mine", "lon": "30.5333333"}, {"lat": "-19.7166667", "city": "Kubiko", "lon": "31.8333333"}, {"lat": "-21.4166667", "city": "Legion", "lon": "28.5333333"}, {"lat": "-21.4166667", "city": "Legion Mine", "lon": "28.5333333"}, {"lat": "-20.3166667", "city": "Luipaards Vlei", "lon": "32.65"}, {"lat": "-20.8994444", "city": "Lundi", "lon": "30.7861111"}, {"lat": "-22.0833333", "city": "Lutombe", "lon": "30.15"}, {"lat": "-20.9277778", "city": "Mabuze", "lon": "29.4416667"}, {"lat": "-21.85", "city": "Machachuta", "lon": "29.35"}, {"lat": "-21.9166667", "city": "Madonga", "lon": "29.3666667"}, {"lat": "-21.9666667", "city": "Makado", "lon": "29.5833333"}, {"lat": "-21.4333333", "city": "Makokwe", "lon": "28.8555556"}, {"lat": "-22.0666667", "city": "Malapati", "lon": "31.4166667"}, {"lat": "-20.3833333", "city": "Malhera", "lon": "32.25"}, {"lat": "-20.1166667", "city": "Mandamambge", "lon": "30.3666667"}, {"lat": "-20.1166667", "city": "Mandamombge", "lon": "30.3666667"}, {"lat": "-19.8", "city": "Mandidzudzure", "lon": "32.8666667"}, {"lat": "-20.2166667", "city": "Manubvu", "lon": "31.4166667"}, {"lat": "-21.5", "city": "Mapolisa", "lon": "28.0833333"}, {"lat": "-22.0166667", "city": "Maramani", "lon": "29.3666667"}, {"lat": "-22.0166667", "city": "Maranami", "lon": "29.3666667"}, {"lat": "-21.85", "city": "Masachuta", "lon": "29.35"}, {"lat": "-20.05", "city": "Mashaba", "lon": "30.4833333"}, {"lat": "-21.85", "city": "Mashachuta", "lon": "29.35"}, {"lat": "-20.05", "city": "Mashava", "lon": "30.4833333"}, {"lat": "-21.85", "city": "Masole", "lon": "29.4"}, {"lat": "-20.0833333", "city": "Masvingo", "lon": "30.8333333"}, {"lat": "-20.85", "city": "Mataga", "lon": "30.2"}, {"lat": "-22.0833333", "city": "Matibi", "lon": "30.65"}, {"lat": "-19.8944444", "city": "Matoba", "lon": "30.7583333"}, {"lat": "-20.4666667", "city": "Matsai Township", "lon": "31.8666667"}, {"lat": "-21.7333333", "city": "Mazunga", "lon": "29.8666667"}, {"lat": "-21.7333333", "city": "Mazunga Ranch Headquarters", "lon": "29.8666667"}, {"lat": "-20.45", "city": "Mbalabala", "lon": "29.05"}, {"lat": "-20.4833333", "city": "Mberengwa", "lon": "29.9166667"}, {"lat": "-21.5166667", "city": "Mbizo", "lon": "28.8666667"}, {"lat": "-19.5166667", "city": "Melsetter Junction", "lon": "32.55"}, {"lat": "-19.8", "city": "Melsetter", "lon": "32.8666667"}, {"lat": "-20.6666667", "city": "Mkasa", "lon": "32.2666667"}, {"lat": "-20.6166667", "city": "Mnene", "lon": "30.05"}, {"lat": "-20.6166667", "city": "Mneni", "lon": "30.05"}, {"lat": "-20.0833333", "city": "Mucheke Township", "lon": "30.8166667"}, {"lat": "-20.6138889", "city": "Mucibwa", "lon": "31.1138889"}, {"lat": "-19.9111111", "city": "Muhlonga", "lon": "29.6916667"}, {"lat": "-20.6166667", "city": "Munene", "lon": "30.05"}, {"lat": "-19.55", "city": "Mutambara", "lon": "32.6666667"}, {"lat": "-19.9361111", "city": "Muvuti", "lon": "31.6361111"}, {"lat": "-20.7491667", "city": "Mwanezi", "lon": "29.7013889"}, {"lat": "-20.7491667", "city": "Mwenezi", "lon": "29.7013889"}, {"lat": "-20.9666667", "city": "Nandi Mill", "lon": "31.7333333"}, {"lat": "-20.9666667", "city": "Nandi", "lon": "31.7333333"}, {"lat": "-20.1833333", "city": "Ndanga", "lon": "31.3333333"}, {"lat": "-20.1777778", "city": "Ngadza", "lon": "30.8361111"}, {"lat": "-20.5666667", "city": "Ngesi", "lon": "30.4"}, {"lat": "-20.5666667", "city": "Ngezi", "lon": "30.4"}, {"lat": "-20.5666667", "city": "Ngezi Siding", "lon": "30.4"}, {"lat": "-20.4333333", "city": "Ngomahura Leper Settlement", "lon": "30.7333333"}, {"lat": "-20.4333333", "city": "Ngomahuru", "lon": "30.7333333"}, {"lat": "-20.8", "city": "Ngundu Halt", "lon": "30.8"}, {"lat": "-21.9447222", "city": "Nyala", "lon": "31.6277778"}, {"lat": "-20.0833333", "city": "Nyanda", "lon": "30.8333333"}, {"lat": "-19.7666667", "city": "Nyanyadzi Business Center", "lon": "32.4166667"}, {"lat": "-19.7666667", "city": "Nyanyadzi", "lon": "32.4166667"}, {"lat": "-20.4333333", "city": "Pambuka African Township", "lon": "29.6833333"}, {"lat": "-20.4333333", "city": "Pambuka", "lon": "29.6833333"}, {"lat": "-19.1666667", "city": "Rowa", "lon": "32.6166667"}, {"lat": "-19.7333333", "city": "Rupepwe", "lon": "30.6666667"}, {"lat": "-20.3666667", "city": "Rupisi", "lon": "32.4"}, {"lat": "-20.05", "city": "Rurgwe", "lon": "31.2666667"}, {"lat": "-20.05", "city": "Rurwi", "lon": "31.2666667"}, {"lat": "-19.6666667", "city": "Salukwe", "lon": "30.0"}, {"lat": "-20.9666667", "city": "Sawa Sawa", "lon": "30.2666667"}, {"lat": "-21.6669444", "city": "Seboza", "lon": "29.1247222"}, {"lat": "-19.6666667", "city": "Selukwe", "lon": "30.0"}, {"lat": "-22.1333333", "city": "Setana", "lon": "30.6666667"}, {"lat": "-20.3333333", "city": "Shabani", "lon": "30.0333333"}, {"lat": "-19.7", "city": "Shamaburu", "lon": "29.6666667"}, {"lat": "-20.3333333", "city": "Shavani", "lon": "30.0333333"}, {"lat": "-21.9666667", "city": "Shoteli", "lon": "29.3666667"}, {"lat": "-19.6666667", "city": "Shurugwi", "lon": "30.0"}, {"lat": "-22.2", "city": "Sinyoni", "lon": "30.35"}, {"lat": "-21.5166667", "city": "Sitauze", "lon": "29.5333333"}, {"lat": "-21.5166667", "city": "Sitauzis", "lon": "29.5333333"}, {"lat": "-19.7", "city": "Somabhula", "lon": "29.6666667"}, {"lat": "-19.7", "city": "Somabula", "lon": "29.6666667"}, {"lat": "-20.0166667", "city": "Sosera", "lon": "31.4666667"}, {"lat": "-20.24", "city": "Springfontein", "lon": "28.2563889"}, {"lat": "-19.6", "city": "Tandaai", "lon": "32.8"}, {"lat": "-19.6", "city": "Tandai", "lon": "32.8"}, {"lat": "-19.6", "city": "Tandayi", "lon": "32.8"}, {"lat": "-21.9172222", "city": "Tongwe", "lon": "30.0272222"}, {"lat": "-21.4333333", "city": "Towla", "lon": "29.9"}, {"lat": "-20.95", "city": "Triangle Ranch", "lon": "31.3666667"}, {"lat": "-20.95", "city": "Triangle", "lon": "31.3666667"}, {"lat": "-22.1333333", "city": "Tsetana", "lon": "30.6666667"}, {"lat": "-22.2", "city": "Tshiturapadsi", "lon": "30.7833333"}, {"lat": "-21.9166667", "city": "Tuli", "lon": "29.2"}, {"lat": "-21.0666667", "city": "West Nicholson", "lon": "29.3666667"}, {"lat": "-20.2336111", "city": "Worringham", "lon": "28.7466667"}, {"lat": "-20.35", "city": "Zaka", "lon": "31.45"}, {"lat": "-20.2666667", "city": "Zimbabwe", "lon": "30.9166667"}, {"lat": "-20.3333333", "city": "Zvishavane", "lon": "30.0333333"}], "04": [{"lat": "-17.7622222", "city": "Adylinn", "lon": "30.9888889"}, {"lat": "-17.7941667", "city": "Alexandra Park", "lon": "31.0522222"}, {"lat": "-17.8333333", "city": "Amby", "lon": "31.1152778"}, {"lat": "-17.8433333", "city": "Arcadia", "lon": "31.0533333"}, {"lat": "-17.85", "city": "Arcadia South", "lon": "31.0666667"}, {"lat": "-17.8666667", "city": "Arcadia West", "lon": "31.0666667"}, {"lat": "-17.7858333", "city": "Arcturas", "lon": "31.3233333"}, {"lat": "-17.7858333", "city": "Arcturus", "lon": "31.3233333"}, {"lat": "-17.8780556", "city": "Ardbennie", "lon": "31.0272222"}, {"lat": "-17.9130556", "city": "Arlington", "lon": "31.0947222"}, {"lat": "-17.9130556", "city": "Arlington Estate", "lon": "31.0947222"}, {"lat": "-17.7686111", "city": "Ashbrittle", "lon": "31.0311111"}, {"lat": "-17.7936111", "city": "Ashdown Park", "lon": "30.9827778"}, {"lat": "-17.8708333", "city": "Aspindale Park", "lon": "30.955"}, {"lat": "-17.82", "city": "Athlone", "lon": "31.1333333"}, {"lat": "-17.8188889", "city": "Avenues", "lon": "31.0394444"}, {"lat": "-17.7961111", "city": "Avondale", "lon": "31.0347222"}, {"lat": "-17.7961111", "city": "Avondale Township", "lon": "31.0347222"}, {"lat": "-17.7825", "city": "Avondale West", "lon": "31.0241667"}, {"lat": "-17.7730556", "city": "Avonlea", "lon": "31.0125"}, {"lat": "-17.7825", "city": "Avon Rise", "lon": "31.0416667"}, {"lat": "-17.7716667", "city": "Ballantyne Park", "lon": "31.1030556"}, {"lat": "-17.3833333", "city": "Banket", "lon": "30.4"}, {"lat": "-17.3833333", "city": "Banket Junction", "lon": "30.4"}, {"lat": "-17.9388889", "city": "Barrington", "lon": "30.9583333"}, {"lat": "-18.6", "city": "Battlefield", "lon": "29.8333333"}, {"lat": "-18.6", "city": "Battlefields", "lon": "29.8333333"}, {"lat": "-18.2666667", "city": "Beatrice", "lon": "30.8666667"}, {"lat": "-17.8030556", "city": "Belgravia", "lon": "31.0497222"}, {"lat": "-17.8211111", "city": "Belvedere", "lon": "31.0180556"}, {"lat": "-17.8211111", "city": "Belvedere North", "lon": "31.0180556"}, {"lat": "-17.8305556", "city": "Belvedere South", "lon": "31.0166667"}, {"lat": "-18.9833333", "city": "Bemthree", "lon": "30.1"}, {"lat": "-17.8458333", "city": "Beverley", "lon": "31.1266667"}, {"lat": "-17.8375", "city": "Beverley West", "lon": "31.1058333"}, {"lat": "-17.8302778", "city": "Bingley", "lon": "31.1227778"}, {"lat": "-17.7902778", "city": "Bloomingdale", "lon": "30.9775"}, {"lat": "-17.7697222", "city": "Bluff Hill", "lon": "30.9802778"}, {"lat": "-17.7844444", "city": "Bluff Hill Park", "lon": "30.9886111"}, {"lat": "-18.5166667", "city": "Bolton", "lon": "31.4"}, {"lat": "-18.65", "city": "Bonzo", "lon": "32.6166667"}, {"lat": "-17.7566667", "city": "Borrowdale", "lon": "31.1036111"}, {"lat": "-17.7136111", "city": "Borrowdale Brook", "lon": "31.145"}, {"lat": "-17.7136111", "city": "Borrowdale Brooke", "lon": "31.145"}, {"lat": "-17.7566667", "city": "Borrowdale Estate", "lon": "31.1036111"}, {"lat": "-17.7627778", "city": "Borrowdale West", "lon": "31.0755556"}, {"lat": "-17.7330556", "city": "Bothashof", "lon": "31.0480556"}, {"lat": "-17.8427778", "city": "Braeside", "lon": "31.0641667"}, {"lat": "-18.0833333", "city": "Bromley", "lon": "31.3333333"}, {"lat": "-17.7097222", "city": "Brooke Ridge", "lon": "31.1372222"}, {"lat": "-17.9022222", "city": "Budiriro 2", "lon": "30.9230556"}, {"lat": "-17.8938889", "city": "Budiriro 4", "lon": "30.9133333"}, {"lat": "-17.8788889", "city": "Budiriro 5", "lon": "30.9233333"}, {"lat": "-17.8972222", "city": "Budiriro", "lon": "30.9336111"}, {"lat": "-19.3333333", "city": "Buhera", "lon": "31.4333333"}, {"lat": "-17.7666667", "city": "Chababomera", "lon": "30.1666667"}, {"lat": "-17.8563889", "city": "Chadcombe", "lon": "31.1011111"}, {"lat": "-18.4666667", "city": "Chakara", "lon": "30.7"}, {"lat": "-18.0666667", "city": "Chakari", "lon": "29.85"}, {"lat": "-18.1333333", "city": "Cheguto", "lon": "30.15"}, {"lat": "-18.1333333", "city": "Chegutu", "lon": "30.15"}, {"lat": "-17.6869444", "city": "Chemhondoro", "lon": "31.5627778"}, {"lat": "-17.4333333", "city": "Chimsasa", "lon": "32.9833333"}, {"lat": "-16.95", "city": "Chinex", "lon": "30.5"}, {"lat": "-17.3666667", "city": "Chinhoyi", "lon": "30.2"}, {"lat": "-17.3666667", "city": "Chinoyi", "lon": "30.2"}, {"lat": "-16.6666667", "city": "Chiporiro", "lon": "30.7"}, {"lat": "-16.6666667", "city": "Chipuriro", "lon": "30.7"}, {"lat": "-17.7886111", "city": "Chisipite", "lon": "31.1227778"}, {"lat": "-16.9333333", "city": "Chitsunga", "lon": "32.0666667"}, {"lat": "-16.9333333", "city": "Chitsungo", "lon": "32.0666667"}, {"lat": "-17.9938889", "city": "Chitungwiza", "lon": "31.0480556"}, {"lat": "-18.2666667", "city": "Chiva", "lon": "30.5666667"}, {"lat": "-19.0166667", "city": "Chivhu", "lon": "30.9"}, {"lat": "-17.8502778", "city": "Chizanje", "lon": "31.1761111"}, {"lat": "-18.1833333", "city": "Chomwedzi", "lon": "31.4"}, {"lat": "-17.9325", "city": "Chulu", "lon": "30.9297222"}, {"lat": "-17.8313889", "city": "Civic Centre", "lon": "31.0386111"}, {"lat": "-17.82", "city": "Cleveland Park", "lon": "31.1452778"}, {"lat": "-17.8336111", "city": "Cold Comfort", "lon": "30.9441667"}, {"lat": "-17.7822222", "city": "Colne Valley", "lon": "31.1072222"}, {"lat": "-17.7572222", "city": "Colray", "lon": "31.1119444"}, {"lat": "-17.7686111", "city": "Comet Rise", "lon": "31.0436111"}, {"lat": "-17.8322222", "city": "Coronation Park", "lon": "31.1008333"}, {"lat": "-17.7936111", "city": "Cotswold Hills", "lon": "30.9911111"}, {"lat": "-17.8511111", "city": "Cranborne", "lon": "31.0786111"}, {"lat": "-17.8511111", "city": "Cranborne Park", "lon": "31.0786111"}, {"lat": "-17.8463889", "city": "Crawborough", "lon": "30.9455556"}, {"lat": "-17.8408333", "city": "Crowborough North", "lon": "30.9338889"}, {"lat": "-19.0", "city": "Dangamvura", "lon": "32.5833333"}, {"lat": "-17.7166667", "city": "Darwendale", "lon": "30.55"}, {"lat": "-17.8186111", "city": "Dawn Hill", "lon": "31.1169444"}, {"lat": "-18.0833333", "city": "Dema Business Centre", "lon": "31.2166667"}, {"lat": "-18.0833333", "city": "Dema", "lon": "31.2166667"}, {"lat": "-17.9344444", "city": "Derbyshire Township", "lon": "31.0105556"}, {"lat": "-16.9166667", "city": "Disi", "lon": "30.7"}, {"lat": "-16.75", "city": "Doma", "lon": "30.2333333"}, {"lat": "-17.605", "city": "Domboshawa", "lon": "31.14"}, {"lat": "-17.605", "city": "Dombosnawa", "lon": "31.14"}, {"lat": "-17.8122222", "city": "Donnybrook", "lon": "31.1477778"}, {"lat": "-19.0666667", "city": "Dorowa Claims", "lon": "31.75"}, {"lat": "-19.0666667", "city": "Dorowa", "lon": "31.75"}, {"lat": "-19.0666667", "city": "Dorowa Mining Lease", "lon": "31.75"}, {"lat": "-17.7980556", "city": "Downlands Park", "lon": "31.1411111"}, {"lat": "-18.3", "city": "Duchess Hill", "lon": "30.2166667"}, {"lat": "-17.7563889", "city": "Dungarven", "lon": "31.0930556"}, {"lat": "-17.8913889", "city": "Dunowen", "lon": "31.1166667"}, {"lat": "-17.8052778", "city": "Dzivareskwa", "lon": "30.9266667"}, {"lat": "-17.8244444", "city": "Eastlea", "lon": "31.0736111"}, {"lat": "-17.8244444", "city": "Eastlea North", "lon": "31.0736111"}, {"lat": "-17.83", "city": "Eastlea South", "lon": "31.0755556"}, {"lat": "-18.3166667", "city": "Eiffel Flats", "lon": "29.9833333"}, {"lat": "-17.35", "city": "Eldorado", "lon": "30.2333333"}, {"lat": "-17.775", "city": "Emerald Hill", "lon": "31.0311111"}, {"lat": "-19.0166667", "city": "Enkeldoorn", "lon": "30.9"}, {"lat": "-17.89", "city": "Epworth", "lon": "31.1475"}, {"lat": "-18.1", "city": "Excelsior", "lon": "30.9"}, {"lat": "-18.7166667", "city": "Featherstone", "lon": "30.8166667"}, {"lat": "-19.4333333", "city": "Felixburg", "lon": "30.8333333"}, {"lat": "-17.3333333", "city": "Fombe", "lon": "32.9833333"}, {"lat": "-18.2166667", "city": "Freelands", "lon": "30.9333333"}, {"lat": "-18.0333333", "city": "Gadzema", "lon": "30.15"}, {"lat": "-18.1333333", "city": "Gambisa", "lon": "29.6"}, {"lat": "-18.1333333", "city": "Gambiza", "lon": "29.6"}, {"lat": "-18.35", "city": "Gatooma", "lon": "29.9166667"}, {"lat": "-18.2", "city": "Georgia", "lon": "29.9166667"}, {"lat": "-17.8155556", "city": "Gevstein Park", "lon": "30.9425"}, {"lat": "-17.7491667", "city": "Glenavon Est", "lon": "31.0916667"}, {"lat": "-18.9333333", "city": "Glendye", "lon": "30.05"}, {"lat": "-17.8658333", "city": "Gleneagles", "lon": "30.9052778"}, {"lat": "-18.1166667", "city": "Glenearn", "lon": "29.85"}, {"lat": "-17.7419444", "city": "Glen Lorne", "lon": "31.1661111"}, {"lat": "-17.9083333", "city": "Glen Norah", "lon": "30.9727778"}, {"lat": "-17.9077778", "city": "Glenview", "lon": "30.9480556"}, {"lat": "-17.7516667", "city": "Glenwood", "lon": "31.1580556"}, {"lat": "-17.7666667", "city": "Gletwyn A", "lon": "31.1613889"}, {"lat": "-17.7666667", "city": "Gletwyn", "lon": "31.1613889"}, {"lat": "-18.2166667", "city": "Golden Valley", "lon": "29.8"}, {"lat": "-17.7355556", "city": "Good Hope", "lon": "30.9552778"}, {"lat": "-17.8583333", "city": "Goromonzi", "lon": "31.3822222"}, {"lat": "-17.8508333", "city": "Graniteside", "lon": "31.0513889"}, {"lat": "-17.775", "city": "Greencroft", "lon": "31.0063889"}, {"lat": "-17.8141667", "city": "Greendale", "lon": "31.1272222"}, {"lat": "-17.8313889", "city": "Green Grove", "lon": "31.1366667"}, {"lat": "-17.7475", "city": "Greystone A", "lon": "31.1208333"}, {"lat": "-17.7475", "city": "Greystone", "lon": "31.1208333"}, {"lat": "-17.7475", "city": "Greystone Park", "lon": "31.1208333"}, {"lat": "-17.9211111", "city": "Grobbie Park", "lon": "30.9897222"}, {"lat": "-17.7683333", "city": "Groombridge", "lon": "31.0536111"}, {"lat": "-17.7963889", "city": "Gun Hill", "lon": "31.0691667"}, {"lat": "-16.6666667", "city": "Guruwe", "lon": "30.7"}, {"lat": "-17.6833333", "city": "Gwangwari", "lon": "31.0833333"}, {"lat": "-17.7977778", "city": "Haig Park", "lon": "30.9927778"}, {"lat": "-17.8638889", "city": "Harare African Township", "lon": "31.0297222"}, {"lat": "-17.8177778", "city": "Harare", "lon": "31.0447222"}, {"lat": "-17.8638889", "city": "Harari", "lon": "31.0297222"}, {"lat": "-17.9441667", "city": "Hartlands", "lon": "30.9775"}, {"lat": "-18.1333333", "city": "Hartley", "lon": "30.15"}, {"lat": "-17.6883333", "city": "Hatcliffe", "lon": "31.1097222"}, {"lat": "-17.8722222", "city": "Hatfield", "lon": "31.0955556"}, {"lat": "-17.7536111", "city": "Haydon", "lon": "30.9366667"}, {"lat": "-18.2833333", "city": "Headlands", "lon": "32.05"}, {"lat": "-17.7291667", "city": "Helensvale", "lon": "31.145"}, {"lat": "-17.8894444", "city": "Highfield", "lon": "30.985"}, {"lat": "-17.8894444", "city": "Highfield Native Village", "lon": "30.985"}, {"lat": "-17.8075", "city": "Highlands Estate", "lon": "31.0880556"}, {"lat": "-17.8075", "city": "Highlands", "lon": "31.0880556"}, {"lat": "-17.8375", "city": "Hillside", "lon": "31.0816667"}, {"lat": "-17.6977778", "city": "Hogerty Hill", "lon": "31.1341667"}, {"lat": "-17.7497222", "city": "Homefield", "lon": "30.9152778"}, {"lat": "-17.9313889", "city": "Hopley", "lon": "30.9897222"}, {"lat": "-17.8836111", "city": "Houghton Park", "lon": "31.0166667"}, {"lat": "-17.6166667", "city": "Hoyuyu", "lon": "32.0166667"}, {"lat": "-18.9166667", "city": "Hwe Hwe", "lon": "29.8166667"}, {"lat": "-17.9216667", "city": "Induna", "lon": "30.9972222"}, {"lat": "-17.9336111", "city": "Inkubusi", "lon": "30.9744444"}, {"lat": "-18.4666667", "city": "Inoro", "lon": "31.5166667"}, {"lat": "-18.2166667", "city": "Inyanga", "lon": "32.75"}, {"lat": "-18.7166667", "city": "Inyazura", "lon": "32.1666667"}, {"lat": "-18.9333333", "city": "Irene", "lon": "32.5833333"}, {"lat": "-18.2666667", "city": "Jirira", "lon": "31.1"}, {"lat": "-18.3666667", "city": "Juliasdale", "lon": "32.6666667"}, {"lat": "-17.4666667", "city": "Jumbo", "lon": "30.9166667"}, {"lat": "-17.6830556", "city": "Juru", "lon": "31.4744444"}, {"lat": "-18.35", "city": "Kadoma", "lon": "29.9166667"}, {"lat": "-17.7622222", "city": "Kambanji", "lon": "31.1311111"}, {"lat": "-17.8544444", "city": "Kambuzuma", "lon": "30.9672222"}, {"lat": "-16.8166667", "city": "Karoi", "lon": "29.6833333"}, {"lat": "-16.8166667", "city": "Karoyi", "lon": "29.6833333"}, {"lat": "-18.35", "city": "Katoma", "lon": "29.9166667"}, {"lat": "-17.4166667", "city": "Kawahove", "lon": "30.1666667"}, {"lat": "-17.8061111", "city": "Kensington", "lon": "31.0297222"}, {"lat": "-17.7569444", "city": "Kingsmead", "lon": "31.1025"}, {"lat": "-17.8366667", "city": "Kopje", "lon": "31.0402778"}, {"lat": "-16.7", "city": "Kudjwara", "lon": "31.9666667"}, {"lat": "-17.9188889", "city": "Kutsaga Village", "lon": "31.1455556"}, {"lat": "-17.8119444", "city": "Kuwadzana 3", "lon": "30.9311111"}, {"lat": "-17.8255556", "city": "Kuwadzana 4", "lon": "30.8852778"}, {"lat": "-17.8252778", "city": "Kuwadzana", "lon": "30.9263889"}, {"lat": "-18.9166667", "city": "Kwekwe", "lon": "29.8166667"}, {"lat": "-19.3333333", "city": "Lalapansi", "lon": "30.1833333"}, {"lat": "-19.3333333", "city": "Lalapanzi", "lon": "30.1833333"}, {"lat": "-17.8355556", "city": "Letombo Park", "lon": "31.1202778"}, {"lat": "-17.7880556", "city": "Lewisam", "lon": "31.1138889"}, {"lat": "-17.7880556", "city": "Lewisham", "lon": "31.1138889"}, {"lat": "-17.8033333", "city": "Lichendale", "lon": "31.1555556"}, {"lat": "-17.83", "city": "Lincoln Green", "lon": "31.0075"}, {"lat": "-17.2666667", "city": "Lions Den", "lon": "30.0333333"}, {"lat": "-17.7716667", "city": "Little Norfolk", "lon": "31.0375"}, {"lat": "-17.8694444", "city": "Lochinvar", "lon": "30.9877778"}, {"lat": "-17.8841667", "city": "Logan Park", "lon": "31.0761111"}, {"lat": "-17.8488889", "city": "Lorelei", "lon": "31.1288889"}, {"lat": "-17.7011111", "city": "Luna", "lon": "31.1747222"}, {"lat": "-17.7905556", "city": "Mabelreign", "lon": "31.0013889"}, {"lat": "-17.8388889", "city": "Mabvuku", "lon": "31.1858333"}, {"lat": "-18.15", "city": "Macheke", "lon": "31.85"}, {"lat": "-17.7666667", "city": "Machiroli", "lon": "30.4"}, {"lat": "-17.7666667", "city": "Machrole", "lon": "30.4"}, {"lat": "-16.5166667", "city": "Maclear", "lon": "31.1833333"}, {"lat": "-16.9", "city": "Madadzi", "lon": "29.75"}, {"lat": "-17.8166667", "city": "Madioma", "lon": "32.7666667"}, {"lat": "-18.3166667", "city": "Mahusekwa", "lon": "31.2"}, {"lat": "-18.3166667", "city": "Mahusekwa Township", "lon": "31.2"}, {"lat": "-16.6666667", "city": "Maimi", "lon": "29.7666667"}, {"lat": "-17.9002778", "city": "Mainway Meadows", "lon": "31.0416667"}, {"lat": "-17.8563889", "city": "Makabusi", "lon": "31.1305556"}, {"lat": "-17.2833333", "city": "Makaha", "lon": "32.6166667"}, {"lat": "-18.7166667", "city": "Makonis", "lon": "31.9833333"}, {"lat": "-17.2833333", "city": "Makosa Business Centre", "lon": "32.4666667"}, {"lat": "-17.2833333", "city": "Makosa Township", "lon": "32.4666667"}, {"lat": "-17.2166667", "city": "Makose", "lon": "32.7166667"}, {"lat": "-17.9666667", "city": "Makwino", "lon": "30.4333333"}, {"lat": "-17.9666667", "city": "Makwira", "lon": "30.4333333"}, {"lat": "-17.9666667", "city": "Makwiro", "lon": "30.4333333"}, {"lat": "-18.3", "city": "Malube", "lon": "30.6833333"}, {"lat": "-17.9013889", "city": "Malvern", "lon": "31.0002778"}, {"lat": "-17.7913889", "city": "Mandara", "lon": "31.15"}, {"lat": "-16.9", "city": "Mangula", "lon": "30.15"}, {"lat": "-18.3833333", "city": "Mangwende", "lon": "31.35"}, {"lat": "-18.3833333", "city": "Mangwendi", "lon": "31.35"}, {"lat": "-17.8191667", "city": "Manresa", "lon": "31.1975"}, {"lat": "-16.5166667", "city": "Manyati", "lon": "29.9833333"}, {"lat": "-18.1833333", "city": "Marandellas", "lon": "31.55"}, {"lat": "-17.8608333", "city": "Marimba Park", "lon": "30.9461111"}, {"lat": "-17.7522222", "city": "Marlborough", "lon": "31.0036111"}, {"lat": "-18.1833333", "city": "Marondera", "lon": "31.55"}, {"lat": "-18.5666667", "city": "Marshbrook", "lon": "31.05"}, {"lat": "-17.65", "city": "Maryland Junction", "lon": "30.4833333"}, {"lat": "-17.65", "city": "Maryland", "lon": "30.4833333"}, {"lat": "-17.8063889", "city": "Matidoda Park", "lon": "30.9686111"}, {"lat": "-17.15", "city": "Matorashangu", "lon": "30.6666667"}, {"lat": "-18.1833333", "city": "Matswaire", "lon": "30.7"}, {"lat": "-17.7886111", "city": "Mayfield Park", "lon": "31.0138889"}, {"lat": "-17.4666667", "city": "Mazoe", "lon": "30.9166667"}, {"lat": "-17.5166667", "city": "Mazowe", "lon": "30.9666667"}, {"lat": "-17.8580556", "city": "Mbare", "lon": "31.0372222"}, {"lat": "-18.9166667", "city": "Mbizo Township", "lon": "29.8333333"}, {"lat": "-17.9952778", "city": "Melfort", "lon": "31.3194444"}, {"lat": "-18.1", "city": "Melton", "lon": "29.9333333"}, {"lat": "-18.3", "city": "Mendamu", "lon": "31.3666667"}, {"lat": "-17.8025", "city": "Meyrick Park", "lon": "31.0033333"}, {"lat": "-16.9", "city": "Mhangura", "lon": "30.15"}, {"lat": "-16.6666667", "city": "Miami", "lon": "29.7666667"}, {"lat": "-17.9044444", "city": "Midlands", "lon": "31.0141667"}, {"lat": "-18.1333333", "city": "Milan", "lon": "29.9166667"}, {"lat": "-17.8147222", "city": "Milton Park", "lon": "31.0247222"}, {"lat": "-17.745", "city": "Mon Abri", "lon": "31.0933333"}, {"lat": "-17.8047222", "city": "Monavale", "lon": "31.0166667"}, {"lat": "-17.8047222", "city": "Monovale", "lon": "31.0166667"}, {"lat": "-16.7333333", "city": "Mormon Hill", "lon": "29.8833333"}, {"lat": "-17.7416667", "city": "Mount Hampden Junction", "lon": "30.9388889"}, {"lat": "-17.7416667", "city": "Mount Hampden", "lon": "30.9388889"}, {"lat": "-17.7416667", "city": "Mount Hampton", "lon": "30.9388889"}, {"lat": "-17.7769444", "city": "Mount Pleasant", "lon": "31.0486111"}, {"lat": "-17.7566667", "city": "Mount Pleasant Park", "lon": "31.0419444"}, {"lat": "-17.6469444", "city": "Mrewa", "lon": "31.7775"}, {"lat": "-17.8405556", "city": "Msasa", "lon": "31.1161111"}, {"lat": "-17.855", "city": "Msasa Park", "lon": "31.1097222"}, {"lat": "-17.7505556", "city": "Mtendere", "lon": "31.1"}, {"lat": "-17.4", "city": "Mtoko", "lon": "32.2166667"}, {"lat": "-17.15", "city": "Mtorashangu", "lon": "30.6666667"}, {"lat": "-17.15", "city": "Mtoroshanga", "lon": "30.6666667"}, {"lat": "-18.3333333", "city": "Mubayira", "lon": "30.6"}, {"lat": "-18.3166667", "city": "Mubayira Township Reserve", "lon": "30.6"}, {"lat": "-18.15", "city": "Mucheki", "lon": "31.85"}, {"lat": "-17.8666667", "city": "Mufakose", "lon": "30.9225"}, {"lat": "-17.8563889", "city": "Mukuvisi", "lon": "31.1305556"}, {"lat": "-17.8461111", "city": "Mukuvisi Park", "lon": "31.1086111"}, {"lat": "-17.8430556", "city": "Mukuvisi Woodlands", "lon": "31.095"}, {"lat": "-18.65", "city": "Munyati", "lon": "29.7833333"}, {"lat": "-17.6469444", "city": "Murehwa", "lon": "31.7775"}, {"lat": "-17.6469444", "city": "Murewa", "lon": "31.7775"}, {"lat": "-17.7416667", "city": "Musitkwe", "lon": "30.9388889"}, {"lat": "-18.3833333", "city": "Musondzo", "lon": "30.6833333"}, {"lat": "-18.3833333", "city": "Musonza", "lon": "30.6833333"}, {"lat": "-18.9666667", "city": "Mutare", "lon": "32.6666667"}, {"lat": "-17.4", "city": "Mutoko", "lon": "32.2166667"}, {"lat": "-17.15", "city": "Mutorashanga", "lon": "30.6666667"}, {"lat": "-19.2833333", "city": "Muvumi", "lon": "30.5333333"}, {"lat": "-19.2833333", "city": "Mvuma", "lon": "30.5333333"}, {"lat": "-16.6666667", "city": "Mwami", "lon": "29.7666667"}, {"lat": "-17.3166667", "city": "Narakati", "lon": "30.5166667"}, {"lat": "-19.0833333", "city": "Narira", "lon": "31.1666667"}, {"lat": "-18.5333333", "city": "Neuso Business Centre", "lon": "30.5333333"}, {"lat": "-17.7872222", "city": "New Alexandra Park", "lon": "31.0661111"}, {"lat": "-17.8830556", "city": "New Ardbennie", "lon": "31.0063889"}, {"lat": "-18.1", "city": "Newbiggin", "lon": "29.9"}, {"lat": "-18.0833333", "city": "New Bromley", "lon": "31.3333333"}, {"lat": "-18.1333333", "city": "New Hartley", "lon": "30.15"}, {"lat": "-17.8080556", "city": "Newlands", "lon": "31.0816667"}, {"lat": "-17.7394444", "city": "New Marlborough", "lon": "30.9730556"}, {"lat": "-18.3833333", "city": "Ngesi", "lon": "29.8666667"}, {"lat": "-17.3166667", "city": "Nkarakati", "lon": "30.5166667"}, {"lat": "-17.8127778", "city": "Nkwisi Park", "lon": "30.965"}, {"lat": "-17.7511111", "city": "Northwood", "lon": "31.0505556"}, {"lat": "-17.8833333", "city": "Norton", "lon": "30.7"}, {"lat": "-17.6666667", "city": "Nyabira", "lon": "30.8"}, {"lat": "-16.9666667", "city": "Nyamapanda Customs Post", "lon": "32.8666667"}, {"lat": "-16.9666667", "city": "Nyamapanda", "lon": "32.8666667"}, {"lat": "-16.9666667", "city": "Nyamapande", "lon": "32.8666667"}, {"lat": "-17.1", "city": "Nyamkoho Township", "lon": "32.35"}, {"lat": "-18.1833333", "city": "Nyamweda", "lon": "30.7"}, {"lat": "-17.3666667", "city": "Nyandoros", "lon": "32.9833333"}, {"lat": "-18.2166667", "city": "Nyanga", "lon": "32.75"}, {"lat": "-18.3166667", "city": "Nyangwene", "lon": "30.5833333"}, {"lat": "-18.3166667", "city": "Nyangweni", "lon": "30.5833333"}, {"lat": "-17.6666667", "city": "Nyariba", "lon": "30.8"}, {"lat": "-18.9666667", "city": "Nyautare", "lon": "32.6666667"}, {"lat": "-18.7166667", "city": "Nyazura", "lon": "32.1666667"}, {"lat": "-18.7166667", "city": "Nyazure", "lon": "32.1666667"}, {"lat": "-18.9666667", "city": "Odzi", "lon": "32.3833333"}, {"lat": "-17.8183333", "city": "Oval Park", "lon": "31.0933333"}, {"lat": "-17.8677778", "city": "Park Meadowlands", "lon": "31.1152778"}, {"lat": "-17.8383333", "city": "Parkridge Estate", "lon": "30.9158333"}, {"lat": "-17.8916667", "city": "Parktown", "lon": "31.03"}, {"lat": "-17.6333333", "city": "Pearson Settlement", "lon": "30.95"}, {"lat": "-18.8833333", "city": "Penhalonga", "lon": "32.6833333"}, {"lat": "-18.1333333", "city": "Pfupajena", "lon": "30.1333333"}, {"lat": "-17.7119444", "city": "Philadelphia", "lon": "31.1225"}, {"lat": "-17.7541667", "city": "Pomona", "lon": "31.0863889"}, {"lat": "-18.1833333", "city": "Poomula", "lon": "31.4"}, {"lat": "-17.8736111", "city": "Prospect Park", "lon": "31.0636111"}, {"lat": "-17.8852778", "city": "Prospect", "lon": "31.0525"}, {"lat": "-17.8541667", "city": "Queensdale", "lon": "31.0922222"}, {"lat": "-18.9166667", "city": "Que Que", "lon": "29.8166667"}, {"lat": "-17.7347222", "city": "Quinnington", "lon": "31.1219444"}, {"lat": "-17.0333333", "city": "Raffingora", "lon": "30.4333333"}, {"lat": "-17.8241667", "city": "Rhodesville", "lon": "31.0986111"}, {"lat": "-17.8375", "city": "Ridgeview", "lon": "31.0163889"}, {"lat": "-17.7819444", "city": "Rietfontein", "lon": "31.0994444"}, {"lat": "-18.35", "city": "Rimuka", "lon": "29.8833333"}, {"lat": "-18.3166667", "city": "Rocky Spruit", "lon": "31.1333333"}, {"lat": "-17.7672222", "city": "Rolfe Valley", "lon": "31.1152778"}, {"lat": "-17.7672222", "city": "Rolf Valley", "lon": "31.1152778"}, {"lat": "-17.8547222", "city": "Rugare", "lon": "30.99"}, {"lat": "-17.8547222", "city": "Rugari", "lon": "30.99"}, {"lat": "-17.8608333", "city": "Rukodora", "lon": "30.9461111"}, {"lat": "-17.8088889", "city": "Runiville", "lon": "31.0988889"}, {"lat": "-17.8088889", "city": "Runnivale", "lon": "31.0988889"}, {"lat": "-18.5333333", "city": "Rusape", "lon": "32.1166667"}, {"lat": "-18.5333333", "city": "Rusapi", "lon": "32.1166667"}, {"lat": "-17.8875", "city": "Ruwa", "lon": "31.2444444"}, {"lat": "-18.6833333", "city": "Rwatsumbu", "lon": "32.6333333"}, {"lat": "-17.7461111", "city": "Ryelands", "lon": "31.0925"}, {"lat": "-18.9", "city": "Sadza", "lon": "31.2833333"}, {"lat": "-17.8069444", "city": "Saint Andrews Park", "lon": "30.9955556"}, {"lat": "-17.8597222", "city": "Saint Martins", "lon": "31.0611111"}, {"lat": "-17.9833333", "city": "Saint Marys", "lon": "31.0666667"}, {"lat": "-18.9833333", "city": "Sakubva", "lon": "32.6166667"}, {"lat": "-17.8586111", "city": "Salisbury Park", "lon": "30.95"}, {"lat": "-17.8177778", "city": "Salisbury", "lon": "31.0447222"}, {"lat": "-18.65", "city": "Sanyati", "lon": "29.7833333"}, {"lat": "-18.3666667", "city": "Sanyatwe", "lon": "32.6"}, {"lat": "-17.6963889", "city": "Science Park", "lon": "31.0905556"}, {"lat": "-18.1", "city": "Seke", "lon": "31.1666667"}, {"lat": "-18.0333333", "city": "Seki African Township", "lon": "31.1"}, {"lat": "-18.0166667", "city": "Seki", "lon": "31.1"}, {"lat": "-18.0166667", "city": "Seki Township", "lon": "31.1"}, {"lat": "-18.0833333", "city": "Selous", "lon": "30.45"}, {"lat": "-17.7908333", "city": "Sentosa", "lon": "31.01"}, {"lat": "-18.0666667", "city": "Shagari", "lon": "29.85"}, {"lat": "-17.7533333", "city": "Shawasha Hills", "lon": "31.1986111"}, {"lat": "-17.7797222", "city": "Sherwood Park", "lon": "31.0180556"}, {"lat": "-17.7183333", "city": "Sherwood", "lon": "31.1172222"}, {"lat": "-17.9044444", "city": "Shortson", "lon": "31.0141667"}, {"lat": "-17.3666667", "city": "Sinoia", "lon": "30.2"}, {"lat": "-16.6666667", "city": "Sipolilo", "lon": "30.7"}, {"lat": "-19.4666667", "city": "Sote Source", "lon": "31.2166667"}, {"lat": "-19.4666667", "city": "Soti Source", "lon": "31.2166667"}, {"lat": "-17.8636111", "city": "Southerton", "lon": "31.0191667"}, {"lat": "-17.8069444", "city": "St. Andrews Park", "lon": "30.9955556"}, {"lat": "-18.7333333", "city": "Stapleford", "lon": "32.8"}, {"lat": "-17.8597222", "city": "St. Martins", "lon": "31.0611111"}, {"lat": "-17.7977778", "city": "Stortford", "lon": "30.9655556"}, {"lat": "-17.7919444", "city": "Strathaven", "lon": "31.0236111"}, {"lat": "-17.7483333", "city": "Strathmore", "lon": "31.0269444"}, {"lat": "-17.7525", "city": "Stubbington Park", "lon": "31.0516667"}, {"lat": "-17.8677778", "city": "Sunningdale", "lon": "31.0561111"}, {"lat": "-17.7738889", "city": "Sunridge", "lon": "30.9997222"}, {"lat": "-17.7708333", "city": "Sunrise", "lon": "30.9977778"}, {"lat": "-17.15", "city": "Suswe", "lon": "32.3833333"}, {"lat": "-17.15", "city": "Sutskwe Township", "lon": "32.3833333"}, {"lat": "-18.45", "city": "Sweswe", "lon": "29.8166667"}, {"lat": "-17.8352778", "city": "Tafara", "lon": "31.2111111"}, {"lat": "-16.7166667", "city": "Taikoo", "lon": "30.9"}, {"lat": "-17.7352778", "city": "Teneriffe", "lon": "30.9152778"}, {"lat": "-17.7733333", "city": "The Grange", "lon": "31.1405556"}, {"lat": "-19.0", "city": "The Range", "lon": "31.0333333"}, {"lat": "-18.1666667", "city": "Theydon", "lon": "31.6833333"}, {"lat": "-18.3666667", "city": "Thistle Etna", "lon": "30.0833333"}, {"lat": "-17.4", "city": "Tizoras", "lon": "32.9333333"}, {"lat": "-17.5333333", "city": "Trelawney", "lon": "30.45"}, {"lat": "-17.7680556", "city": "Tudeley", "lon": "31.0475"}, {"lat": "-18.0333333", "city": "Tullichewan", "lon": "31.3166667"}, {"lat": "-17.8080556", "city": "Tynwald South", "lon": "30.9425"}, {"lat": "-17.8102778", "city": "Tynwald", "lon": "30.955"}, {"lat": "-19.3333333", "city": "Uhera", "lon": "31.4333333"}, {"lat": "-18.45", "city": "Umsweswe Siding", "lon": "29.8166667"}, {"lat": "-18.45", "city": "Umsweswe", "lon": "29.8166667"}, {"lat": "-18.9666667", "city": "Umtali", "lon": "32.6666667"}, {"lat": "-19.2833333", "city": "Umvuma", "lon": "30.5333333"}, {"lat": "-17.7161111", "city": "Umwinsidale", "lon": "31.1872222"}, {"lat": "-17.9205556", "city": "Uplands", "lon": "31.0291667"}, {"lat": "-18.1666667", "city": "Ushehwokunze", "lon": "31.2333333"}, {"lat": "-18.1666667", "city": "Ushewokunze", "lon": "31.2333333"}, {"lat": "-17.7569444", "city": "Vainona", "lon": "31.0744444"}, {"lat": "-17.7933333", "city": "Valencedene", "lon": "31.0102778"}, {"lat": "-17.7933333", "city": "Valence Dene", "lon": "31.0102778"}, {"lat": "-18.55", "city": "Vengere", "lon": "32.1166667"}, {"lat": "-17.8633333", "city": "Ventersburg", "lon": "31.1672222"}, {"lat": "-18.95", "city": "Vrede", "lon": "30.2833333"}, {"lat": "-17.7411111", "city": "Wallace Block", "lon": "31.1361111"}, {"lat": "-17.8316667", "city": "Warren Park D", "lon": "30.9622222"}, {"lat": "-17.8158333", "city": "Warren Park North", "lon": "30.975"}, {"lat": "-17.8302778", "city": "Warren Park", "lon": "30.9822222"}, {"lat": "-17.8302778", "city": "Warren", "lon": "30.9822222"}, {"lat": "-17.9186111", "city": "Waterfalls", "lon": "31.0016667"}, {"lat": "-17.9186111", "city": "Waterfall", "lon": "31.0016667"}, {"lat": "-18.6833333", "city": "Watsomba", "lon": "32.6333333"}, {"lat": "-18.6166667", "city": "Wedza", "lon": "31.5666667"}, {"lat": "-17.8494444", "city": "Westwood", "lon": "30.9808333"}, {"lat": "-17.8494444", "city": "West Wood", "lon": "30.9808333"}, {"lat": "-17.8805556", "city": "Willowvale", "lon": "30.9744444"}, {"lat": "-17.8805556", "city": "Willow Vale", "lon": "30.9744444"}, {"lat": "-17.8502778", "city": "Wilmington Park", "lon": "31.0838889"}, {"lat": "-18.4", "city": "Wilton", "lon": "31.7666667"}, {"lat": "-17.7183333", "city": "Winchendon", "lon": "31.1172222"}, {"lat": "-17.8480556", "city": "Workington", "lon": "31.015"}, {"lat": "-17.55", "city": "Zanyika", "lon": "31.8166667"}, {"lat": "-17.8661111", "city": "Zimre Park", "lon": "31.2136111"}, {"lat": "-17.7588889", "city": "Zizalisari", "lon": "31.0105556"}], "08": [{"lat": "-21.5333333", "city": "Boli", "lon": "31.4833333"}, {"lat": "-21.5833333", "city": "Chikombu", "lon": "31.25"}, {"lat": "-21.4666667", "city": "Machendu", "lon": "31.5833333"}, {"lat": "-21.6833333", "city": "Matibis", "lon": "31.3166667"}, {"lat": "-21.3833333", "city": "Mbizi", "lon": "31.0166667"}, {"lat": "-21.4166667", "city": "Mwenezi", "lon": "30.7333333"}, {"lat": "-21.4166667", "city": "Nuanetsi", "lon": "30.7333333"}, {"lat": "-21.25", "city": "Rutenga", "lon": "30.7333333"}, {"lat": "-21.8152778", "city": "Tswiza", "lon": "31.5708333"}]}}